~VERSION INFORMATION 
VERS  .    2.0                                     :CWLS Log ASCII Standard - VERSION 2.0
WRAP  .    NO                                      :One Line per Time step
PROD  .    Schlumberger Technology Corp.           :LAS Producer
PROG  .    Horizon LASWriter 9.2.113335.3100       :LAS Program name and version
SOURCE.    Run 10-TimeLogicalAcq                   :Run&Pass Information
CREA  .    01/21/2020                              :LAS Creation date {MM/DD/YYYY}
#--------------------------------------------------
~WELL INFORMATION 
#MNEM           .UNIT                      DATA            :DESCRIPTION
#----            ------          --------------            -----------------------------
STRT            .d               43830.7500000000          :START TIME(OLE Automation date)
STOP            .d               43831.2291666667          :STOP TIME(OLE Automation date)
STEP            .d                            0            :STEP TIME(10s in time)
NULL            .                       -999.25            :NULL VALUE
COMP            .                       Equinor            :COMPANY
WELL            .                        31/5-7            :WELL NAME
FLD             .                           Eos            :FIELD NAME
RIGN            .                 West Hercules            :Rig Name
RIGTYP          .                Semi-Submersible          :Rig Type
SON             .                     19SCA0085            :Service Order Number
SRVC            .                  Schlumberger            :SERVICE COMPANY
DATE            .                    12/31/2019            :LOG DATE(Composite Date for Composite LAP) (MM/DD/YYYY)
CLAB            .                       County:            :County Label
CNTY            .                                          :COUNTY
SLAB            .                                          :State/Province Label
STAT            .                                          :STATE or PROVINCE
PROV            .                                          :STATE or PROVINCE
CTRY            .                        Norway            :COUNTRY
CONT_REGION     .                        Europe            :Continent Region
SECT            .                                          :Section
TOWN            .                                          :Township
RANG            .                                          :Range
API             .                                          :API NUMBER
UWI             .                                          :UNIQUE WELL ID
LUL             .                Service Office            :Logging Unit Location
LUN             .                          A615            :Logging Unit Number
LOC             .                Norwegian North Sea       :FIELD LOCATION
FL1             .                Section: 8 1/2 in.        :Field Location Line 1
FL2             .                Job no.: 19SCA0085        :Field Location Line 2
LATI            .deg             60° 34' 35.14" N          :LATITUDE
LONG            .deg             3° 26' 36.13" E           :LONGITUDE
PDAT            .                           MSL            :Local Permanent Datum
LMF             .                            DF            :Logging Measured From
APD             .m                        31.00            :Elevation of Depth Reference (LMF) Above Permanent Datum
EPD             .m                         0.00            :Elevation of Permanent Datum (PDAT) above Mean Sea Level
EKB             .m                      -999.25            :Elevation of Kelly Bushing Above Permanent Datum
EDF             .m                        31.00            :Elevation of Drill Floor Above Permanent Datum
EGL             .m                      -307.00            :Elevation of Ground Level Above Permanent Datum
ECF             .m                      -999.25            :Elevation of Casing Flange above Permanent Datum
#--------------------------------------------------
~CURVE INFORMATION
#MNEM           .UNIT                  API CODE            :DESCRIPTION
#----            ------          --------------            -----------------------------
TIME_1900       .d                                         :                                                        Time Index(OLE Automation date)
TIME            .s                                         :                                (10s)                   Time(hh mm ss/dd-MMM-yyyy)
DEPTH           .m                                         :(RT)    (DnMWorkflow)                                   Depth Index
BLKP            .m                                         :(RT)    (DRILLING_SURFACE)                              Height of block above rig floor
GR              .gAPI                                      :(RT)    (ARC6)                                          Gamma Ray
CRPM            .c/min                                     :(RT)    (TELE675)                                       Collar Rotational Speed
STICK           .c/min                                     :(RT)    (TELE675)                                       Stick Slip Indicator
SHKRSK          .                                          :(RT)    (TELE675)                                       Shock Risk
SHKPK           .gn                                        :(RT)    (TELE675)                                       Shock Peak
DHAT            .degC                                      :(RM)    (ARC6)                                          Downhole Annulus Temperature
DHAP            .bar                                       :(RM)    (ARC6)                                          Downhole Annulus Pressure
ECD             .g/cm3                                     :(RM)    (ARC6)                                          Equivalent Circulating Density
#-------------------------------------------------------------
#       TIME_1900                 TIME        DEPTH         BLKP           GR         CRPM        STICK       SHKRSK        SHKPK         DHAT         DHAP          ECD 
#                                       (DnMWorkfl)  (DRILLING_)       (ARC6)    (TELE675)    (TELE675)    (TELE675)    (TELE675)       (ARC6)       (ARC6)       (ARC6) 
#                                              (RT)         (RT)         (RT)         (RT)         (RT)         (RT)         (RT)         (RM)         (RM)         (RM) 
#                                (10s)                                                                                                                                   
~ASCII
# ...
 43831.2222222222 05:20:00/01-Jan-2020    845.42999      3.43000      -999.25      -999.25      -999.25      -999.25      -999.25     34.00000     98.38818      1.19923
 43831.2223379630 05:20:10/01-Jan-2020    845.42999      3.34000      -999.25      -999.25      -999.25      -999.25      -999.25     34.00000     98.25029      1.19755
 43831.2224537037 05:20:20/01-Jan-2020    841.02002      8.18000      -999.25      -999.25      -999.25      -999.25      -999.25     34.00000     97.97450      1.19909
 43831.2225694444 05:20:30/01-Jan-2020    825.14001     25.21000      -999.25      -999.25      -999.25      -999.25      -999.25     34.00000     96.80239      1.21235
 43831.2226851852 05:20:40/01-Jan-2020    809.02002     40.28000      -999.25      -999.25      -999.25      -999.25      -999.25     34.00000     94.94081      1.21125
 43831.2228009259 05:20:50/01-Jan-2020    806.44995     42.33000      -999.25      -999.25      -999.25      -999.25      -999.25     34.00000     94.32028      1.20585
 43831.2229166667 05:21:00/01-Jan-2020    806.57001     42.28000      -999.25      -999.25      -999.25      -999.25      -999.25     34.00000     94.45817      1.20740
 43831.2230324074 05:21:10/01-Jan-2020    806.57001     42.26000      -999.25      -999.25      -999.25      -999.25      -999.25     34.00000     94.66502      1.21005
 43831.2231481481 05:21:20/01-Jan-2020    806.62000     42.08000      -999.25      -999.25      -999.25      -999.25      -999.25     34.00000     94.66502      1.20997
 43831.2232638889 05:21:30/01-Jan-2020    806.62000     41.13000      -999.25      -999.25      -999.25      -999.25      -999.25     34.00000     94.25133      1.20469
 43831.2233796296 05:21:40/01-Jan-2020    806.62000     26.99000      -999.25      -999.25      -999.25      -999.25      -999.25     34.00000     94.11344      1.20292
 43831.2234953704 05:21:50/01-Jan-2020    806.62000     11.31000      -999.25      -999.25      -999.25      -999.25      -999.25     33.00000     94.11344      1.20292
 43831.2236111111 05:22:00/01-Jan-2020    806.62000      8.71000      -999.25      -999.25      -999.25      -999.25      -999.25     33.00000     94.38923      1.20645
 43831.2237268519 05:22:10/01-Jan-2020    806.62000      6.13000      -999.25      -999.25      -999.25      -999.25      -999.25     33.00000     93.97554      1.20116
 43831.2238425926 05:22:20/01-Jan-2020    806.62000      3.25000      -999.25      -999.25      -999.25      -999.25      -999.25     33.00000     94.04449      1.20204
 43831.2239583333 05:22:30/01-Jan-2020    806.62000      4.04000      -999.25      -999.25      -999.25      -999.25      -999.25     33.00000     94.59607      1.20909
 43831.2240740741 05:22:40/01-Jan-2020    794.06006     16.29000      -999.25      -999.25      -999.25      -999.25      -999.25     33.00000     94.11344      1.21946
 43831.2241898148 05:22:50/01-Jan-2020    778.04004     33.49000      -999.25      -999.25      -999.25      -999.25      -999.25     33.00000     91.76922      1.21470
 43831.2243055556 05:23:00/01-Jan-2020    768.17999     41.84000      -999.25      -999.25      -999.25      -999.25      -999.25     33.00000     89.83869      1.20665
 43831.2244212963 05:23:10/01-Jan-2020    767.69995     42.27000      -999.25      -999.25      -999.25      -999.25      -999.25     33.00000     89.76974      1.20624
 43831.2245370370 05:23:20/01-Jan-2020    767.97003     42.00000      -999.25      -999.25      -999.25      -999.25      -999.25     33.00000     90.11448      1.21044
 43831.2246527778 05:23:30/01-Jan-2020    767.97003     42.00000      -999.25      -999.25      -999.25      -999.25      -999.25     33.00000     90.18343      1.21137
 43831.2247685185 05:23:40/01-Jan-2020    767.97003     42.00000      -999.25      -999.25      -999.25      -999.25      -999.25     33.00000     90.25237      1.21230
 43831.2248842593 05:23:50/01-Jan-2020    767.97003     42.00000      -999.25      -999.25      -999.25      -999.25      -999.25     33.00000     89.76974      1.20581
 43831.2250000000 05:24:00/01-Jan-2020    767.97003     32.44000      -999.25      -999.25      -999.25      -999.25      -999.25     33.00000     89.76974      1.20581
 43831.2251157407 05:24:10/01-Jan-2020    767.97003     15.95000      -999.25      -999.25      -999.25      -999.25      -999.25     33.00000     90.04553      1.20952
 43831.2252314815 05:24:20/01-Jan-2020    767.97003      8.56000      -999.25      -999.25      -999.25      -999.25      -999.25     33.00000     90.11448      1.21044
 43831.2253472222 05:24:30/01-Jan-2020    767.97003      3.80000      -999.25      -999.25      -999.25      -999.25      -999.25     33.00000     90.11448      1.21044
 43831.2254629630 05:24:40/01-Jan-2020    767.97003      3.24000      -999.25      -999.25      -999.25      -999.25      -999.25     33.00000     90.04553      1.20952
 43831.2255787037 05:24:50/01-Jan-2020    764.53003      7.01000      -999.25      -999.25      -999.25      -999.25      -999.25     33.00000     89.76974      1.21434
 43831.2256944444 05:25:00/01-Jan-2020    748.97003     22.57000      -999.25      -999.25      -999.25      -999.25      -999.25     33.00000     87.83921      1.20813
 43831.2258101852 05:25:10/01-Jan-2020    732.62000     38.92000      -999.25      -999.25      -999.25      -999.25      -999.25     33.00000     86.80499      1.22084
 43831.2259259259 05:25:20/01-Jan-2020    729.09003     42.45000      -999.25      -999.25      -999.25      -999.25      -999.25     33.00000     85.21920      1.20636
 43831.2260416667 05:25:30/01-Jan-2020    729.24005     42.30000      -999.25      -999.25      -999.25      -999.25      -999.25     33.00000     85.35710      1.20817
 43831.2261574074 05:25:40/01-Jan-2020    729.59003     41.92000      -999.25      -999.25      -999.25      -999.25      -999.25     33.00000     85.63288      1.21149
 43831.2262731481 05:25:50/01-Jan-2020    729.59003     41.92000      -999.25      -999.25      -999.25      -999.25      -999.25     33.00000     85.49499      1.20954
 43831.2263888889 05:26:00/01-Jan-2020    729.59003     37.74000      -999.25      -999.25      -999.25      -999.25      -999.25     33.00000     85.35710      1.20759
 43831.2265046296 05:26:10/01-Jan-2020    729.59003     20.24000      -999.25      -999.25      -999.25      -999.25      -999.25     33.00000     85.49499      1.20954
 43831.2266203704 05:26:20/01-Jan-2020    729.59003      9.06000      -999.25      -999.25      -999.25      -999.25      -999.25     33.00000     85.56394      1.21051
 43831.2267361111 05:26:30/01-Jan-2020    729.59003      8.52000      -999.25      -999.25      -999.25      -999.25      -999.25     33.00000     85.70184      1.21246
 43831.2268518518 05:26:40/01-Jan-2020    729.59003      3.46000      -999.25      -999.25      -999.25      -999.25      -999.25     33.00000     85.77078      1.21344
 43831.2269675926 05:26:50/01-Jan-2020    729.59003      3.30000      -999.25      -999.25      -999.25      -999.25      -999.25     33.00000     85.35710      1.20759
 43831.2270833333 05:27:00/01-Jan-2020    729.59003      4.08000      -999.25      -999.25      -999.25      -999.25      -999.25     33.00000     85.42604      1.20856
 43831.2271990741 05:27:10/01-Jan-2020    717.19000     16.06000      -999.25      -999.25      -999.25      -999.25      -999.25     33.00000     84.73656      1.22220
 43831.2273148148 05:27:20/01-Jan-2020    701.04999     32.62000      -999.25      -999.25      -999.25      -999.25      -999.25     33.00000     83.15077      1.22907
 43831.2274305556 05:27:30/01-Jan-2020    691.06006     41.79000      -999.25      -999.25      -999.25      -999.25      -999.25     33.00000     81.77182      1.22195
 43831.2275462963 05:27:40/01-Jan-2020    690.41998     42.38000      -999.25      -999.25      -999.25      -999.25      -999.25     33.00000     81.28919      1.21612
 43831.2276620370 05:27:50/01-Jan-2020    690.67004     42.11000      -999.25      -999.25      -999.25      -999.25      -999.25     33.00000     81.01340      1.21152
