~VERSION INFORMATION 
VERS  .    2.0                                     :CWLS Log ASCII Standard - VERSION 2.0
WRAP  .    NO                                      :One Line per Time step
PROD  .    Schlumberger Technology Corp.           :LAS Producer
PROG  .    Horizon LASWriter 9.2.113335.3100       :LAS Program name and version
SOURCE.    Run 12-TimeLogicalAcq                   :Run&Pass Information
CREA  .    01/21/2020                              :LAS Creation date {MM/DD/YYYY}
#--------------------------------------------------
~WELL INFORMATION 
#MNEM           .UNIT                      DATA            :DESCRIPTION
#----            ------          --------------            -----------------------------
STRT            .d               43837.2295138889          :START TIME(OLE Automation date)
STOP            .d               43837.6875000000          :STOP TIME(OLE Automation date)
STEP            .d                            0            :STEP TIME(10s in time)
NULL            .                       -999.25            :NULL VALUE
COMP            .                       Equinor            :COMPANY
WELL            .                        31/5-7            :WELL NAME
FLD             .                           Eos            :FIELD NAME
RIGN            .                 West Hercules            :Rig Name
RIGTYP          .                Semi-Submersible          :Rig Type
SON             .                     19SCA0085            :Service Order Number
SRVC            .                  Schlumberger            :SERVICE COMPANY
DATE            .                    01/07/2020            :LOG DATE(Composite Date for Composite LAP) (MM/DD/YYYY)
CLAB            .                       County:            :County Label
CNTY            .                                          :COUNTY
SLAB            .                                          :State/Province Label
STAT            .                                          :STATE or PROVINCE
PROV            .                                          :STATE or PROVINCE
CTRY            .                        Norway            :COUNTRY
CONT_REGION     .                        Europe            :Continent Region
SECT            .                                          :Section
TOWN            .                                          :Township
RANG            .                                          :Range
API             .                                          :API NUMBER
UWI             .                                          :UNIQUE WELL ID
LUL             .                Service Office            :Logging Unit Location
LUN             .                          A615            :Logging Unit Number
LOC             .                Norwegian North Sea       :FIELD LOCATION
FL1             .                Section: 8 1/2 in.        :Field Location Line 1
FL2             .                Job no.: 19SCA0085        :Field Location Line 2
LATI            .deg             60° 34' 35.14" N          :LATITUDE
LONG            .deg             3° 26' 36.13" E           :LONGITUDE
PDAT            .                           MSL            :Local Permanent Datum
LMF             .                            DF            :Logging Measured From
APD             .m                        31.00            :Elevation of Depth Reference (LMF) Above Permanent Datum
EPD             .m                         0.00            :Elevation of Permanent Datum (PDAT) above Mean Sea Level
EKB             .m                      -999.25            :Elevation of Kelly Bushing Above Permanent Datum
EDF             .m                        31.00            :Elevation of Drill Floor Above Permanent Datum
EGL             .m                      -307.00            :Elevation of Ground Level Above Permanent Datum
ECF             .m                      -999.25            :Elevation of Casing Flange above Permanent Datum
#--------------------------------------------------
~CURVE INFORMATION
#MNEM           .UNIT                  API CODE            :DESCRIPTION
#----            ------          --------------            -----------------------------
TIME_1900       .d                                         :                                                        Time Index(OLE Automation date)
TIME            .s                                         :                                (10s)                   Time(hh mm ss/dd-MMM-yyyy)
DEPTH           .m                                         :(RT)    (DnMWorkflow)                                   Depth Index
BLKP            .m                                         :(RT)    (DRILLING_SURFACE)                              Height of block above rig floor
GR              .gAPI                                      :(RT)    (ARC6)                                          Gamma Ray
CRPM            .c/min                                     :(RT)    (TELE675)                                       Collar Rotational Speed
STICK           .c/min                                     :(RT)    (TELE675)                                       Stick Slip Indicator
SHKRSK          .                                          :(RT)    (TELE675)                                       Shock Risk
SHKPK           .gn                                        :(RT)    (TELE675)                                       Shock Peak
DHAT            .degC                                      :(RM)    (ARC6)                                          Downhole Annulus Temperature
DHAP            .bar                                       :(RM)    (ARC6)                                          Downhole Annulus Pressure
ECD             .g/cm3                                     :(RM)    (ARC6)                                          Equivalent Circulating Density
#-------------------------------------------------------------
#       TIME_1900                 TIME        DEPTH         BLKP           GR         CRPM        STICK       SHKRSK        SHKPK         DHAT         DHAP          ECD 
#                                       (DnMWorkfl)  (DRILLING_)       (ARC6)    (TELE675)    (TELE675)    (TELE675)    (TELE675)       (ARC6)       (ARC6)       (ARC6) 
#                                              (RT)         (RT)         (RT)         (RT)         (RT)         (RT)         (RT)         (RM)         (RM)         (RM) 
#                                (10s)                                                                                                                                   
~ASCII
# ...
 43837.5461805556 13:06:30/07-Jan-2020   2563.79004     36.64000      -999.25      -999.25      -999.25      -999.25      -999.25     35.00000    292.88930      1.16897
 43837.5462962963 13:06:40/07-Jan-2020   2563.78003     36.65000      -999.25      -999.25      -999.25      -999.25      -999.25     35.00000    289.23510      1.15439
 43837.5464120370 13:06:50/07-Jan-2020   2563.75000     36.68000      -999.25      -999.25      -999.25      -999.25      -999.25     35.00000    298.68090      1.19210
 43837.5465277778 13:07:00/07-Jan-2020   2563.75000     36.68000      -999.25      -999.25      -999.25      -999.25      -999.25     35.00000    294.54400      1.17559
 43837.5466435185 13:07:10/07-Jan-2020   2563.75000     36.68000      -999.25      -999.25      -999.25      -999.25      -999.25     35.00000    292.61350      1.16788
 43837.5467592593 13:07:20/07-Jan-2020   2563.27979     37.16000      -999.25      -999.25      -999.25      -999.25      -999.25     35.00000    292.06190      1.16590
 43837.5468750000 13:07:30/07-Jan-2020   2562.73999     37.73000      -999.25      -999.25      -999.25      -999.25      -999.25     35.00000    288.40770      1.15156
 43837.5469907407 13:07:40/07-Jan-2020   2562.16016     38.28000      -999.25      -999.25      -999.25      -999.25      -999.25     35.00000    292.75140      1.16916
 43837.5471064815 13:07:50/07-Jan-2020   2561.54980     38.91000      -999.25      -999.25      -999.25      -999.25      -999.25     35.00000    297.50880      1.18845
 43837.5472222222 13:08:00/07-Jan-2020   2560.98999     39.44000      -999.25      -999.25      -999.25      -999.25      -999.25     35.00000    294.33720      1.17604
 43837.5473379630 13:08:10/07-Jan-2020   2560.38989     40.04000      -999.25      -999.25      -999.25      -999.25      -999.25     35.00000    296.12980      1.18348
 43837.5474537037 13:08:20/07-Jan-2020   2559.78979     40.64000      -999.25      -999.25      -999.25      -999.25      -999.25     35.00000    289.78660      1.15840
 43837.5475694444 13:08:30/07-Jan-2020   2559.20996     41.22000      -999.25      -999.25      -999.25      -999.25      -999.25     35.00000    291.85510      1.16694
 43837.5476851852 13:08:40/07-Jan-2020   2558.62012     41.81000      -999.25      -999.25      -999.25      -999.25      -999.25     35.00000    294.13040      1.17630
 43837.5478009259 13:08:50/07-Jan-2020   2558.00000     42.46000      -999.25      -999.25      -999.25      -999.25      -999.25     35.00000    290.88980      1.16363
 43837.5479166667 13:09:00/07-Jan-2020   2557.41992     43.01000      -999.25      -999.25      -999.25      -999.25      -999.25     35.00000    289.57980      1.15865
 43837.5480324074 13:09:10/07-Jan-2020   2556.89014     43.54000      -999.25      -999.25      -999.25      -999.25      -999.25     35.00000    291.85510      1.16799
 43837.5481481481 13:09:20/07-Jan-2020   2556.89014     43.54000      -999.25      -999.25      -999.25      -999.25      -999.25     36.00000    289.99350      1.16054
 43837.5482638889 13:09:30/07-Jan-2020   2556.91016     43.52000      -999.25      -999.25      -999.25      -999.25      -999.25     36.00000    287.78720      1.15170
 43837.5483796296 13:09:40/07-Jan-2020   2556.96997     43.46000      -999.25      -999.25      -999.25      -999.25      -999.25     36.00000    291.57930      1.16685
 43837.5484953704 13:09:50/07-Jan-2020   2556.83008     43.60000      -999.25      -999.25      -999.25      -999.25      -999.25     36.00000    293.64770      1.17519
 43837.5486111111 13:10:00/07-Jan-2020   2556.86011     43.57000      -999.25      -999.25      -999.25      -999.25      -999.25     36.00000    288.54560      1.15476
 43837.5487268518 13:10:10/07-Jan-2020   2556.81006     43.62000      -999.25      -999.25      -999.25      -999.25      -999.25     36.00000    290.26930      1.16168
 43837.5488425926 13:10:20/07-Jan-2020   2556.83008     43.60000      -999.25      -999.25      -999.25      -999.25      -999.25     36.00000    291.23460      1.16554
 43837.5489583333 13:10:30/07-Jan-2020   2556.86987     43.56000      -999.25      -999.25      -999.25      -999.25      -999.25     36.00000    294.95770      1.18042
 43837.5490740741 13:10:40/07-Jan-2020   2556.89014     43.54000      -999.25      -999.25      -999.25      -999.25      -999.25     36.00000    293.30300      1.17379
 43837.5491898148 13:10:50/07-Jan-2020   2556.89014     43.54000      -999.25      -999.25      -999.25      -999.25      -999.25     36.00000    294.47510      1.17848
 43837.5493055556 13:11:00/07-Jan-2020   2556.89014     43.54000      -999.25      -999.25      -999.25      -999.25      -999.25     36.00000    290.26930      1.16165
 43837.5494212963 13:11:10/07-Jan-2020   2556.89014     43.54000      -999.25      -999.25      -999.25      -999.25      -999.25     36.00000    292.61350      1.17103
 43837.5495370370 13:11:20/07-Jan-2020   2556.89014     43.55000      -999.25      -999.25      -999.25      -999.25      -999.25     36.00000    289.57980      1.15889
 43837.5496527778 13:11:30/07-Jan-2020   2556.89014     43.63000      -999.25      -999.25      -999.25      -999.25      -999.25     36.00000    286.33930      1.14592
 43837.5497685185 13:11:40/07-Jan-2020   2556.89014     43.79000      -999.25      -999.25      -999.25      -999.25      -999.25     36.00000    288.20090      1.15337
 43837.5498842593 13:11:50/07-Jan-2020   2556.89014     43.79000      -999.25      -999.25      -999.25      -999.25      -999.25     36.00000    288.54560      1.15475
 43837.5500000000 13:12:00/07-Jan-2020   2556.89014     43.79000      -999.25      -999.25      -999.25      -999.25      -999.25     36.00000    287.71820      1.15144
 43837.5501157407 13:12:10/07-Jan-2020   2556.89014     43.79000      -999.25      -999.25      -999.25      -999.25      -999.25     36.00000    295.64720      1.18317
 43837.5502314815 13:12:20/07-Jan-2020   2556.89014     43.79000      -999.25      -999.25      -999.25      -999.25      -999.25     36.00000    292.13090      1.16910
 43837.5503472222 13:12:30/07-Jan-2020   2556.89014     43.79000      -999.25      -999.25      -999.25      -999.25      -999.25     36.00000    296.88820      1.18814
 43837.5504629630 13:12:40/07-Jan-2020   2556.89014     43.79000      -999.25      -999.25      -999.25      -999.25      -999.25     36.00000    296.33670      1.18593
 43837.5505787037 13:12:50/07-Jan-2020   2556.89014     36.37000      -999.25      -999.25      -999.25      -999.25      -999.25     36.00000    296.47460      1.18648
 43837.5506944444 13:13:00/07-Jan-2020   2556.89014     19.50000      -999.25      -999.25      -999.25      -999.25      -999.25     36.00000    287.92510      1.15226
 43837.5508101852 13:13:10/07-Jan-2020   2556.89014      8.65000      -999.25      -999.25      -999.25      -999.25      -999.25     36.00000    294.88880      1.18013
 43837.5509259259 13:13:20/07-Jan-2020   2556.89014      4.92000      -999.25      -999.25      -999.25      -999.25      -999.25     36.00000    292.47560      1.17048
 43837.5510416667 13:13:30/07-Jan-2020   2556.89014      4.92000      -999.25      -999.25      -999.25      -999.25      -999.25     36.00000    288.06300      1.15282
 43837.5511574074 13:13:40/07-Jan-2020   2556.89014      4.93000      -999.25      -999.25      -999.25      -999.25      -999.25     36.00000    294.40610      1.17820
 43837.5512731481 13:13:50/07-Jan-2020   2556.89014      5.02000      -999.25      -999.25      -999.25      -999.25      -999.25     36.00000    287.16660      1.14923
 43837.5513888889 13:14:00/07-Jan-2020   2556.89014      5.02000      -999.25      -999.25      -999.25      -999.25      -999.25     36.00000    290.61400      1.16303
 43837.5515046296 13:14:10/07-Jan-2020   2556.89014      5.02000      -999.25      -999.25      -999.25      -999.25      -999.25     36.00000    292.40670      1.17020
 43837.5516203704 13:14:20/07-Jan-2020   2556.89014      5.02000      -999.25      -999.25      -999.25      -999.25      -999.25     36.00000    290.33820      1.16192
