~VERSION INFORMATION 
VERS  .    2.0                                     :CWLS Log ASCII Standard - VERSION 2.0
WRAP  .    NO                                      :One Line per Time step
PROD  .    Schlumberger Technology Corp.           :LAS Producer
PROG  .    Horizon LASWriter 9.0.106845.3100       :LAS Program name and version
SOURCE.    Run 1-TimeLogicalAcq                    :Run&Pass Information
CREA  .    12/03/2019                              :LAS Creation date {MM/DD/YYYY}
#--------------------------------------------------
~WELL INFORMATION 
#MNEM           .UNIT                      DATA            :DESCRIPTION
#----            ------          --------------            -----------------------------
STRT            .d               43801.7395833334          :START TIME(OLE Automation date)
STOP            .d               43802.2048611111          :STOP TIME(OLE Automation date)
STEP            .d                            0            :STEP TIME(10s in time)
NULL            .                       -999.25            :NULL VALUE
COMP            .                       Equinor            :COMPANY
WELL            .                        31/5-7            :WELL NAME
FLD             .                           Eos            :FIELD NAME
RIGN            .                 West Hercules            :Rig Name
RIGTYP          .                Semi-Submersible          :Rig Type
SON             .                     19SCA0085            :Service Order Number
SRVC            .                  Schlumberger            :SERVICE COMPANY
DATE            .                    12/02/2019            :LOG DATE(Composite Date for Composite LAP) (MM/DD/YYYY)
CLAB            .                       County:            :County Label
CNTY            .                                          :COUNTY
SLAB            .                                          :State/Province Label
STAT            .                                          :STATE or PROVINCE
PROV            .                                          :STATE or PROVINCE
CTRY            .                        Norway            :COUNTRY
CONT_REGION     .                        Europe            :Continent Region
SECT            .                                          :Section
TOWN            .                                          :Township
RANG            .                                          :Range
API             .                                          :API NUMBER
UWI             .                                          :UNIQUE WELL ID
LUL             .                Service Office            :Logging Unit Location
LUN             .                          A615            :Logging Unit Number
LOC             .                Norwegian North Sea       :FIELD LOCATION
FL1             .                Section: 36 in.           :Field Location Line 1
FL2             .                Job no.: 19SCA0085        :Field Location Line 2
LATI            .deg             60° 34' 35.14" N          :LATITUDE
LONG            .deg             3° 26' 36.13" E           :LONGITUDE
PDAT            .                           MSL            :Local Permanent Datum
LMF             .                            DF            :Logging Measured From
APD             .m                        31.00            :Elevation of Depth Reference (LMF) Above Permanent Datum
EPD             .m                         0.00            :Elevation of Permanent Datum (PDAT) above Mean Sea Level
EKB             .m                      -999.25            :Elevation of Kelly Bushing Above Permanent Datum
EDF             .m                        31.00            :Elevation of Drill Floor Above Permanent Datum
EGL             .m                      -307.00            :Elevation of Ground Level Above Permanent Datum
ECF             .m                      -999.25            :Elevation of Casing Flange above Permanent Datum
#--------------------------------------------------
~CURVE INFORMATION
#MNEM           .UNIT                  API CODE            :DESCRIPTION
#----            ------          --------------            -----------------------------
TIME_1900       .d                                         :                                                        Time Index(OLE Automation date)
TIME            .s                                         :                                (10s)                   Time(hh mm ss/dd-MMM-yyyy)
DEPTH           .m                                         :(RT)    (DnMWorkflow)                                   Depth Index
GR              .gAPI                                      :(RT)    (TELE900)                                       Gamma Ray
BLKP            .m                                         :(RT)    (DRILLING_SURFACE)                              Height of block above rig floor
CRPM            .c/min                                     :(RT)    (TELE900)                                       Collar Rotational Speed
STICK           .c/min                                     :(RT)    (TELE900)                                       Stick Slip Indicator
SHKPK           .gn                                        :(RT)    (TELE900)                                       Shock Peak
SHKRSK          .                                          :(RT)    (TELE900)                                       Shock Risk
TEMP_DNI        .degC                                      :(RM)    (TELE900)                                       Direction and Inclination Sensor Temperature
#-------------------------------------------------------------
#       TIME_1900                 TIME        DEPTH           GR         BLKP         CRPM        STICK        SHKPK       SHKRSK     TEMP_DNI 
#                                       (DnMWorkfl)    (TELE900)  (DRILLING_)    (TELE900)    (TELE900)    (TELE900)    (TELE900)    (TELE900) 
#                                              (RT)         (RT)         (RT)         (RT)         (RT)         (RT)         (RT)         (RM) 
#                                (10s)                                                                                                         
~ASCII
# ...
 43801.9469907407 22:43:40/02-Dec-2019     366.9600      71.2124      35.1900      64.0000      -999.25       0.0000       0.0000      -999.25
 43801.9471064815 22:43:50/02-Dec-2019     367.0100      63.7476      35.1500      -999.25     111.0000      -999.25      -999.25      -999.25
 43801.9472222222 22:44:00/02-Dec-2019     366.9600      67.2275      35.2000      -999.25      -999.25      -999.25      -999.25      14.9023
 43801.9473379630 22:44:10/02-Dec-2019     367.0000      59.7627      35.1500      -999.25      -999.25      -999.25      -999.25      -999.25
 43801.9474537037 22:44:20/02-Dec-2019     366.9500      59.7627      35.1100      65.0000      -999.25      -999.25      -999.25      -999.25
 43801.9475694444 22:44:30/02-Dec-2019     367.0800      63.9053      35.0700      -999.25      57.0000       0.0000       0.0000      -999.25
 43801.9476851852 22:44:40/02-Dec-2019     367.0300      72.3549      35.1200      -999.25      -999.25      -999.25      -999.25      -999.25
 43801.9478009259 22:44:50/02-Dec-2019     367.0700      73.0037      35.0800      -999.25      -999.25      -999.25      -999.25      -999.25
 43801.9479166667 22:45:00/02-Dec-2019     367.4900      57.6901      34.6600      -999.25      -999.25      -999.25      -999.25      -999.25
 43801.9480324074 22:45:10/02-Dec-2019     367.4400      42.3765      34.8000      67.0000      -999.25       0.0000       0.0000      -999.25
 43801.9481481481 22:45:20/02-Dec-2019     367.0100      44.6872      35.1400      -999.25     102.0000      -999.25      -999.25      -999.25
 43801.9482638889 22:45:30/02-Dec-2019     367.5300      56.6005      34.6300      -999.25      -999.25      -999.25      -999.25      -999.25
 43801.9483796296 22:45:40/02-Dec-2019     367.2900      60.7432      34.8700      -999.25      -999.25      -999.25      -999.25      -999.25
 43801.9484953704 22:45:50/02-Dec-2019     367.3300      60.7432      34.8200      63.0000      -999.25       0.0000       0.0000      -999.25
 43801.9486111111 22:46:00/02-Dec-2019     367.4700      60.6672      34.6900      -999.25      78.0000      -999.25      -999.25      14.9023
 43801.9487268519 22:46:10/02-Dec-2019     367.5100      65.1823      34.6400      -999.25      -999.25      -999.25      -999.25      -999.25
 43801.9488425926 22:46:20/02-Dec-2019     367.5500      69.2490      34.6000      -999.25      -999.25      -999.25      -999.25      -999.25
 43801.9489583333 22:46:30/02-Dec-2019     367.5900      63.2627      34.5600      62.0000      -999.25      -999.25      -999.25      -999.25
 43801.9490740741 22:46:40/02-Dec-2019     367.4500      69.2490      34.7000      -999.25      90.0000       0.0000       0.0000      -999.25
 43801.9491898148 22:46:50/02-Dec-2019     367.4900      65.1823      34.6600      -999.25      -999.25      -999.25      -999.25      -999.25
 43801.9493055556 22:47:00/02-Dec-2019     367.7200      56.6005      34.4300      -999.25      -999.25      -999.25      -999.25      -999.25
 43801.9494212963 22:47:10/02-Dec-2019     367.6700      60.7432      34.4800      -999.25      -999.25      -999.25      -999.25      -999.25
 43801.9495370370 22:47:20/02-Dec-2019     367.7100      60.7432      34.4400      65.0000      -999.25       0.0000       0.0000      -999.25
 43801.9496527778 22:47:30/02-Dec-2019     367.9500      51.2087      34.2000      -999.25      72.0000      -999.25      -999.25      -999.25
 43801.9497685185 22:47:40/02-Dec-2019     367.9900      47.9713      34.1600      -999.25      -999.25      -999.25      -999.25      -999.25
 43801.9498842593 22:47:50/02-Dec-2019     367.8400      51.1463      34.3100      -999.25      -999.25      -999.25      -999.25      -999.25
 43801.9500000000 22:48:00/02-Dec-2019     367.8900      52.9900      34.2700      58.0000      -999.25      -999.25      -999.25      14.9023
 43801.9501157407 22:48:10/02-Dec-2019     368.0200      47.0037      34.1300      -999.25      93.0000       0.0000       0.0000      -999.25
 43801.9502314815 22:48:20/02-Dec-2019     367.7800      48.4691      34.2800      -999.25      -999.25      -999.25      -999.25      -999.25
 43801.9503472222 22:48:30/02-Dec-2019     368.2000      49.1829      33.9500      -999.25      -999.25      -999.25      -999.25      -999.25
 43801.9504629630 22:48:40/02-Dec-2019     368.3400      43.1966      33.8100      -999.25      -999.25      -999.25      -999.25      -999.25
 43801.9505787037 22:48:50/02-Dec-2019     367.9100      45.0402      34.2400      57.0000      -999.25       0.0000       0.0000      -999.25
 43801.9506944444 22:49:00/02-Dec-2019     368.0400      60.5915      34.1100      -999.25     102.0000      -999.25      -999.25      -999.25
 43801.9508101852 22:49:10/02-Dec-2019     368.5600      71.3879      33.5900      -999.25      -999.25      -999.25      -999.25      -999.25
 43801.9509259259 22:49:20/02-Dec-2019     368.3200      71.3141      33.8300      -999.25      -999.25      -999.25      -999.25      -999.25
 43801.9510416667 22:49:30/02-Dec-2019     368.3600      54.3173      33.7900      63.0000      -999.25       0.0000       0.0000      -999.25
 43801.9511574074 22:49:40/02-Dec-2019     368.5000      47.5021      33.6500      -999.25     120.0000      -999.25      -999.25      -999.25
 43801.9512731481 22:49:50/02-Dec-2019     368.6400      62.3606      33.5100      -999.25      -999.25      -999.25      -999.25      -999.25
 43801.9513888889 22:50:00/02-Dec-2019     368.4900      69.2490      33.6600      -999.25      -999.25      -999.25      -999.25      14.9023
 43801.9515046296 22:50:10/02-Dec-2019     368.5300      63.2627      33.6200      -999.25      -999.25      -999.25      -999.25      -999.25
 43801.9516203704 22:50:20/02-Dec-2019     368.5700      69.2490      33.5800      64.0000      99.0000       0.0000       0.0000      -999.25
 43801.9517361111 22:50:30/02-Dec-2019     368.6200      68.5352      33.5300      -999.25      -999.25      -999.25      -999.25      -999.25
 43801.9518518519 22:50:40/02-Dec-2019     368.6600      67.0698      33.4900      -999.25      -999.25      -999.25      -999.25      -999.25
 43801.9519675926 22:50:50/02-Dec-2019     368.7000      73.0561      33.4500      -999.25      -999.25      -999.25      -999.25      -999.25
 43801.9520833333 22:51:00/02-Dec-2019     368.6500      71.2124      33.5000      66.0000      -999.25       0.0000       0.0000      -999.25
 43801.9521990741 22:51:10/02-Dec-2019     368.6000      63.0769      33.6400      -999.25      36.0000      -999.25      -999.25      -999.25
 43801.9523148148 22:51:20/02-Dec-2019     369.1100      61.2899      33.0400      -999.25      -999.25      -999.25      -999.25      -999.25
 43801.9524305556 22:51:30/02-Dec-2019     369.1500      65.8687      32.9900      -999.25      -999.25      -999.25      -999.25      -999.25
 43801.9525462963 22:51:40/02-Dec-2019     369.0100      65.8687      33.1400      66.0000      -999.25       0.0000       0.0000      -999.25
 43801.9526620370 22:51:50/02-Dec-2019     369.0500      61.7261      33.1000      -999.25      87.0000      -999.25      -999.25      -999.25
 43801.9527777778 22:52:00/02-Dec-2019     369.0900      76.8862      33.0500      -999.25      -999.25      -999.25      -999.25      14.9023
 43801.9528935185 22:52:10/02-Dec-2019     369.1400      83.4730      33.0100      -999.25      -999.25      -999.25      -999.25      -999.25
 43801.9530092593 22:52:20/02-Dec-2019     369.0900      68.1594      33.0600      -999.25      -999.25      -999.25      -999.25      -999.25
 43801.9531250000 22:52:30/02-Dec-2019     369.1300      52.8458      33.0200      63.0000      -999.25       0.0000       0.0000      -999.25
 43801.9532407407 22:52:40/02-Dec-2019     369.1700      56.2570      32.9800      -999.25      99.0000      -999.25      -999.25      -999.25
 43801.9533564815 22:52:50/02-Dec-2019     369.2100      63.9053      32.9300      -999.25      -999.25      -999.25      -999.25      -999.25
