~VERSION INFORMATION 
VERS  .    2.0                                     :CWLS Log ASCII Standard - VERSION 2.0
WRAP  .    NO                                      :One Line per Time step
PROD  .    Schlumberger Technology Corp.           :LAS Producer
PROG  .    Horizon LASWriter 9.2.113335.3100       :LAS Program name and version
SOURCE.    Run 8-TimeLogicalAcq                    :Run&Pass Information
CREA  .    12/30/2019                              :LAS Creation date {MM/DD/YYYY}
#--------------------------------------------------
~WELL INFORMATION 
#MNEM           .UNIT                      DATA            :DESCRIPTION
#----            ------          --------------            -----------------------------
STRT            .d               43822.4166666667          :START TIME(OLE Automation date)
STOP            .d               43824.6875000000          :STOP TIME(OLE Automation date)
STEP            .d                            0            :STEP TIME(10s in time)
NULL            .                       -999.25            :NULL VALUE
COMP            .                       Equinor            :COMPANY
WELL            .                        31/5-7            :WELL NAME
FLD             .                           Eos            :FIELD NAME
RIGN            .                 West Hercules            :Rig Name
RIGTYP          .                Semi-Submersible          :Rig Type
SON             .                     19SCA0085            :Service Order Number
SRVC            .                  Schlumberger            :SERVICE COMPANY
DATE            .                    12/23/2019            :LOG DATE(Composite Date for Composite LAP) (MM/DD/YYYY)
CLAB            .                       County:            :County Label
CNTY            .                                          :COUNTY
SLAB            .                                          :State/Province Label
STAT            .                                          :STATE or PROVINCE
PROV            .                                          :STATE or PROVINCE
CTRY            .                        Norway            :COUNTRY
CONT_REGION     .                        Europe            :Continent Region
SECT            .                                          :Section
TOWN            .                                          :Township
RANG            .                                          :Range
API             .                                          :API NUMBER
UWI             .                                          :UNIQUE WELL ID
LUL             .                Service Office            :Logging Unit Location
LUN             .                          A615            :Logging Unit Number
LOC             .                Norwegian North Sea       :FIELD LOCATION
FL1             .                Section: 12 1/4 in.       :Field Location Line 1
FL2             .                Job no.: 19SCA0085        :Field Location Line 2
LATI            .deg             60° 34' 35.14" N          :LATITUDE
LONG            .deg             3° 26' 36.13" E           :LONGITUDE
PDAT            .                           MSL            :Local Permanent Datum
LMF             .                            DF            :Logging Measured From
APD             .m                        31.00            :Elevation of Depth Reference (LMF) Above Permanent Datum
EPD             .m                         0.00            :Elevation of Permanent Datum (PDAT) above Mean Sea Level
EKB             .m                      -999.25            :Elevation of Kelly Bushing Above Permanent Datum
EDF             .m                        31.00            :Elevation of Drill Floor Above Permanent Datum
EGL             .m                      -307.00            :Elevation of Ground Level Above Permanent Datum
ECF             .m                      -999.25            :Elevation of Casing Flange above Permanent Datum
#--------------------------------------------------
~CURVE INFORMATION
#MNEM           .UNIT                  API CODE            :DESCRIPTION
#----            ------          --------------            -----------------------------
TIME_1900       .d                                         :                                                        Time Index(OLE Automation date)
TIME            .s                                         :                                (10s)                   Time(hh mm ss/dd-MMM-yyyy)
DEPTH           .m                                         :(RT)    (DnMWorkflow)                                   Depth Index
GR              .gAPI                                      :(RT)    (ARC9)                                          Gamma Ray
BLKP            .m                                         :(RT)    (DRILLING_SURFACE)                              Height of block above rig floor
CRPM            .c/min                                     :(RT)    (TELE900)                                       Collar Rotational Speed
STICK           .c/min                                     :(RT)    (TELE900)                                       Stick Slip Indicator
SHKPK           .gn                                        :(RT)    (TELE900)                                       Shock Peak
SHKRSK          .                                          :(RT)    (TELE900)                                       Shock Risk
DHAP            .bar                                       :(RM)    (ARC9)                                          Downhole Annulus Pressure
DHAT            .degC                                      :(RM)    (ARC9)                                          Downhole Annulus Temperature
ECD             .g/cm3                                     :(RM)    (ARC9)                                          Equivalent Circulating Density
#-------------------------------------------------------------
#       TIME_1900                 TIME        DEPTH           GR         BLKP         CRPM        STICK        SHKPK       SHKRSK         DHAP         DHAT          ECD 
#                                       (DnMWorkfl)       (ARC9)  (DRILLING_)    (TELE900)    (TELE900)    (TELE900)    (TELE900)       (ARC9)       (ARC9)       (ARC9) 
#                                              (RT)         (RT)         (RT)         (RT)         (RT)         (RT)         (RT)         (RM)         (RM)         (RM) 
#                                (10s)                                                                                                                                   
~ASCII
# ...
 43824.5500000000 13:12:00/25-Dec-2019    2055.9800      -999.25      40.1300      -999.25      -999.25      -999.25      -999.25     256.2092      46.0000       1.2778
 43824.5501157407 13:12:10/25-Dec-2019    2055.9800      -999.25      40.3800      -999.25      -999.25      -999.25      -999.25     255.7265      46.0000       1.2754
 43824.5502314815 13:12:20/25-Dec-2019    2055.9800      -999.25      40.7400      -999.25      -999.25      -999.25      -999.25     255.5887      46.0000       1.2747
 43824.5503472222 13:12:30/25-Dec-2019    2055.9800      -999.25      40.7400      -999.25      -999.25      -999.25      -999.25     255.3818      46.0000       1.2737
 43824.5504629630 13:12:40/25-Dec-2019    2055.9800      -999.25      40.7400      -999.25      -999.25      -999.25      -999.25     255.8644      46.0000       1.2761
 43824.5505787037 13:12:50/25-Dec-2019    2055.9800      -999.25      40.7400      -999.25      -999.25      -999.25      -999.25     255.3818      46.0000       1.2737
 43824.5506944444 13:13:00/25-Dec-2019    2055.9800      -999.25      40.7400      -999.25      -999.25      -999.25      -999.25     255.8644      46.0000       1.2761
 43824.5508101852 13:13:10/25-Dec-2019    2055.9800      -999.25      40.7400      -999.25      -999.25      -999.25      -999.25     256.0713      46.0000       1.2771
 43824.5509259259 13:13:20/25-Dec-2019    2055.9800      -999.25      40.7400      -999.25      -999.25      -999.25      -999.25     256.2781      46.0000       1.2782
 43824.5510416667 13:13:30/25-Dec-2019    2055.9800      -999.25      40.7400      -999.25      -999.25      -999.25      -999.25     255.5197      46.0000       1.2744
 43824.5511574074 13:13:40/25-Dec-2019    2055.9800      -999.25      40.7400      -999.25      -999.25      -999.25      -999.25     255.9334      46.0000       1.2765
 43824.5512731481 13:13:50/25-Dec-2019    2055.9800      -999.25      40.7400      -999.25      -999.25      -999.25      -999.25     256.0713      46.0000       1.2771
 43824.5513888889 13:14:00/25-Dec-2019    2055.9800      -999.25      40.7400      -999.25      -999.25      -999.25      -999.25     256.0023      46.0000       1.2768
 43824.5515046296 13:14:10/25-Dec-2019    2055.9800      -999.25      40.7400      -999.25      -999.25      -999.25      -999.25     256.0023      46.0000       1.2768
 43824.5516203704 13:14:20/25-Dec-2019    2055.9800      -999.25      40.7400      -999.25      -999.25      -999.25      -999.25     256.3471      46.0000       1.2785
 43824.5517361111 13:14:30/25-Dec-2019    2055.9800      -999.25      40.7400      -999.25      -999.25      -999.25      -999.25     255.5197      46.0000       1.2744
 43824.5518518519 13:14:40/25-Dec-2019    2055.9800      -999.25      40.7400      -999.25      -999.25      -999.25      -999.25     255.3818      46.0000       1.2737
 43824.5519675926 13:14:50/25-Dec-2019    2055.9800      -999.25      40.7400      -999.25      -999.25      -999.25      -999.25     255.8644      46.0000       1.2761
 43824.5520833333 13:15:00/25-Dec-2019    2055.9800      -999.25      40.7400      -999.25      -999.25      -999.25      -999.25     256.4850      46.0000       1.2792
 43824.5521990741 13:15:10/25-Dec-2019    2055.9800      -999.25      40.7400      -999.25      -999.25      -999.25      -999.25     255.6576      46.0000       1.2751
 43824.5523148148 13:15:20/25-Dec-2019    2055.9800      -999.25      40.7400      -999.25      -999.25      -999.25      -999.25     256.0023      46.0000       1.2768
 43824.5524305556 13:15:30/25-Dec-2019    2055.9800      -999.25      40.7400      -999.25      -999.25      -999.25      -999.25     256.3471      46.0000       1.2785
 43824.5525462963 13:15:40/25-Dec-2019    2055.9800      -999.25      40.7400      -999.25      -999.25      -999.25      -999.25     255.8644      46.0000       1.2761
 43824.5526620370 13:15:50/25-Dec-2019    2055.9800      -999.25      40.7400      -999.25      -999.25      -999.25      -999.25     254.9681      46.0000       1.2716
 43824.5527777778 13:16:00/25-Dec-2019    2055.9800      -999.25      40.7400      -999.25      -999.25      -999.25      -999.25     255.3129      46.0000       1.2734
 43824.5528935185 13:16:10/25-Dec-2019    2055.9800      -999.25      40.7400      -999.25      -999.25      -999.25      -999.25     256.6229      46.0000       1.2799
 43824.5530092593 13:16:20/25-Dec-2019    2055.9800      -999.25      40.7400      -999.25      -999.25      -999.25      -999.25     255.4508      46.0000       1.2740
 43824.5531250000 13:16:30/25-Dec-2019    2055.9800      -999.25      40.7400      -999.25      -999.25      -999.25      -999.25     255.9334      46.0000       1.2765
 43824.5532407407 13:16:40/25-Dec-2019    2055.9800      -999.25      40.3800      -999.25      -999.25      -999.25      -999.25     256.0713      46.0000       1.2771
 43824.5533564815 13:16:50/25-Dec-2019    2055.9800      -999.25      27.0900      -999.25      -999.25      -999.25      -999.25     256.1402      46.0000       1.2775
 43824.5534722222 13:17:00/25-Dec-2019    2055.9800      -999.25      11.0400      -999.25      -999.25      -999.25      -999.25     255.4508      46.0000       1.2740
 43824.5535879630 13:17:10/25-Dec-2019    2055.9800      -999.25       3.7800      -999.25      -999.25      -999.25      -999.25     255.5887      46.0000       1.2747
 43824.5537037037 13:17:20/25-Dec-2019    2055.9800      -999.25       3.0700      -999.25      -999.25      -999.25      -999.25     255.5197      46.0000       1.2744
 43824.5538194444 13:17:30/25-Dec-2019    2055.9800      -999.25       3.1900      -999.25      -999.25      -999.25      -999.25     255.7265      46.0000       1.2754
 43824.5539351852 13:17:40/25-Dec-2019    2055.9800      -999.25       3.1900      -999.25      -999.25      -999.25      -999.25     255.6576      46.0000       1.2751
 43824.5540509259 13:17:50/25-Dec-2019    2055.9800      -999.25       3.2800      -999.25      -999.25      -999.25      -999.25     255.9334      46.0000       1.2765
 43824.5541666667 13:18:00/25-Dec-2019    2055.4600      -999.25       4.1700      -999.25      -999.25      -999.25      -999.25     255.3818      46.0000       1.2740
 43824.5542824074 13:18:10/25-Dec-2019    2054.2500      -999.25       5.3800      -999.25      -999.25      -999.25      -999.25     253.5202      46.0000       1.2655
 43824.5543981481 13:18:20/25-Dec-2019    2054.2500      -999.25       5.3800      -999.25      -999.25      -999.25      -999.25     254.9681      46.0000       1.2727
 43824.5545138889 13:18:30/25-Dec-2019    2054.4102      -999.25       5.1500      -999.25      -999.25      -999.25      -999.25     255.7265      46.0000       1.2764
 43824.5546296296 13:18:40/25-Dec-2019    2054.4102      -999.25       4.4000      -999.25      -999.25      -999.25      -999.25     255.5887      46.0000       1.2757
 43824.5547453704 13:18:50/25-Dec-2019    2054.4102      -999.25       3.5900      -999.25      -999.25      -999.25      -999.25     255.3818      46.0000       1.2747
 43824.5548611111 13:19:00/25-Dec-2019    2054.4102      -999.25       3.2600      -999.25      -999.25      -999.25      -999.25     255.7265      46.0000       1.2764
 43824.5549768518 13:19:10/25-Dec-2019    2054.4102      -999.25       2.9700      -999.25      -999.25      -999.25      -999.25     256.0713      46.0000       1.2781
 43824.5550925926 13:19:20/25-Dec-2019    2054.4102      -999.25       2.9600      -999.25      -999.25      -999.25      -999.25     255.4508      46.0000       1.2750
 43824.5552083333 13:19:30/25-Dec-2019    2054.4102      -999.25       2.9400      -999.25      -999.25      -999.25      -999.25     255.6576      46.0000       1.2761
 43824.5553240741 13:19:40/25-Dec-2019    2054.4102      -999.25       2.9500      -999.25      -999.25      -999.25      -999.25     255.5887      46.0000       1.2757
 43824.5554398148 13:19:50/25-Dec-2019    2054.4102      -999.25       2.9500      -999.25      -999.25      -999.25      -999.25     255.5887      46.0000       1.2757
