~VERSION INFORMATION 
VERS  .    2.0                                     :CWLS Log ASCII Standard - VERSION 2.0
WRAP  .    NO                                      :One Line per Time step
PROD  .    Schlumberger Technology Corp.           :LAS Producer
PROG  .    Horizon LASWriter 9.0.106845.3100       :LAS Program name and version
SOURCE.    Run 1-TimeLogicalAcq                    :Run&Pass Information
CREA  .    12/03/2019                              :LAS Creation date {MM/DD/YYYY}
#--------------------------------------------------
~WELL INFORMATION 
#MNEM           .UNIT                      DATA            :DESCRIPTION
#----            ------          --------------            -----------------------------
STRT            .d               43801.7395833334          :START TIME(OLE Automation date)
STOP            .d               43802.2048611111          :STOP TIME(OLE Automation date)
STEP            .d                            0            :STEP TIME(10s in time)
NULL            .                       -999.25            :NULL VALUE
COMP            .                       Equinor            :COMPANY
WELL            .                        31/5-7            :WELL NAME
FLD             .                           Eos            :FIELD NAME
RIGN            .                 West Hercules            :Rig Name
RIGTYP          .                Semi-Submersible          :Rig Type
SON             .                     19SCA0085            :Service Order Number
SRVC            .                  Schlumberger            :SERVICE COMPANY
DATE            .                    12/02/2019            :LOG DATE(Composite Date for Composite LAP) (MM/DD/YYYY)
CLAB            .                       County:            :County Label
CNTY            .                                          :COUNTY
SLAB            .                                          :State/Province Label
STAT            .                                          :STATE or PROVINCE
PROV            .                                          :STATE or PROVINCE
CTRY            .                        Norway            :COUNTRY
CONT_REGION     .                        Europe            :Continent Region
SECT            .                                          :Section
TOWN            .                                          :Township
RANG            .                                          :Range
API             .                                          :API NUMBER
UWI             .                                          :UNIQUE WELL ID
LUL             .                Service Office            :Logging Unit Location
LUN             .                          A615            :Logging Unit Number
LOC             .                Norwegian North Sea       :FIELD LOCATION
FL1             .                Section: 36 in.           :Field Location Line 1
FL2             .                Job no.: 19SCA0085        :Field Location Line 2
LATI            .deg             60° 34' 35.14" N          :LATITUDE
LONG            .deg             3° 26' 36.13" E           :LONGITUDE
PDAT            .                           MSL            :Local Permanent Datum
LMF             .                            DF            :Logging Measured From
APD             .m                        31.00            :Elevation of Depth Reference (LMF) Above Permanent Datum
EPD             .m                         0.00            :Elevation of Permanent Datum (PDAT) above Mean Sea Level
EKB             .m                      -999.25            :Elevation of Kelly Bushing Above Permanent Datum
EDF             .m                        31.00            :Elevation of Drill Floor Above Permanent Datum
EGL             .m                      -307.00            :Elevation of Ground Level Above Permanent Datum
ECF             .m                      -999.25            :Elevation of Casing Flange above Permanent Datum
#--------------------------------------------------
~CURVE INFORMATION
#MNEM           .UNIT                  API CODE            :DESCRIPTION
#----            ------          --------------            -----------------------------
TIME_1900       .d                                         :                                                        Time Index(OLE Automation date)
TIME            .s                                         :                                (10s)                   Time(hh mm ss/dd-MMM-yyyy)
DEPTH           .m                                         :(RT)    (DnMWorkflow)                                   Depth Index
GR              .gAPI                                      :(RT)    (TELE900)                                       Gamma Ray
BLKP            .m                                         :(RT)    (DRILLING_SURFACE)                              Height of block above rig floor
CRPM            .c/min                                     :(RT)    (TELE900)                                       Collar Rotational Speed
STICK           .c/min                                     :(RT)    (TELE900)                                       Stick Slip Indicator
SHKPK           .gn                                        :(RT)    (TELE900)                                       Shock Peak
SHKRSK          .                                          :(RT)    (TELE900)                                       Shock Risk
TEMP_DNI        .degC                                      :(RM)    (TELE900)                                       Direction and Inclination Sensor Temperature
#-------------------------------------------------------------
#       TIME_1900                 TIME        DEPTH           GR         BLKP         CRPM        STICK        SHKPK       SHKRSK     TEMP_DNI 
#                                       (DnMWorkfl)    (TELE900)  (DRILLING_)    (TELE900)    (TELE900)    (TELE900)    (TELE900)    (TELE900) 
#                                              (RT)         (RT)         (RT)         (RT)         (RT)         (RT)         (RT)         (RM) 
#                                (10s)                                                                                                         
~ASCII
# ...
 43801.8951388889 21:29:00/02-Dec-2019     353.1500      38.2793      10.2200      -999.25      -999.25      -999.25      -999.25      -999.25
 43801.8952546296 21:29:10/02-Dec-2019     353.1900      44.2656      10.1800      -999.25      -999.25      -999.25      -999.25      -999.25
 43801.8953703704 21:29:20/02-Dec-2019     353.2300      38.2793      10.1400      29.0000      -999.25       0.0000       0.0000      -999.25
 43801.8954861111 21:29:30/02-Dec-2019     353.2700      34.9571      10.1000      -999.25     120.0000      -999.25      -999.25      -999.25
 43801.8956018519 21:29:40/02-Dec-2019     353.3100      38.2793      10.0600      -999.25      -999.25      -999.25      -999.25      -999.25
 43801.8957175926 21:29:50/02-Dec-2019     353.3500      42.4219      10.0200      -999.25      -999.25      -999.25      -999.25      -999.25
 43801.8958333333 21:30:00/02-Dec-2019     353.3900      42.4219       9.9800      31.0000      -999.25       0.0000       0.0000      12.5493
 43801.8959490741 21:30:10/02-Dec-2019     353.4400      41.8024       9.9300      -999.25     114.0000      -999.25      -999.25      -999.25
 43801.8960648148 21:30:20/02-Dec-2019     353.4700      45.6597       9.9000      -999.25      -999.25      -999.25      -999.25      -999.25
 43801.8961805556 21:30:30/02-Dec-2019     353.5100      45.0402       9.8600      -999.25      -999.25      -999.25      -999.25      -999.25
 43801.8962962963 21:30:40/02-Dec-2019     353.5600      43.1966       9.8100      26.0000      -999.25      -999.25      -999.25      -999.25
 43801.8964120370 21:30:50/02-Dec-2019     353.6000      49.1829       9.7700      -999.25      45.0000       0.0000       0.0000      -999.25
 43801.8965277778 21:31:00/02-Dec-2019     353.6400      54.5257       9.7300      -999.25      -999.25      -999.25      -999.25      -999.25
 43801.8966435185 21:31:10/02-Dec-2019     353.6800      53.8723       9.6900      -999.25      -999.25      -999.25      -999.25      -999.25
 43801.8967592593 21:31:20/02-Dec-2019     353.7200      47.8859       9.6500      -999.25      -999.25      -999.25      -999.25      -999.25
 43801.8968750000 21:31:30/02-Dec-2019     353.7600      49.7296       9.6100      28.0000      -999.25       0.0000       0.0000      -999.25
 43801.8969907407 21:31:40/02-Dec-2019     353.8000      54.5257       9.5700      -999.25      66.0000      -999.25      -999.25      -999.25
 43801.8971064815 21:31:50/02-Dec-2019     353.8400      52.9590       9.5300      -999.25      -999.25      -999.25      -999.25      -999.25
 43801.8972222222 21:32:00/02-Dec-2019     353.8800      45.0402       9.4900      -999.25      -999.25      -999.25      -999.25      13.3337
 43801.8973379630 21:32:10/02-Dec-2019     353.9300      45.0402       9.4400      32.0000      -999.25       0.0000       0.0000      -999.25
 43801.8974537037 21:32:20/02-Dec-2019     353.9700      49.1829       9.4000      -999.25     381.0000      -999.25      -999.25      -999.25
 43801.8975694444 21:32:30/02-Dec-2019     354.0100      48.3709       9.3600      -999.25      -999.25      -999.25      -999.25      -999.25
 43801.8976851852 21:32:40/02-Dec-2019     354.0500      51.6930       9.3200      -999.25      -999.25      -999.25      -999.25      -999.25
 43801.8978009259 21:32:50/02-Dec-2019     354.0900      57.6793       9.2800      -999.25      -999.25      -999.25      -999.25      -999.25
 43801.8979166667 21:33:00/02-Dec-2019     354.1300      51.6930       9.2400      31.0000      -999.25       0.0000       0.0000      -999.25
 43801.8980324074 21:33:10/02-Dec-2019     354.1700      47.9498       9.2000      -999.25      69.0000      -999.25      -999.25      -999.25
 43801.8981481481 21:33:20/02-Dec-2019     354.2100      40.4585       9.1600      -999.25      -999.25      -999.25      -999.25      -999.25
 43801.8982638889 21:33:30/02-Dec-2019     354.2500      36.3158       9.1200      -999.25      -999.25      -999.25      -999.25      -999.25
 43801.8983796296 21:33:40/02-Dec-2019     354.3000      36.3158       9.0700      23.0000      -999.25       0.0000       0.0000      -999.25
 43801.8984953704 21:33:50/02-Dec-2019     354.3400      39.7447       9.0300      -999.25     285.0000      -999.25      -999.25      -999.25
 43801.8986111111 21:34:00/02-Dec-2019     354.3800      38.9930       8.9900      -999.25      -999.25      -999.25      -999.25      13.3337
 43801.8987268518 21:34:10/02-Dec-2019     354.4200      42.4219       8.9500      -999.25      -999.25      -999.25      -999.25      -999.25
 43801.8988425926 21:34:20/02-Dec-2019     354.4600      44.2656       8.9100      31.0000      -999.25      -999.25      -999.25      -999.25
 43801.8989583333 21:34:30/02-Dec-2019     354.5000      38.2793       8.8700      -999.25     141.0000       0.0000       0.0000      -999.25
 43801.8990740741 21:34:40/02-Dec-2019     354.5400      45.6597       8.8300      -999.25      -999.25      -999.25      -999.25      -999.25
 43801.8991898148 21:34:50/02-Dec-2019     354.5800      49.1829       8.7900      -999.25      -999.25      -999.25      -999.25      -999.25
 43801.8993055556 21:35:00/02-Dec-2019     354.6200      43.1966       8.7500      -999.25      -999.25      -999.25      -999.25      -999.25
 43801.8994212963 21:35:10/02-Dec-2019     354.6600      45.0402       8.7100      31.0000      -999.25       0.0000       0.0000      -999.25
 43801.8995370370 21:35:20/02-Dec-2019     354.7000      52.9590       8.6700      -999.25      42.0000      -999.25      -999.25      -999.25
 43801.8996527778 21:35:30/02-Dec-2019     354.7500      54.5257       8.6200      -999.25      -999.25      -999.25      -999.25      -999.25
 43801.8997685185 21:35:40/02-Dec-2019     354.7900      49.7296       8.5800      -999.25      -999.25      -999.25      -999.25      -999.25
 43801.8998842593 21:35:50/02-Dec-2019     354.8300      49.7296       8.5400      30.0000      -999.25       0.0000       0.0000      -999.25
 43801.9000000000 21:36:00/02-Dec-2019     354.8700      53.8723       8.5000      -999.25      42.0000      -999.25      -999.25      13.3337
 43801.9001157407 21:36:10/02-Dec-2019     354.9100      59.3607       8.4600      -999.25      -999.25      -999.25      -999.25      -999.25
 43801.9002314815 21:36:20/02-Dec-2019     354.9500      58.7797       8.4200      -999.25      -999.25      -999.25      -999.25      -999.25
 43801.9003472222 21:36:30/02-Dec-2019     354.9900      52.7934       8.3800      -999.25      -999.25      -999.25      -999.25      -999.25
 43801.9004629630 21:36:40/02-Dec-2019     355.0300      58.7797       8.3400      30.0000      -999.25       0.0000       0.0000      -999.25
 43801.9005787037 21:36:50/02-Dec-2019     355.0700      59.3607       8.2900      -999.25     180.0000      -999.25      -999.25      -999.25
 43801.9006944444 21:37:00/02-Dec-2019     355.1100      53.8723       8.2500      -999.25      -999.25      -999.25      -999.25      -999.25
 43801.9008101852 21:37:10/02-Dec-2019     355.1600      49.7296       8.2100      -999.25      -999.25      -999.25      -999.25      -999.25
 43801.9009259259 21:37:20/02-Dec-2019     355.2000      49.7296       8.1700      28.0000      -999.25       0.0000       0.0000      -999.25
 43801.9010416667 21:37:30/02-Dec-2019     355.2400      61.1225       8.1300      -999.25      45.0000      -999.25      -999.25      -999.25
 43801.9011574074 21:37:40/02-Dec-2019     355.2800      66.4119       8.0900      -999.25      -999.25      -999.25      -999.25      -999.25
 43801.9012731481 21:37:50/02-Dec-2019     355.3200      65.1064       8.0500      -999.25      -999.25      -999.25      -999.25      -999.25
 43801.9013888889 21:38:00/02-Dec-2019     355.3600      63.2627       8.0100      30.0000      -999.25      -999.25      -999.25      13.3337
 43801.9015046296 21:38:10/02-Dec-2019     355.4000      69.2490       7.9700      -999.25      54.0000       0.0000       0.0000      -999.25
