~VERSION INFORMATION 
VERS  .    2.0                                     :CWLS Log ASCII Standard - VERSION 2.0
WRAP  .    NO                                      :One Line per Time step
PROD  .    Schlumberger Technology Corp.           :LAS Producer
PROG  .    Horizon LASWriter 9.2.113335.3100       :LAS Program name and version
SOURCE.    Run 10-TimeLogicalAcq                   :Run&Pass Information
CREA  .    01/21/2020                              :LAS Creation date {MM/DD/YYYY}
#--------------------------------------------------
~WELL INFORMATION 
#MNEM           .UNIT                      DATA            :DESCRIPTION
#----            ------          --------------            -----------------------------
STRT            .d               43830.7500000000          :START TIME(OLE Automation date)
STOP            .d               43831.2291666667          :STOP TIME(OLE Automation date)
STEP            .d                            0            :STEP TIME(10s in time)
NULL            .                       -999.25            :NULL VALUE
COMP            .                       Equinor            :COMPANY
WELL            .                        31/5-7            :WELL NAME
FLD             .                           Eos            :FIELD NAME
RIGN            .                 West Hercules            :Rig Name
RIGTYP          .                Semi-Submersible          :Rig Type
SON             .                     19SCA0085            :Service Order Number
SRVC            .                  Schlumberger            :SERVICE COMPANY
DATE            .                    12/31/2019            :LOG DATE(Composite Date for Composite LAP) (MM/DD/YYYY)
CLAB            .                       County:            :County Label
CNTY            .                                          :COUNTY
SLAB            .                                          :State/Province Label
STAT            .                                          :STATE or PROVINCE
PROV            .                                          :STATE or PROVINCE
CTRY            .                        Norway            :COUNTRY
CONT_REGION     .                        Europe            :Continent Region
SECT            .                                          :Section
TOWN            .                                          :Township
RANG            .                                          :Range
API             .                                          :API NUMBER
UWI             .                                          :UNIQUE WELL ID
LUL             .                Service Office            :Logging Unit Location
LUN             .                          A615            :Logging Unit Number
LOC             .                Norwegian North Sea       :FIELD LOCATION
FL1             .                Section: 8 1/2 in.        :Field Location Line 1
FL2             .                Job no.: 19SCA0085        :Field Location Line 2
LATI            .deg             60° 34' 35.14" N          :LATITUDE
LONG            .deg             3° 26' 36.13" E           :LONGITUDE
PDAT            .                           MSL            :Local Permanent Datum
LMF             .                            DF            :Logging Measured From
APD             .m                        31.00            :Elevation of Depth Reference (LMF) Above Permanent Datum
EPD             .m                         0.00            :Elevation of Permanent Datum (PDAT) above Mean Sea Level
EKB             .m                      -999.25            :Elevation of Kelly Bushing Above Permanent Datum
EDF             .m                        31.00            :Elevation of Drill Floor Above Permanent Datum
EGL             .m                      -307.00            :Elevation of Ground Level Above Permanent Datum
ECF             .m                      -999.25            :Elevation of Casing Flange above Permanent Datum
#--------------------------------------------------
~CURVE INFORMATION
#MNEM           .UNIT                  API CODE            :DESCRIPTION
#----            ------          --------------            -----------------------------
TIME_1900       .d                                         :                                                        Time Index(OLE Automation date)
TIME            .s                                         :                                (10s)                   Time(hh mm ss/dd-MMM-yyyy)
DEPTH           .m                                         :(RT)    (DnMWorkflow)                                   Depth Index
BLKP            .m                                         :(RT)    (DRILLING_SURFACE)                              Height of block above rig floor
GR              .gAPI                                      :(RT)    (ARC6)                                          Gamma Ray
CRPM            .c/min                                     :(RT)    (TELE675)                                       Collar Rotational Speed
STICK           .c/min                                     :(RT)    (TELE675)                                       Stick Slip Indicator
SHKRSK          .                                          :(RT)    (TELE675)                                       Shock Risk
SHKPK           .gn                                        :(RT)    (TELE675)                                       Shock Peak
DHAT            .degC                                      :(RM)    (ARC6)                                          Downhole Annulus Temperature
DHAP            .bar                                       :(RM)    (ARC6)                                          Downhole Annulus Pressure
ECD             .g/cm3                                     :(RM)    (ARC6)                                          Equivalent Circulating Density
#-------------------------------------------------------------
#       TIME_1900                 TIME        DEPTH         BLKP           GR         CRPM        STICK       SHKRSK        SHKPK         DHAT         DHAP          ECD 
#                                       (DnMWorkfl)  (DRILLING_)       (ARC6)    (TELE675)    (TELE675)    (TELE675)    (TELE675)       (ARC6)       (ARC6)       (ARC6) 
#                                              (RT)         (RT)         (RT)         (RT)         (RT)         (RT)         (RT)         (RM)         (RM)         (RM) 
#                                (10s)                                                                                                                                   
~ASCII
# ...
 43831.0166666667 00:24:00/01-Jan-2020   2631.69995      8.54000    117.18240      -999.25      -999.25      -999.25      -999.25     42.00000    309.78140      1.20440
 43831.0167824074 00:24:10/01-Jan-2020   2631.25000      8.99000    116.95380      -999.25      -999.25      -999.25      -999.25     42.00000    309.02300      1.20161
 43831.0168981481 00:24:20/01-Jan-2020   2631.23999      9.00000    116.70760      -999.25      -999.25      -999.25      -999.25     42.00000    309.71250      1.20432
 43831.0170138889 00:24:30/01-Jan-2020   2631.23999      9.00000    116.47210      -999.25      -999.25      -999.25      -999.25     42.00000    308.19560      1.19842
 43831.0171296296 00:24:40/01-Jan-2020   2631.21021      9.03000    116.27400      -999.25      -999.25      0.00000      0.00000     42.00000    307.64410      1.19629
 43831.0172453704 00:24:50/01-Jan-2020   2631.16016      9.08000    116.13600      -999.25      -999.25      -999.25      -999.25     42.00000    308.19560      1.19846
 43831.0173611111 00:25:00/01-Jan-2020   2631.10010      9.14000    113.63570      -999.25      -999.25      -999.25      -999.25     42.00000    309.09200      1.20196
 43831.0174768518 00:25:10/01-Jan-2020   2631.05005      9.19000    109.75230      -999.25      -999.25      -999.25      -999.25     42.00000    307.64410      1.19636
 43831.0175925926 00:25:20/01-Jan-2020   2631.00000      9.24000    107.98470    100.00000      -999.25      -999.25      -999.25     42.00000    308.12670      1.19826
 43831.0177083333 00:25:30/01-Jan-2020   2630.89990      9.34000    107.55860      -999.25      9.00000      0.00000      0.00000     42.00000    306.81670      1.19321
 43831.0178240741 00:25:40/01-Jan-2020   2630.81006      9.43000    107.98470      -999.25      -999.25      -999.25      -999.25     42.00000    310.05720      1.20586
 43831.0179398148 00:25:50/01-Jan-2020   2630.71997      9.52000    108.46590      -999.25      -999.25      -999.25      -999.25     42.00000    311.09140      1.20991
 43831.0180555556 00:26:00/01-Jan-2020   2630.62988      9.61000    108.00460      -999.25      -999.25      -999.25      -999.25     42.00000    308.95410      1.20164
 43831.0181712963 00:26:10/01-Jan-2020   2630.53003      9.71000    106.49900      -999.25      -999.25      -999.25      -999.25     42.00000    309.85040      1.20517
 43831.0182870370 00:26:20/01-Jan-2020   2630.44019      9.80000    105.01330    100.00000      -999.25      -999.25      -999.25     42.00000    309.36780      1.20334
 43831.0184027778 00:26:30/01-Jan-2020   2630.34985      9.89000    106.65610      -999.25      6.00000      0.00000      0.00000     42.00000    310.26410      1.20688
 43831.0185185185 00:26:40/01-Jan-2020   2630.26001      9.98000    110.90580      -999.25      -999.25      -999.25      -999.25     42.00000    309.43670      1.20369
 43831.0186342593 00:26:50/01-Jan-2020   2630.17017     10.07000    115.31050      -999.25      -999.25      -999.25      -999.25     42.00000    308.47140      1.19998
 43831.0187500000 00:27:00/01-Jan-2020   2630.07007     10.17000    118.94290      -999.25      -999.25      -999.25      -999.25     42.00000    307.91990      1.19788
 43831.0188657407 00:27:10/01-Jan-2020   2629.97998     10.26000    119.39840    100.00000      -999.25      -999.25      -999.25     42.00000    307.16140      1.19498
 43831.0189814815 00:27:20/01-Jan-2020   2629.88989     10.35000    118.97230      -999.25      6.00000      0.00000      0.00000     42.00000    309.36780      1.20360
 43831.0190972222 00:27:30/01-Jan-2020   2629.79004     10.45000    119.39840      -999.25      -999.25      -999.25      -999.25     42.00000    310.12620      1.20658
 43831.0192129630 00:27:40/01-Jan-2020   2629.70020     10.54000    118.72160      -999.25      -999.25      -999.25      -999.25     42.00000    308.05780      1.19858
 43831.0193287037 00:27:50/01-Jan-2020   2629.60986     10.63000    114.31030      -999.25      -999.25      -999.25      -999.25     42.00000    308.40250      1.19997
 43831.0194444444 00:28:00/01-Jan-2020   2629.52002     10.72000    111.19710      -999.25      -999.25      -999.25      -999.25     42.00000    307.57510      1.19680
 43831.0195601852 00:28:10/01-Jan-2020   2629.41992     10.82000    110.48010    100.00000      9.00000      -999.25      -999.25     42.00000    308.33360      1.19979
 43831.0196759259 00:28:20/01-Jan-2020   2629.33008     10.91000    110.48010      -999.25      -999.25      0.00000      0.00000     42.00000    309.71250      1.20519
 43831.0197916667 00:28:30/01-Jan-2020   2629.23999     11.01000    111.19710      -999.25      -999.25      -999.25      -999.25     42.00000    309.71250      1.20523
 43831.0199074074 00:28:40/01-Jan-2020   2629.15015     11.10000      -999.25      -999.25      -999.25      -999.25      -999.25     42.00000    307.91990      1.19830
 43831.0200231481 00:28:50/01-Jan-2020   2629.05005     11.19000      -999.25      -999.25      -999.25      -999.25      -999.25     42.00000    307.64410      1.19727
 43831.0201388889 00:29:00/01-Jan-2020   2628.96021     11.28000      -999.25    100.00000      -999.25      -999.25      -999.25     42.00000    307.78200      1.19786
 43831.0202546296 00:29:10/01-Jan-2020   2628.86987     11.37000      -999.25      -999.25      9.00000      0.00000      0.00000     42.00000    310.74670      1.20943
 43831.0203703704 00:29:20/01-Jan-2020   2628.78003     11.47000      -999.25      -999.25      -999.25      -999.25      -999.25     42.00000    309.09200      1.20303
 43831.0204861111 00:29:30/01-Jan-2020   2628.67993     11.56000    110.74120      -999.25      -999.25      -999.25      -999.25     42.00000    306.26510      1.19207
 43831.0206018519 00:29:40/01-Jan-2020   2628.59009     11.65000    109.73200      -999.25      -999.25      -999.25      -999.25     42.00000    305.98930      1.19105
 43831.0207175926 00:29:50/01-Jan-2020   2628.50000     11.75000    108.88990    100.00000      -999.25      -999.25      -999.25     42.00000    308.67830      1.20156
 43831.0208333333 00:30:00/01-Jan-2020   2628.39990     11.84000    110.27190      -999.25      9.00000      -999.25      -999.25     42.00000    310.60880      1.20911
 43831.0209490741 00:30:10/01-Jan-2020   2628.31006     11.93000    111.91470      -999.25      -999.25      0.00000      0.00000     42.00000    308.33360      1.20029
 43831.0210648148 00:30:20/01-Jan-2020   2628.21997     12.02000    113.29680      -999.25      -999.25      -999.25      -999.25     42.00000    307.02350      1.19523
 43831.0211805556 00:30:30/01-Jan-2020   2628.12012     12.12000    111.73910      -999.25      -999.25      -999.25      -999.25     42.00000    306.81670      1.19448
 43831.0212962963 00:30:40/01-Jan-2020   2628.03003     12.21000    109.68300      -999.25      -999.25      -999.25      -999.25     42.00000    307.78200      1.19828
 43831.0214120370 00:30:50/01-Jan-2020   2627.93994     12.30000    109.51710    100.00000      -999.25      -999.25      -999.25     42.00000    308.88510      1.20261
 43831.0215277778 00:31:00/01-Jan-2020   2627.84985     12.40000    111.09330      -999.25      9.00000      0.00000      0.00000     42.00000    308.12670      1.19970
 43831.0216435185 00:31:10/01-Jan-2020   2627.76001     12.49000    112.66960      -999.25      -999.25      -999.25      -999.25     42.00000    308.19560      1.20001
 43831.0217592593 00:31:20/01-Jan-2020   2627.65991     12.58000    114.05420      -999.25      -999.25      -999.25      -999.25     42.00000    307.29930      1.19657
 43831.0218750000 00:31:30/01-Jan-2020   2627.57007     12.68000    115.12630      -999.25      -999.25      -999.25      -999.25     42.00000    308.12670      1.19983
 43831.0219907407 00:31:40/01-Jan-2020   2627.47998     12.77000    115.01170    100.00000      -999.25      -999.25      -999.25     42.00000    310.40200      1.20873
 43831.0221064815 00:31:50/01-Jan-2020   2627.38989     12.86000    113.52610      -999.25      6.00000      -999.25      -999.25     42.00000    308.74720      1.20233
