~VERSION INFORMATION 
VERS  .    2.0                                     :CWLS Log ASCII Standard - VERSION 2.0
WRAP  .    NO                                      :One Line per Time step
PROD  .    Schlumberger Technology Corp.           :LAS Producer
PROG  .    Horizon LASWriter 9.2.113335.3100       :LAS Program name and version
SOURCE.    Run 7-TimeLogicalAcq                    :Run&Pass Information
CREA  .    12/27/2019                              :LAS Creation date {MM/DD/YYYY}
#--------------------------------------------------
~WELL INFORMATION 
#MNEM           .UNIT                      DATA            :DESCRIPTION
#----            ------          --------------            -----------------------------
STRT            .d               43818.4166666667          :START TIME(OLE Automation date)
STOP            .d               43819.7083333333          :STOP TIME(OLE Automation date)
STEP            .d                            0            :STEP TIME(10s in time)
NULL            .                       -999.25            :NULL VALUE
COMP            .                       Equinor            :COMPANY
WELL            .                        31/5-7            :WELL NAME
FLD             .                           Eos            :FIELD NAME
RIGN            .                 West Hercules            :Rig Name
RIGTYP          .                Semi-Submersible          :Rig Type
SON             .                     19SCA0085            :Service Order Number
SRVC            .                  Schlumberger            :SERVICE COMPANY
DATE            .                    12/19/2019            :LOG DATE(Composite Date for Composite LAP) (MM/DD/YYYY)
CLAB            .                       County:            :County Label
CNTY            .                                          :COUNTY
SLAB            .                                          :State/Province Label
STAT            .                                          :STATE or PROVINCE
PROV            .                                          :STATE or PROVINCE
CTRY            .                        Norway            :COUNTRY
CONT_REGION     .                        Europe            :Continent Region
SECT            .                                          :Section
TOWN            .                                          :Township
RANG            .                                          :Range
API             .                                          :API NUMBER
UWI             .                                          :UNIQUE WELL ID
LUL             .                Service Office            :Logging Unit Location
LUN             .                          A615            :Logging Unit Number
LOC             .                Norwegian North Sea       :FIELD LOCATION
FL1             .                Section: 12 1/4 x 17 1/5 in.:Field Location Line 1
FL2             .                Job no.: 19SCA0085        :Field Location Line 2
LATI            .deg             60° 34' 35.14" N          :LATITUDE
LONG            .deg             3° 26' 36.13" E           :LONGITUDE
PDAT            .                           MSL            :Local Permanent Datum
LMF             .                            DF            :Logging Measured From
APD             .m                        31.00            :Elevation of Depth Reference (LMF) Above Permanent Datum
EPD             .m                         0.00            :Elevation of Permanent Datum (PDAT) above Mean Sea Level
EKB             .m                      -999.25            :Elevation of Kelly Bushing Above Permanent Datum
EDF             .m                        31.00            :Elevation of Drill Floor Above Permanent Datum
EGL             .m                      -307.00            :Elevation of Ground Level Above Permanent Datum
ECF             .m                      -999.25            :Elevation of Casing Flange above Permanent Datum
#--------------------------------------------------
~CURVE INFORMATION
#MNEM           .UNIT                  API CODE            :DESCRIPTION
#----            ------          --------------            -----------------------------
TIME_1900       .d                                         :                                                        Time Index(OLE Automation date)
TIME            .s                                         :                                (10s)                   Time(hh mm ss/dd-MMM-yyyy)
DEPTH           .m                                         :(RT)    (DnMWorkflow)                                   Depth Index
BLKP            .m                                         :(RT)    (DRILLING_SURFACE)                              Height of block above rig floor
GR_CAL          .gAPI                                      :(RT)    (ARC9)                                          Calibrated Gamma Ray
STICK           .c/min                                     :(RT)    (TELE900)                                       Stick Slip Indicator
CRPM            .c/min                                     :(RT)    (TELE900)                                       Collar Rotational Speed
SHKRSK          .                                          :(RT)    (TELE900)                                       Shock Risk
SHKPK           .gn                                        :(RT)    (TELE900)                                       Shock Peak
DHAT            .degC                                      :(RM)    (ARC9)                                          Downhole Annulus Temperature
DHAP            .bar                                       :(RM)    (ARC9)                                          Downhole Annulus Pressure
ECD             .g/cm3                                     :(RM)    (ARC9)                                          Equivalent Circulating Density
#-------------------------------------------------------------
#       TIME_1900                 TIME        DEPTH         BLKP       GR_CAL        STICK         CRPM       SHKRSK        SHKPK         DHAT         DHAP          ECD 
#                                       (DnMWorkfl)  (DRILLING_)       (ARC9)    (TELE900)    (TELE900)    (TELE900)    (TELE900)       (ARC9)       (ARC9)       (ARC9) 
#                                              (RT)         (RT)         (RT)         (RT)         (RT)         (RT)         (RT)         (RM)         (RM)         (RM) 
#                                (10s)                                                                                                                                   
~ASCII
# ...
 43818.8777777778 21:04:00/19-Dec-2019   1416.20007      4.59000      -999.25      -999.25      -999.25      -999.25      -999.25     30.00000    178.09160      1.29479
 43818.8778935185 21:04:10/19-Dec-2019   1416.20007      4.60000      -999.25      -999.25      -999.25      -999.25      -999.25     29.00000    177.88470      1.29329
 43818.8780092593 21:04:20/19-Dec-2019   1416.20007     12.46000      -999.25      -999.25      -999.25      -999.25      -999.25     29.00000    177.81580      1.29279
 43818.8781250000 21:04:30/19-Dec-2019   1416.20007     29.86000      -999.25      -999.25      -999.25      -999.25      -999.25     29.00000    178.16050      1.29529
 43818.8782407407 21:04:40/19-Dec-2019   1416.20007     42.56000      -999.25      -999.25      -999.25      -999.25      -999.25     29.00000    178.57420      1.29830
 43818.8783564815 21:04:50/19-Dec-2019   1416.20007     43.37000      -999.25      -999.25      -999.25      -999.25      -999.25     29.00000    178.98790      1.30131
 43818.8784722222 21:05:00/19-Dec-2019   1416.20007     43.37000      -999.25      -999.25      -999.25      -999.25      -999.25     29.00000    178.71210      1.29930
 43818.8785879630 21:05:10/19-Dec-2019   1416.20007     43.23000      -999.25      -999.25      -999.25      -999.25      -999.25     29.00000    178.50530      1.29780
 43818.8787037037 21:05:20/19-Dec-2019   1416.20007     43.14000      -999.25      -999.25      -999.25      -999.25      -999.25     29.00000    178.57420      1.29830
 43818.8788194444 21:05:30/19-Dec-2019   1416.20007     43.13000      -999.25      -999.25      -999.25      -999.25      -999.25     29.00000    178.36740      1.29680
 43818.8789351852 21:05:40/19-Dec-2019   1416.20007     43.11000      -999.25      -999.25      -999.25      -999.25      -999.25     29.00000    178.64320      1.29880
 43818.8790509259 21:05:50/19-Dec-2019   1416.20007     43.11000      -999.25      -999.25      -999.25      -999.25      -999.25     29.00000    178.36740      1.29680
 43818.8791666667 21:06:00/19-Dec-2019   1416.20007     43.20000      -999.25      -999.25      -999.25      -999.25      -999.25     29.00000    178.64320      1.29880
 43818.8792824074 21:06:10/19-Dec-2019   1415.33997     43.60000      -999.25      -999.25      -999.25      -999.25      -999.25     29.00000    178.91890      1.30161
 43818.8793981481 21:06:20/19-Dec-2019   1416.29993     42.74000      -999.25      -999.25      -999.25      -999.25      -999.25     29.00000    179.53950      1.30524
 43818.8795138889 21:06:30/19-Dec-2019   1417.44995     41.49000      -999.25      -999.25      -999.25      -999.25      -999.25     29.00000    178.98790      1.30015
 43818.8796296296 21:06:40/19-Dec-2019   1417.44995     41.49000      -999.25      -999.25      -999.25      -999.25      -999.25     29.00000    177.95370      1.29264
 43818.8797453704 21:06:50/19-Dec-2019   1417.78003     41.16000      -999.25      -999.25      -999.25      -999.25      -999.25     29.00000    178.29840      1.29484
 43818.8798611111 21:07:00/19-Dec-2019   1418.63000     40.31000    149.85590      -999.25      -999.25      -999.25      -999.25     29.00000    178.64320      1.29656
 43818.8799768519 21:07:10/19-Dec-2019   1418.68994     40.25000    150.21320      -999.25      -999.25      -999.25      -999.25     29.00000    179.33260      1.30151
 43818.8800925926 21:07:20/19-Dec-2019   1418.60010     40.34000    149.89980      -999.25      -999.25      -999.25      -999.25     29.00000    179.33260      1.30159
 43818.8802083333 21:07:30/19-Dec-2019   1418.88000     40.06000    149.41930      -999.25      -999.25      -999.25      -999.25     29.00000    179.33260      1.30133
 43818.8803240741 21:07:40/19-Dec-2019   1418.68994     40.25000    148.78690      -999.25      -999.25      -999.25      -999.25     29.00000    179.19470      1.30052
 43818.8804398148 21:07:50/19-Dec-2019   1418.50000     40.43999    148.02320      -999.25      -999.25      -999.25      -999.25     29.00000    179.26370      1.30118
 43818.8805555556 21:08:00/19-Dec-2019   1418.41003     40.53000    147.15260      -999.25      -999.25      -999.25      -999.25     29.00000    179.33260      1.30176
 43818.8806712963 21:08:10/19-Dec-2019   1418.50000     40.43999    146.20310      -999.25      -999.25      -999.25      -999.25     29.00000    179.33260      1.30168
 43818.8807870370 21:08:20/19-Dec-2019   1418.68994     40.25000    145.20530      -999.25      -999.25      -999.25      -999.25     29.00000    179.33260      1.30151
 43818.8809027778 21:08:30/19-Dec-2019   1418.60010     40.34000    144.19110      -999.25      -999.25      -999.25      -999.25     29.00000    179.40160      1.30209
 43818.8810185185 21:08:40/19-Dec-2019   1418.60010     40.34000    143.19330      -999.25      -999.25      -999.25      -999.25     29.00000    179.26370      1.30109
 43818.8811342593 21:08:50/19-Dec-2019   1418.60010     40.34000    142.24380      -999.25      -999.25      -999.25      -999.25     29.00000    179.33260      1.30159
 43818.8812500000 21:09:00/19-Dec-2019   1418.88000     39.97000    141.37320      -999.25      -999.25      -999.25      -999.25     29.00000    179.53950      1.30282
 43818.8813657407 21:09:10/19-Dec-2019   1419.25000     39.69000    140.60950      -999.25      -999.25      -999.25      -999.25     29.00000    179.74630      1.30399
 43818.8814814815 21:09:20/19-Dec-2019   1419.52991     39.32000    139.97710      -999.25      -999.25      -999.25      -999.25     29.00000    179.67740      1.30321
 43818.8815972222 21:09:30/19-Dec-2019   1419.89001     39.05000    139.49660      -999.25      -999.25      0.00000      0.00000     29.00000    179.74630      1.30339
 43818.8817129630 21:09:40/19-Dec-2019   1419.97998     39.05000    139.18320      -999.25      -999.25      -999.25      -999.25     29.00000    179.88420      1.30433
 43818.8818287037 21:09:50/19-Dec-2019   1419.98999     38.96000    140.93570      -999.25      -999.25      -999.25      -999.25     29.00000    179.53950      1.30180
 43818.8819444444 21:10:00/19-Dec-2019   1419.98999     38.95000    152.42560      -999.25      -999.25      -999.25      -999.25     29.00000    179.81530      1.30380
 43818.8820601852 21:10:10/19-Dec-2019   1420.05994     38.88000    142.29950      -999.25    222.00000      0.00000      0.00000     29.00000    179.53950      1.30174
 43818.8821759259 21:10:20/19-Dec-2019   1420.38000     38.66000    138.43000    381.00000      -999.25      -999.25      -999.25     29.00000    179.60840      1.30196
 43818.8822916667 21:10:30/19-Dec-2019   1420.59998     38.35000    142.62760      -999.25      -999.25      -999.25      -999.25     29.00000    179.88420      1.30374
 43818.8824074074 21:10:40/19-Dec-2019   1420.88000     38.08000    152.81560      -999.25      -999.25      -999.25      -999.25     29.00000    180.09110      1.30498
 43818.8825231481 21:10:50/19-Dec-2019   1421.18005     37.79000    158.67310      -999.25    216.00000      -999.25      -999.25     29.00000    179.81530      1.30270
 43818.8826388889 21:11:00/19-Dec-2019   1421.44006     37.50000    162.82840    333.00000      -999.25      0.00000      0.00000     29.00000    180.16000      1.30496
 43818.8827546296 21:11:10/19-Dec-2019   1421.65002     37.48000    162.30920      -999.25      -999.25      -999.25      -999.25     29.00000    179.67740      1.30130
 43818.8828703704 21:11:20/19-Dec-2019   1421.48999     37.47000    158.13080      -999.25      -999.25      -999.25      -999.25     29.00000    180.02210      1.30391
 43818.8829861111 21:11:30/19-Dec-2019   1421.71997     37.32000    147.57420      -999.25      -999.25      -999.25      -999.25     29.00000    180.36690      1.30621
 43818.8831018518 21:11:40/19-Dec-2019   1422.39990     36.54000    146.98990      -999.25    223.00000      0.00000      0.00000     29.00000    180.57370      1.30706
 43818.8832175926 21:11:50/19-Dec-2019   1422.57007     36.39000    147.57420    381.00000      -999.25      -999.25      -999.25     29.00000    180.43580      1.30591
