~VERSION INFORMATION 
VERS  .    2.0                                     :CWLS Log ASCII Standard - VERSION 2.0
WRAP  .    NO                                      :One Line per Time step
PROD  .    Schlumberger Technology Corp.           :LAS Producer
PROG  .    Horizon LASWriter 9.2.113335.3100       :LAS Program name and version
SOURCE.    Run 13-TimeLogicalAcq                   :Run&Pass Information
CREA  .    01/21/2020                              :LAS Creation date {MM/DD/YYYY}
#--------------------------------------------------
~WELL INFORMATION 
#MNEM           .UNIT                      DATA            :DESCRIPTION
#----            ------          --------------            -----------------------------
STRT            .d               43844.3958333334          :START TIME(OLE Automation date)
STOP            .d               43845.1666666667          :STOP TIME(OLE Automation date)
STEP            .d                            0            :STEP TIME(10s in time)
NULL            .                       -999.25            :NULL VALUE
COMP            .                       Equinor            :COMPANY
WELL            .                        31/5-7            :WELL NAME
FLD             .                           Eos            :FIELD NAME
RIGN            .                 West Hercules            :Rig Name
RIGTYP          .                Semi-Submersible          :Rig Type
SON             .                     19SCA0085            :Service Order Number
SRVC            .                  Schlumberger            :SERVICE COMPANY
DATE            .                    01/13/2020            :LOG DATE(Composite Date for Composite LAP) (MM/DD/YYYY)
CLAB            .                       County:            :County Label
CNTY            .                                          :COUNTY
SLAB            .                                          :State/Province Label
STAT            .                                          :STATE or PROVINCE
PROV            .                                          :STATE or PROVINCE
CTRY            .                        Norway            :COUNTRY
CONT_REGION     .                        Europe            :Continent Region
SECT            .                                          :Section
TOWN            .                                          :Township
RANG            .                                          :Range
API             .                                          :API NUMBER
UWI             .                                          :UNIQUE WELL ID
LUL             .                Service Office            :Logging Unit Location
LUN             .                          A615            :Logging Unit Number
LOC             .                Norwegian North Sea       :FIELD LOCATION
FL1             .                Section: 8 1/2 in.        :Field Location Line 1
FL2             .                Job no.: 19SCA0085        :Field Location Line 2
LATI            .deg             60° 34' 35.14" N          :LATITUDE
LONG            .deg             3° 26' 36.13" E           :LONGITUDE
PDAT            .                           MSL            :Local Permanent Datum
LMF             .                            DF            :Logging Measured From
APD             .m                        31.00            :Elevation of Depth Reference (LMF) Above Permanent Datum
EPD             .m                         0.00            :Elevation of Permanent Datum (PDAT) above Mean Sea Level
EKB             .m                      -999.25            :Elevation of Kelly Bushing Above Permanent Datum
EDF             .m                        31.00            :Elevation of Drill Floor Above Permanent Datum
EGL             .m                      -307.00            :Elevation of Ground Level Above Permanent Datum
ECF             .m                      -999.25            :Elevation of Casing Flange above Permanent Datum
#--------------------------------------------------
~CURVE INFORMATION
#MNEM           .UNIT                  API CODE            :DESCRIPTION
#----            ------          --------------            -----------------------------
TIME_1900       .d                                         :                                                        Time Index(OLE Automation date)
TIME            .s                                         :                                (10s)                   Time(hh mm ss/dd-MMM-yyyy)
DEPTH           .m                                         :(RT)    (DnMWorkflow)                                   Depth Index
BLKP            .m                                         :(RT)    (DRILLING_SURFACE)                              Height of block above rig floor
GR              .gAPI                                      :(RT)    (ARC6)                                          Gamma Ray
CRPM            .c/min                                     :(RT)    (TELE675)                                       Collar Rotational Speed
STICK           .c/min                                     :(RT)    (TELE675)                                       Stick Slip Indicator
SHKRSK          .                                          :(RT)    (TELE675)                                       Shock Risk
SHKPK           .gn                                        :(RT)    (TELE675)                                       Shock Peak
DHAT            .degC                                      :(RM)    (ARC6)                                          Downhole Annulus Temperature
DHAP            .bar                                       :(RM)    (ARC6)                                          Downhole Annulus Pressure
ECD             .g/cm3                                     :(RM)    (ARC6)                                          Equivalent Circulating Density
#-------------------------------------------------------------
#       TIME_1900                 TIME        DEPTH         BLKP           GR         CRPM        STICK       SHKRSK        SHKPK         DHAT         DHAP          ECD 
#                                       (DnMWorkfl)  (DRILLING_)       (ARC6)    (TELE675)    (TELE675)    (TELE675)    (TELE675)       (ARC6)       (ARC6)       (ARC6) 
#                                              (RT)         (RT)         (RT)         (RT)         (RT)         (RT)         (RT)         (RM)         (RM)         (RM) 
#                                (10s)                                                                                                                                   
~ASCII
# ...
 43844.5513888889 13:14:00/14-Jan-2020   2713.22998     42.07000      -999.25      -999.25      -999.25      -999.25      -999.25     65.00000    309.64360      1.16755
 43844.5515046296 13:14:10/14-Jan-2020   2713.22998     42.07000      -999.25      -999.25      -999.25      -999.25      -999.25     65.00000    308.26460      1.16235
 43844.5516203704 13:14:20/14-Jan-2020   2713.22998     42.07000      -999.25      -999.25      -999.25      -999.25      -999.25     65.00000    310.05720      1.16911
 43844.5517361111 13:14:30/14-Jan-2020   2713.22998     42.07000      -999.25      -999.25      -999.25      -999.25      -999.25     65.00000    316.60720      1.19381
 43844.5518518519 13:14:40/14-Jan-2020   2713.22998     42.07000      -999.25      -999.25      -999.25      -999.25      -999.25     65.00000    313.64250      1.18263
 43844.5519675926 13:14:50/14-Jan-2020   2713.22998     42.07000      -999.25      -999.25      -999.25      -999.25      -999.25     65.00000    317.29670      1.19640
 43844.5520833333 13:15:00/14-Jan-2020   2713.22998     42.07000      -999.25      -999.25      -999.25      -999.25      -999.25     65.00000    316.81410      1.19459
 43844.5521990741 13:15:10/14-Jan-2020   2713.22998     42.07000      -999.25      -999.25      -999.25      -999.25      -999.25     65.00000    312.19460      1.17717
 43844.5523148148 13:15:20/14-Jan-2020   2713.22998     42.07000      -999.25      -999.25      -999.25      -999.25      -999.25     65.00000    315.02150      1.18783
 43844.5524305556 13:15:30/14-Jan-2020   2713.22998     42.07000      -999.25      -999.25      -999.25      -999.25      -999.25     65.00000    314.40090      1.18549
 43844.5525462963 13:15:40/14-Jan-2020   2713.22998     42.07000      -999.25      -999.25      -999.25      -999.25      -999.25     65.00000    309.36780      1.16651
 43844.5526620370 13:15:50/14-Jan-2020   2713.22998     42.07000      -999.25      -999.25      -999.25      -999.25      -999.25     65.00000    308.33360      1.16261
 43844.5527777778 13:16:00/14-Jan-2020   2713.22998     42.07000      -999.25      -999.25      -999.25      -999.25      -999.25     65.00000    306.26510      1.15481
 43844.5528935185 13:16:10/14-Jan-2020   2713.22998     42.07000      -999.25      -999.25      -999.25      -999.25      -999.25     65.00000    308.88510      1.16469
 43844.5530092593 13:16:20/14-Jan-2020   2713.22998     42.07000      -999.25      -999.25      -999.25      -999.25      -999.25     65.00000    311.02250      1.17275
 43844.5531250000 13:16:30/14-Jan-2020   2713.22998     42.73000      -999.25      -999.25      -999.25      -999.25      -999.25     65.00000    312.53940      1.17847
 43844.5532407407 13:16:40/14-Jan-2020   2713.22998     43.49000      -999.25      -999.25      -999.25      -999.25      -999.25     65.00000    306.88560      1.15715
 43844.5533564815 13:16:50/14-Jan-2020   2713.22998     43.52000      -999.25      -999.25      -999.25      -999.25      -999.25     65.00000    305.71350      1.15273
 43844.5534722222 13:17:00/14-Jan-2020   2713.22998     44.11000      -999.25      -999.25      -999.25      -999.25      -999.25     65.00000    309.50570      1.16703
 43844.5535879630 13:17:10/14-Jan-2020   2713.22998     44.11000      -999.25      -999.25      -999.25      -999.25      -999.25     65.00000    313.50460      1.18211
 43844.5537037037 13:17:20/14-Jan-2020   2713.22998     44.11000      -999.25      -999.25      -999.25      -999.25      -999.25     65.00000    316.60720      1.19381
 43844.5538194444 13:17:30/14-Jan-2020   2713.22998     44.11000      -999.25      -999.25      -999.25      -999.25      -999.25     65.00000    311.09140      1.17301
 43844.5539351852 13:17:40/14-Jan-2020   2713.22998     43.84000      -999.25      -999.25      -999.25      -999.25      -999.25     65.00000    318.05520      1.19926
 43844.5540509259 13:17:50/14-Jan-2020   2713.22998     43.65000      -999.25      -999.25      -999.25      -999.25      -999.25     65.00000    323.22620      1.21876
 43844.5541666667 13:18:00/14-Jan-2020   2713.22998     43.58000      -999.25      -999.25      -999.25      -999.25      -999.25     65.00000    318.33090      1.20030
 43844.5542824074 13:18:10/14-Jan-2020   2713.22998     43.56000      -999.25      -999.25      -999.25      -999.25      -999.25     65.00000    312.60830      1.17873
 43844.5543981481 13:18:20/14-Jan-2020   2713.22998     43.56000      -999.25      -999.25      -999.25      -999.25      -999.25     65.00000    308.05780      1.16157
 43844.5545138889 13:18:30/14-Jan-2020   2713.22998     43.54000      -999.25      -999.25      -999.25      -999.25      -999.25     65.00000    306.88560      1.15715
 43844.5546296296 13:18:40/14-Jan-2020   2713.22998     43.52000      -999.25      -999.25      -999.25      -999.25      -999.25     65.00000    318.67570      1.20160
 43844.5547453704 13:18:50/14-Jan-2020   2713.22998     43.52000      -999.25      -999.25      -999.25      -999.25      -999.25     65.00000    324.60520      1.22396
 43844.5548611111 13:19:00/14-Jan-2020   2713.22998     43.52000      -999.25      -999.25      -999.25      -999.25      -999.25     66.00000    318.53780      1.20108
 43844.5549768518 13:19:10/14-Jan-2020   2713.22998     43.53000      -999.25      -999.25      -999.25      -999.25      -999.25     66.00000    304.88620      1.14961
 43844.5550925926 13:19:20/14-Jan-2020   2712.70996     43.75000      -999.25      -999.25      -999.25      -999.25      -999.25     66.00000    304.12780      1.14697
 43844.5552083333 13:19:30/14-Jan-2020   2712.47998     44.01000      -999.25      -999.25      -999.25      -999.25      -999.25     66.00000    312.88410      1.18009
 43844.5553240741 13:19:40/14-Jan-2020   2712.47998     44.01000      -999.25      -999.25      -999.25      -999.25      -999.25     66.00000    312.33250      1.17801
 43844.5554398148 13:19:50/14-Jan-2020   2712.47998     44.01000      -999.25      -999.25      -999.25      -999.25      -999.25     66.00000    309.09200      1.16579
 43844.5555555556 13:20:00/14-Jan-2020   2712.47998     44.01000      -999.25      -999.25      -999.25      -999.25      -999.25     66.00000    308.33360      1.16293
 43844.5556712963 13:20:10/14-Jan-2020   2712.48999     44.00000      -999.25      -999.25      -999.25      -999.25      -999.25     66.00000    306.26510      1.15512
 43844.5557870370 13:20:20/14-Jan-2020   2712.97974     43.52000      -999.25      -999.25      -999.25      -999.25      -999.25     66.00000    317.57250      1.19756
 43844.5559027778 13:20:30/14-Jan-2020   2713.61011     42.88000     52.94006      -999.25      -999.25      -999.25      -999.25     66.00000    322.81250      1.21703
 43844.5560185185 13:20:40/14-Jan-2020   2714.11011     42.47000     74.15082      -999.25      -999.25      -999.25      -999.25     66.00000    326.19100      1.22955
 43844.5561342593 13:20:50/14-Jan-2020   2712.77002     43.81000     75.00121      -999.25      -999.25      -999.25      -999.25     65.00000    327.29410      1.23433
 43844.5562500000 13:21:00/14-Jan-2020   2712.31006     44.18000     75.86747      -999.25      -999.25      -999.25      -999.25     65.00000    319.15830      1.20383
 43844.5563657407 13:21:10/14-Jan-2020   2712.48999     43.91000     77.00669      -999.25      -999.25      -999.25      -999.25     65.00000    316.26250      1.19282
 43844.5564814815 13:21:20/14-Jan-2020   2713.22998     43.26000     78.31088      -999.25      -999.25      -999.25      -999.25     65.00000    319.84780      1.20601
 43844.5565972222 13:21:30/14-Jan-2020   2713.42993     43.06000     79.65897      -999.25      -999.25      -999.25      -999.25     65.00000    326.25990      1.23011
 43844.5567129630 13:21:40/14-Jan-2020   2712.88989     43.60000     80.92983      -999.25      -999.25      -999.25      -999.25     64.00000    325.70830      1.22833
 43844.5568287037 13:21:50/14-Jan-2020   2712.60986     43.88000     82.01518      -999.25      -999.25      -999.25      -999.25     64.00000    322.05410      1.21462
