~VERSION INFORMATION 
VERS  .    2.0                                     :CWLS Log ASCII Standard - VERSION 2.0
WRAP  .    NO                                      :One Line per Time step
PROD  .    Schlumberger Technology Corp.           :LAS Producer
PROG  .    Horizon LASWriter 9.2.113335.3100       :LAS Program name and version
SOURCE.    Run 8-TimeLogicalAcq                    :Run&Pass Information
CREA  .    12/30/2019                              :LAS Creation date {MM/DD/YYYY}
#--------------------------------------------------
~WELL INFORMATION 
#MNEM           .UNIT                      DATA            :DESCRIPTION
#----            ------          --------------            -----------------------------
STRT            .d               43822.4166666667          :START TIME(OLE Automation date)
STOP            .d               43824.6875000000          :STOP TIME(OLE Automation date)
STEP            .d                            0            :STEP TIME(10s in time)
NULL            .                       -999.25            :NULL VALUE
COMP            .                       Equinor            :COMPANY
WELL            .                        31/5-7            :WELL NAME
FLD             .                           Eos            :FIELD NAME
RIGN            .                 West Hercules            :Rig Name
RIGTYP          .                Semi-Submersible          :Rig Type
SON             .                     19SCA0085            :Service Order Number
SRVC            .                  Schlumberger            :SERVICE COMPANY
DATE            .                    12/23/2019            :LOG DATE(Composite Date for Composite LAP) (MM/DD/YYYY)
CLAB            .                       County:            :County Label
CNTY            .                                          :COUNTY
SLAB            .                                          :State/Province Label
STAT            .                                          :STATE or PROVINCE
PROV            .                                          :STATE or PROVINCE
CTRY            .                        Norway            :COUNTRY
CONT_REGION     .                        Europe            :Continent Region
SECT            .                                          :Section
TOWN            .                                          :Township
RANG            .                                          :Range
API             .                                          :API NUMBER
UWI             .                                          :UNIQUE WELL ID
LUL             .                Service Office            :Logging Unit Location
LUN             .                          A615            :Logging Unit Number
LOC             .                Norwegian North Sea       :FIELD LOCATION
FL1             .                Section: 12 1/4 in.       :Field Location Line 1
FL2             .                Job no.: 19SCA0085        :Field Location Line 2
LATI            .deg             60° 34' 35.14" N          :LATITUDE
LONG            .deg             3° 26' 36.13" E           :LONGITUDE
PDAT            .                           MSL            :Local Permanent Datum
LMF             .                            DF            :Logging Measured From
APD             .m                        31.00            :Elevation of Depth Reference (LMF) Above Permanent Datum
EPD             .m                         0.00            :Elevation of Permanent Datum (PDAT) above Mean Sea Level
EKB             .m                      -999.25            :Elevation of Kelly Bushing Above Permanent Datum
EDF             .m                        31.00            :Elevation of Drill Floor Above Permanent Datum
EGL             .m                      -307.00            :Elevation of Ground Level Above Permanent Datum
ECF             .m                      -999.25            :Elevation of Casing Flange above Permanent Datum
#--------------------------------------------------
~CURVE INFORMATION
#MNEM           .UNIT                  API CODE            :DESCRIPTION
#----            ------          --------------            -----------------------------
TIME_1900       .d                                         :                                                        Time Index(OLE Automation date)
TIME            .s                                         :                                (10s)                   Time(hh mm ss/dd-MMM-yyyy)
DEPTH           .m                                         :(RT)    (DnMWorkflow)                                   Depth Index
GR              .gAPI                                      :(RT)    (ARC9)                                          Gamma Ray
BLKP            .m                                         :(RT)    (DRILLING_SURFACE)                              Height of block above rig floor
CRPM            .c/min                                     :(RT)    (TELE900)                                       Collar Rotational Speed
STICK           .c/min                                     :(RT)    (TELE900)                                       Stick Slip Indicator
SHKPK           .gn                                        :(RT)    (TELE900)                                       Shock Peak
SHKRSK          .                                          :(RT)    (TELE900)                                       Shock Risk
DHAP            .bar                                       :(RM)    (ARC9)                                          Downhole Annulus Pressure
DHAT            .degC                                      :(RM)    (ARC9)                                          Downhole Annulus Temperature
ECD             .g/cm3                                     :(RM)    (ARC9)                                          Equivalent Circulating Density
#-------------------------------------------------------------
#       TIME_1900                 TIME        DEPTH           GR         BLKP         CRPM        STICK        SHKPK       SHKRSK         DHAP         DHAT          ECD 
#                                       (DnMWorkfl)       (ARC9)  (DRILLING_)    (TELE900)    (TELE900)    (TELE900)    (TELE900)       (ARC9)       (ARC9)       (ARC9) 
#                                              (RT)         (RT)         (RT)         (RT)         (RT)         (RT)         (RT)         (RM)         (RM)         (RM) 
#                                (10s)                                                                                                                                   
~ASCII
# ...
 43823.7222222222 17:20:00/24-Dec-2019    2356.4080      54.2350      21.1500      -999.25      -999.25      -999.25      -999.25     299.7840      43.0000       1.3036
 43823.7223379630 17:20:10/24-Dec-2019    2356.6575      55.1719      20.8100      -999.25      78.0000      -999.25      -999.25     299.7840      43.0000       1.3035
 43823.7224537037 17:20:20/24-Dec-2019    2356.6570      61.4557      20.9000      -999.25      -999.25       0.0000       0.0000     299.6462      43.0000       1.3029
 43823.7225694444 17:20:30/24-Dec-2019    2356.6563      70.1462      20.9000      -999.25      -999.25      -999.25      -999.25     299.8530      43.0000       1.3038
 43823.7226851852 17:20:40/24-Dec-2019    2356.7556      64.8695      20.8000      -999.25      -999.25      -999.25      -999.25     299.7151      43.0000       1.3031
 43823.7228009259 17:20:50/24-Dec-2019    2356.5950      53.3770      20.9600      -999.25      -999.25      -999.25      -999.25     299.7840      43.0000       1.3035
 43823.7229166667 17:21:00/24-Dec-2019    2356.7244      45.4654      20.8300     154.0000      -999.25      -999.25      -999.25     299.6462      43.0000       1.3028
 43823.7230324074 17:21:10/24-Dec-2019    2356.7236      49.5698      20.8300      -999.25      -999.25      -999.25      -999.25     299.7151      43.0000       1.3031
 43823.7231481481 17:21:20/24-Dec-2019    2356.8132      51.9528      20.7400      -999.25      -999.25      -999.25      -999.25     299.5772      43.0000       1.3025
 43823.7232638889 17:21:30/24-Dec-2019    2356.6726      56.4092      20.8800      -999.25      -999.25      -999.25      -999.25     299.8530      43.0000       1.3038
 43823.7233796296 17:21:40/24-Dec-2019    2356.8220      60.9079      20.7300      -999.25     129.0000      -999.25      -999.25     299.6462      43.0000       1.3028
 43823.7234953704 17:21:50/24-Dec-2019    2356.9216      60.3458      20.6300      -999.25      -999.25      23.9837       0.0000     299.5083      43.0000       1.3021
 43823.7236111111 17:22:00/24-Dec-2019    2356.6807      57.4256      20.8700      -999.25      -999.25      -999.25      -999.25     299.7151      43.0000       1.3032
 43823.7237268519 17:22:10/24-Dec-2019    2356.8203      54.9897      20.7300      -999.25      -999.25      -999.25      -999.25     299.7840      43.0000       1.3034
 43823.7238425926 17:22:20/24-Dec-2019    2356.8196      54.4268      20.7300     153.0000      -999.25      -999.25      -999.25     299.5772      43.0000       1.3025
 43823.7239583333 17:22:30/24-Dec-2019    2356.8191      55.0382      20.7300      -999.25      -999.25      -999.25      -999.25     299.7840      43.0000       1.3034
 43823.7240740741 17:22:40/24-Dec-2019    2357.0085      53.8733      20.5400      -999.25      -999.25      -999.25      -999.25     299.5083      43.0000       1.3021
 43823.7241898148 17:22:50/24-Dec-2019    2356.9080      49.4169      20.6400      -999.25      -999.25      -999.25      -999.25     299.7840      43.0000       1.3033
 43823.7243055556 17:23:00/24-Dec-2019    2356.9175      50.1204      20.6300      -999.25     324.0000      -999.25      -999.25     299.5772      43.0000       1.3024
 43823.7244212963 17:23:10/24-Dec-2019    2356.9167      50.0267      20.6300      -999.25      -999.25       0.0000       0.0000     299.6462      43.0000       1.3027
 43823.7245370370 17:23:20/24-Dec-2019    2357.0061      49.1795      20.5400      -999.25      -999.25      -999.25      -999.25     299.6462      43.0000       1.3027
 43823.7246527778 17:23:30/24-Dec-2019    2357.0054      44.5696      20.5400      -999.25      -999.25      -999.25      -999.25     299.4393      43.0000       1.3018
 43823.7247685185 17:23:40/24-Dec-2019    2357.0049      43.5694      20.5400     148.0000      -999.25      -999.25      -999.25     299.7840      43.0000       1.3033
 43823.7248842593 17:23:50/24-Dec-2019    2357.0044      43.9837      20.5400      -999.25      -999.25      -999.25      -999.25     299.5772      43.0000       1.3024
 43823.7250000000 17:24:00/24-Dec-2019    2357.0037      44.4426      20.5400      -999.25      -999.25      -999.25      -999.25     299.5772      43.0000       1.3024
 43823.7251157407 17:24:10/24-Dec-2019    2357.0032      43.1512      20.5400      -999.25      -999.25      -999.25      -999.25     299.6462      43.0000       1.3027
 43823.7252314815 17:24:20/24-Dec-2019    2357.0925      42.4836      20.4500      -999.25     276.0000      -999.25      -999.25     299.5772      43.0000       1.3023
 43823.7253472222 17:24:30/24-Dec-2019    2357.0020      46.6728      20.5400      -999.25      -999.25       0.0000       0.0000     299.7840      43.0000       1.3033
 43823.7254629630 17:24:40/24-Dec-2019    2357.0913      53.7587      20.4500      -999.25      -999.25      -999.25      -999.25     299.6462      43.0000       1.3026
 43823.7255787037 17:24:50/24-Dec-2019    2357.1406      55.0015      20.4000      -999.25      -999.25      -999.25      -999.25     299.8530      43.0000       1.3035
 43823.7256944444 17:25:00/24-Dec-2019    2357.1504      63.0032      20.3900      -999.25      -999.25      -999.25      -999.25     299.6462      43.0000       1.3026
 43823.7258101852 17:25:10/24-Dec-2019    2357.1794      66.3176      20.3600     170.0000      -999.25      -999.25      -999.25     299.7151      43.0000       1.3029
 43823.7259259259 17:25:20/24-Dec-2019    2357.1292      58.3159      20.4100      -999.25      -999.25      -999.25      -999.25     299.4393      43.0000       1.3017
 43823.7260416667 17:25:30/24-Dec-2019    2357.1782      50.4332      20.3600      -999.25      -999.25      -999.25      -999.25     299.6462      43.0000       1.3026
 43823.7261574074 17:25:40/24-Dec-2019    2357.3079      42.5676      20.2300      -999.25     327.0000      -999.25      -999.25     299.4393      43.0000       1.3016
 43823.7262731481 17:25:50/24-Dec-2019    2357.3372      35.5385      20.2000      -999.25      -999.25      -999.25      -999.25     299.7840      43.0000       1.3031
 43823.7263888889 17:26:00/24-Dec-2019    2357.4167      38.6310      20.1200      -999.25      -999.25      15.9892       0.0000     299.7840      43.0000       1.3030
 43823.7265046296 17:26:10/24-Dec-2019    2357.5562      45.0239      19.9800      -999.25      -999.25      -999.25      -999.25     299.6462      43.0000       1.3024
 43823.7266203704 17:26:20/24-Dec-2019    2357.5754      50.2077      19.9600      -999.25      -999.25      -999.25      -999.25     299.5772      43.0000       1.3021
 43823.7267361111 17:26:30/24-Dec-2019    2357.5149      56.0536      20.0200     193.0000      -999.25      -999.25      -999.25     299.6462      43.0000       1.3024
 43823.7268518518 17:26:40/24-Dec-2019    2357.6143      62.9494      19.9200      -999.25      -999.25      -999.25      -999.25     299.5083      43.0000       1.3017
 43823.7269675926 17:26:50/24-Dec-2019    2357.7036      63.9039      19.8300      -999.25      -999.25      -999.25      -999.25     299.9219      43.0000       1.3035
 43823.7270833333 17:27:00/24-Dec-2019    2357.6130      57.8731      19.9200      -999.25      -999.25      -999.25      -999.25     299.3704      43.0000       1.3011
 43823.7271990741 17:27:10/24-Dec-2019    2357.6326      58.4582      19.9000      -999.25     336.0000      -999.25      -999.25     299.5772      43.0000       1.3020
 43823.7273148148 17:27:20/24-Dec-2019    2357.6721      58.0312      19.8600      -999.25      -999.25       0.0000       0.0000     299.7151      43.0000       1.3026
 43823.7274305556 17:27:30/24-Dec-2019    2357.8113      54.9799      19.7200      -999.25      -999.25      -999.25      -999.25     299.4393      43.0000       1.3013
 43823.7275462963 17:27:40/24-Dec-2019    2357.9106      45.5497      19.6200      -999.25      -999.25      -999.25      -999.25     299.7151      43.0000       1.3025
 43823.7276620370 17:27:50/24-Dec-2019    2357.7500      43.4975      19.7800     183.0000      -999.25      -999.25      -999.25     299.7151      43.0000       1.3026
