~VERSION INFORMATION 
VERS  .    2.0                                     :CWLS Log ASCII Standard - VERSION 2.0
WRAP  .    NO                                      :One Line per Time step
PROD  .    Schlumberger Technology Corp.           :LAS Producer
PROG  .    Horizon LASWriter 9.2.113335.3100       :LAS Program name and version
SOURCE.    Run 2-TimeLogicalAcq                    :Run&Pass Information
CREA  .    12/11/2019                              :LAS Creation date {MM/DD/YYYY}
#--------------------------------------------------
~WELL INFORMATION 
#MNEM           .UNIT                      DATA            :DESCRIPTION
#----            ------          --------------            -----------------------------
STRT            .d               43803.0416666667          :START TIME(OLE Automation date)
STOP            .d               43803.8437500000          :STOP TIME(OLE Automation date)
STEP            .d                            0            :STEP TIME(10s in time)
NULL            .                       -999.25            :NULL VALUE
COMP            .                       Equinor            :COMPANY
WELL            .                        31/5-7            :WELL NAME
FLD             .                           Eos            :FIELD NAME
RIGN            .                 West Hercules            :Rig Name
RIGTYP          .                Semi-Submersible          :Rig Type
SON             .                     19SCA0085            :Service Order Number
SRVC            .                  Schlumberger            :SERVICE COMPANY
DATE            .                    12/04/2019            :LOG DATE(Composite Date for Composite LAP) (MM/DD/YYYY)
CLAB            .                       County:            :County Label
CNTY            .                                          :COUNTY
SLAB            .                                          :State/Province Label
STAT            .                                          :STATE or PROVINCE
PROV            .                                          :STATE or PROVINCE
CTRY            .                        Norway            :COUNTRY
CONT_REGION     .                        Europe            :Continent Region
SECT            .                                          :Section
TOWN            .                                          :Township
RANG            .                                          :Range
API             .                                          :API NUMBER
UWI             .                                          :UNIQUE WELL ID
LUL             .                Service Office            :Logging Unit Location
LUN             .                          A615            :Logging Unit Number
LOC             .                Norwegian North Sea       :FIELD LOCATION
FL1             .                Section: 8 1/2 in. pilot  :Field Location Line 1
FL2             .                Job no.: 19SCA0085        :Field Location Line 2
LATI            .deg             60° 34' 35.14" N          :LATITUDE
LONG            .deg             3° 26' 36.13" E           :LONGITUDE
PDAT            .                           MSL            :Local Permanent Datum
LMF             .                            DF            :Logging Measured From
APD             .m                        31.00            :Elevation of Depth Reference (LMF) Above Permanent Datum
EPD             .m                         0.00            :Elevation of Permanent Datum (PDAT) above Mean Sea Level
EKB             .m                      -999.25            :Elevation of Kelly Bushing Above Permanent Datum
EDF             .m                        31.00            :Elevation of Drill Floor Above Permanent Datum
EGL             .m                      -307.00            :Elevation of Ground Level Above Permanent Datum
ECF             .m                      -999.25            :Elevation of Casing Flange above Permanent Datum
#--------------------------------------------------
~CURVE INFORMATION
#MNEM           .UNIT                  API CODE            :DESCRIPTION
#----            ------          --------------            -----------------------------
TIME_1900       .d                                         :                                                        Time Index(OLE Automation date)
TIME            .s                                         :                                (10s)                   Time(hh mm ss/dd-MMM-yyyy)
DEPTH           .m                                         :(RT)    (DnMWorkflow)                                   Depth Index
GR              .gAPI                                      :(RT)    (DV6MT)                                         Gamma Ray
BLKP            .m                                         :(RT)    (DRILLING_SURFACE)                              Height of block above rig floor
STICK           .c/min                                     :(RT)    (TELE675)                                       Stick Slip Indicator
CRPM            .c/min                                     :(RT)    (TELE675)                                       Collar Rotational Speed
SHKRSK          .                                          :(RT)    (TELE675)                                       Shock Risk
SHKPK           .gn                                        :(RT)    (TELE675)                                       Shock Peak
ECD             .g/cm3                                     :(RM)    (DV6MT)                                         Equivalent Circulating Density
DHAT            .degC                                      :(RM)    (DV6MT)                                         Downhole Annulus Temperature
DHAP            .bar                                       :(RM)    (DV6MT)                                         Downhole Annulus Pressure
#-------------------------------------------------------------
#       TIME_1900                 TIME        DEPTH           GR         BLKP        STICK         CRPM       SHKRSK        SHKPK          ECD         DHAT         DHAP 
#                                       (DnMWorkfl)      (DV6MT)  (DRILLING_)    (TELE675)    (TELE675)    (TELE675)    (TELE675)      (DV6MT)      (DV6MT)      (DV6MT) 
#                                              (RT)         (RT)         (RT)         (RT)         (RT)         (RT)         (RT)         (RM)         (RM)         (RM) 
#                                (10s)                                                                                                                                   
~ASCII
# ...
 43803.7083333333 17:00:00/04-Dec-2019     937.0500       8.3683      21.7700      -999.25      -999.25      -999.25      -999.25       1.1304      -999.25      99.5603
 43803.7084490741 17:00:10/04-Dec-2019     936.9600      20.7042      21.8600      -999.25      -999.25      -999.25      -999.25       1.1548      -999.25     101.6977
 43803.7085648148 17:00:20/04-Dec-2019     936.9600      27.6697      21.8600      -999.25      -999.25      -999.25      -999.25       1.1454      15.0000     100.8703
 43803.7086805556 17:00:30/04-Dec-2019     936.9600      35.4244      21.8600      -999.25      -999.25      -999.25      -999.25       1.1352      15.0000      99.9740
 43803.7087962963 17:00:40/04-Dec-2019     936.9600      38.5816      21.8600      -999.25      -999.25      -999.25      -999.25       1.1532      15.0000     101.5598
 43803.7089120370 17:00:50/04-Dec-2019     936.9600      40.3847      21.8600      -999.25      -999.25      -999.25      -999.25       1.1517      15.0000     101.4219
 43803.7090277778 17:01:00/04-Dec-2019     936.9600      39.9256      21.8600      -999.25      -999.25       0.0000       0.0000       1.1446      15.0000     100.8013
 43803.7091435185 17:01:10/04-Dec-2019     936.9600      37.5609      21.8600      -999.25      -999.25      -999.25      -999.25       1.1454      15.0000     100.8703
 43803.7092592593 17:01:20/04-Dec-2019     936.9600      35.4440      21.8600      -999.25      -999.25      -999.25      -999.25       1.1305      15.0000      99.5603
 43803.7093750000 17:01:30/04-Dec-2019     936.9600      32.4477      21.8600      -999.25      -999.25      -999.25      -999.25       1.1579      15.0000     101.9735
 43803.7094907407 17:01:40/04-Dec-2019     937.2300      31.0566      21.5900      -999.25      -999.25      -999.25      -999.25       1.1795      15.0000     103.9040
 43803.7096064815 17:01:50/04-Dec-2019     936.9600      30.7034      21.8600      -999.25      -999.25      -999.25      -999.25       1.1285      15.0000      99.3535
 43803.7097222222 17:02:00/04-Dec-2019     936.7800      -999.25      22.0400      -999.25      -999.25      -999.25      -999.25       1.1104      15.0000      97.7677
 43803.7098379630 17:02:10/04-Dec-2019     936.5900      -999.25      22.4100      -999.25      -999.25      -999.25      -999.25       1.1698      15.0000     103.0077
 43803.7099537037 17:02:20/04-Dec-2019     936.4100      -999.25      22.4100      -999.25      -999.25      -999.25      -999.25       1.1610      15.0000     102.1803
 43803.7100694444 17:02:30/04-Dec-2019     936.3200      -999.25      22.5000      -999.25      -999.25      -999.25      -999.25       1.0843      15.0000      95.4234
 43803.7101851852 17:02:40/04-Dec-2019     936.5900      -999.25      22.2300      -999.25      -999.25      -999.25      -999.25      -999.25      15.0000      -999.25
 43803.7103009259 17:02:50/04-Dec-2019     936.5900      -999.25      22.2300      -999.25      -999.25      -999.25      -999.25      -999.25      -999.25      -999.25
 43803.7104166667 17:03:00/04-Dec-2019     936.5900      -999.25      22.2300      -999.25      -999.25      -999.25      -999.25      -999.25      -999.25      -999.25
 43803.7105324074 17:03:10/04-Dec-2019     936.7700      -999.25      22.0500      -999.25      -999.25      -999.25      -999.25      -999.25      -999.25      -999.25
 43803.7106481481 17:03:20/04-Dec-2019     936.7700      -999.25      22.0500      -999.25      -999.25      -999.25      -999.25      -999.25      -999.25      -999.25
 43803.7107638889 17:03:30/04-Dec-2019     936.7700      -999.25      22.0500      -999.25      -999.25      -999.25      -999.25      -999.25      -999.25      -999.25
 43803.7108796296 17:03:40/04-Dec-2019     936.7700      -999.25      22.0500      -999.25      -999.25      -999.25      -999.25      -999.25      -999.25      -999.25
 43803.7109953704 17:03:50/04-Dec-2019     936.7700      -999.25      22.0500      -999.25      -999.25      -999.25      -999.25      -999.25      -999.25      -999.25
 43803.7111111111 17:04:00/04-Dec-2019     936.7700       0.0000      22.0500      -999.25      -999.25      -999.25      -999.25      -999.25      -999.25      -999.25
 43803.7112268518 17:04:10/04-Dec-2019     936.7700       0.0000      22.0500      -999.25      -999.25      -999.25      -999.25      -999.25      -999.25      -999.25
 43803.7113425926 17:04:20/04-Dec-2019     936.7700       0.0000      22.0500      -999.25      -999.25      -999.25      -999.25       1.1550      -999.25     101.6977
 43803.7114583333 17:04:30/04-Dec-2019     936.7700       0.0000      22.0500      -999.25      -999.25      -999.25      -999.25       1.1347      15.0000      99.9050
 43803.7115740741 17:04:40/04-Dec-2019     936.7700       9.6243      22.0500      -999.25      -999.25      -999.25      -999.25       1.1503      15.0000     101.2840
 43803.7116898148 17:04:50/04-Dec-2019     936.7700      19.7968      22.0500      -999.25      -999.25      -999.25      -999.25       1.1668      15.0000     102.7319
 43803.7118055556 17:05:00/04-Dec-2019     936.7700      31.7571      22.0500      -999.25      -999.25      -999.25      -999.25       1.1449      15.0000     100.8013
 43803.7119212963 17:05:10/04-Dec-2019     936.5900      36.6662      22.2300      -999.25      -999.25      -999.25      -999.25       1.1678      15.0000     102.8008
 43803.7120370370 17:05:20/04-Dec-2019     936.5900      39.1455      22.2300      -999.25      -999.25       0.0000       0.0000       1.1466      15.0000     100.9392
 43803.7121527778 17:05:30/04-Dec-2019     936.5000      38.0571      22.3200      -999.25      -999.25      -999.25      -999.25       1.1460      15.0000     100.8703
 43803.7122685185 17:05:40/04-Dec-2019     936.5000      34.0574      22.3200      -999.25      -999.25      -999.25      -999.25       1.1381      15.0000     100.1808
 43803.7123842593 17:05:50/04-Dec-2019     936.5000      31.0559      22.3200      -999.25      -999.25      -999.25      -999.25       1.1311      15.0000      99.5603
 43803.7125000000 17:06:00/04-Dec-2019     936.5000      28.5071      22.3200      -999.25      -999.25      -999.25      -999.25       1.1522      15.0000     101.4219
 43803.7126157407 17:06:10/04-Dec-2019     936.5000       0.0000      22.3200      -999.25      -999.25      -999.25      -999.25       1.1671      15.0000     102.7319
 43803.7127314815 17:06:20/04-Dec-2019     936.5000       1.2586      22.3200      -999.25      -999.25      -999.25      -999.25       1.1146      15.0000      98.1124
 43803.7128472222 17:06:30/04-Dec-2019     936.5000      23.4649      22.3200      -999.25      -999.25      -999.25      -999.25       1.1507      15.0000     101.2840
 43803.7129629630 17:06:40/04-Dec-2019     936.5900      31.7316      22.2300      -999.25      -999.25      -999.25      -999.25       1.1701      15.0000     103.0077
 43803.7130787037 17:06:50/04-Dec-2019     936.3200      30.8067      22.5000      -999.25      -999.25      -999.25      -999.25       1.1399      15.0000     100.3187
 43803.7131944444 17:07:00/04-Dec-2019     936.4100      28.3373      22.4100      -999.25      -999.25      -999.25      -999.25       1.1507      15.0000     101.2840
 43803.7133101852 17:07:10/04-Dec-2019     936.4100      45.3819      22.3200      -999.25      -999.25       0.0000       0.0000       1.1758      15.0000     103.4903
 43803.7134259259 17:07:20/04-Dec-2019     936.5900      34.3454      22.2300      -999.25      -999.25      -999.25      -999.25       1.1662      15.0000     102.6629
 43803.7135416667 17:07:30/04-Dec-2019     937.5200      19.1224      21.2600      -999.25      -999.25      -999.25      -999.25       1.1556      15.0000     101.8356
 43803.7136574074 17:07:40/04-Dec-2019     939.1500       4.1142      19.6000      -999.25      -999.25      -999.25      -999.25       1.1735      15.0000     103.5593
 43803.7137731481 17:07:50/04-Dec-2019     940.3500       2.2138      18.3000      -999.25      -999.25      -999.25      -999.25       1.1793      15.0000     104.2487
