~VERSION INFORMATION 
VERS  .    2.0                                     :CWLS Log ASCII Standard - VERSION 2.0
WRAP  .    NO                                      :One Line per Time step
PROD  .    Schlumberger Technology Corp.           :LAS Producer
PROG  .    Horizon LASWriter 9.2.113335.3100       :LAS Program name and version
SOURCE.    Run 2-TimeLogicalAcq                    :Run&Pass Information
CREA  .    12/11/2019                              :LAS Creation date {MM/DD/YYYY}
#--------------------------------------------------
~WELL INFORMATION 
#MNEM           .UNIT                      DATA            :DESCRIPTION
#----            ------          --------------            -----------------------------
STRT            .d               43803.0416666667          :START TIME(OLE Automation date)
STOP            .d               43803.8437500000          :STOP TIME(OLE Automation date)
STEP            .d                            0            :STEP TIME(10s in time)
NULL            .                       -999.25            :NULL VALUE
COMP            .                       Equinor            :COMPANY
WELL            .                        31/5-7            :WELL NAME
FLD             .                           Eos            :FIELD NAME
RIGN            .                 West Hercules            :Rig Name
RIGTYP          .                Semi-Submersible          :Rig Type
SON             .                     19SCA0085            :Service Order Number
SRVC            .                  Schlumberger            :SERVICE COMPANY
DATE            .                    12/04/2019            :LOG DATE(Composite Date for Composite LAP) (MM/DD/YYYY)
CLAB            .                       County:            :County Label
CNTY            .                                          :COUNTY
SLAB            .                                          :State/Province Label
STAT            .                                          :STATE or PROVINCE
PROV            .                                          :STATE or PROVINCE
CTRY            .                        Norway            :COUNTRY
CONT_REGION     .                        Europe            :Continent Region
SECT            .                                          :Section
TOWN            .                                          :Township
RANG            .                                          :Range
API             .                                          :API NUMBER
UWI             .                                          :UNIQUE WELL ID
LUL             .                Service Office            :Logging Unit Location
LUN             .                          A615            :Logging Unit Number
LOC             .                Norwegian North Sea       :FIELD LOCATION
FL1             .                Section: 8 1/2 in. pilot  :Field Location Line 1
FL2             .                Job no.: 19SCA0085        :Field Location Line 2
LATI            .deg             60° 34' 35.14" N          :LATITUDE
LONG            .deg             3° 26' 36.13" E           :LONGITUDE
PDAT            .                           MSL            :Local Permanent Datum
LMF             .                            DF            :Logging Measured From
APD             .m                        31.00            :Elevation of Depth Reference (LMF) Above Permanent Datum
EPD             .m                         0.00            :Elevation of Permanent Datum (PDAT) above Mean Sea Level
EKB             .m                      -999.25            :Elevation of Kelly Bushing Above Permanent Datum
EDF             .m                        31.00            :Elevation of Drill Floor Above Permanent Datum
EGL             .m                      -307.00            :Elevation of Ground Level Above Permanent Datum
ECF             .m                      -999.25            :Elevation of Casing Flange above Permanent Datum
#--------------------------------------------------
~CURVE INFORMATION
#MNEM           .UNIT                  API CODE            :DESCRIPTION
#----            ------          --------------            -----------------------------
TIME_1900       .d                                         :                                                        Time Index(OLE Automation date)
TIME            .s                                         :                                (10s)                   Time(hh mm ss/dd-MMM-yyyy)
DEPTH           .m                                         :(RT)    (DnMWorkflow)                                   Depth Index
GR              .gAPI                                      :(RT)    (DV6MT)                                         Gamma Ray
BLKP            .m                                         :(RT)    (DRILLING_SURFACE)                              Height of block above rig floor
STICK           .c/min                                     :(RT)    (TELE675)                                       Stick Slip Indicator
CRPM            .c/min                                     :(RT)    (TELE675)                                       Collar Rotational Speed
SHKRSK          .                                          :(RT)    (TELE675)                                       Shock Risk
SHKPK           .gn                                        :(RT)    (TELE675)                                       Shock Peak
ECD             .g/cm3                                     :(RM)    (DV6MT)                                         Equivalent Circulating Density
DHAT            .degC                                      :(RM)    (DV6MT)                                         Downhole Annulus Temperature
DHAP            .bar                                       :(RM)    (DV6MT)                                         Downhole Annulus Pressure
#-------------------------------------------------------------
#       TIME_1900                 TIME        DEPTH           GR         BLKP        STICK         CRPM       SHKRSK        SHKPK          ECD         DHAT         DHAP 
#                                       (DnMWorkfl)      (DV6MT)  (DRILLING_)    (TELE675)    (TELE675)    (TELE675)    (TELE675)      (DV6MT)      (DV6MT)      (DV6MT) 
#                                              (RT)         (RT)         (RT)         (RT)         (RT)         (RT)         (RT)         (RM)         (RM)         (RM) 
#                                (10s)                                                                                                                                   
~ASCII
# ...
 43803.1194444444 02:52:00/04-Dec-2019     461.7200      75.7469      35.2100      -999.25      -999.25       0.0000       0.0000       1.1543      12.0000      47.8496
 43803.1195601852 02:52:10/04-Dec-2019     461.6300      77.4086      35.3000      -999.25      -999.25      -999.25      -999.25       1.1293      12.0000      46.8154
 43803.1196759259 02:52:20/04-Dec-2019     461.6300      78.1314      35.3000      -999.25      -999.25      -999.25      -999.25       1.1457      12.0000      47.5049
 43803.1197916667 02:52:30/04-Dec-2019     461.6300      78.1314      35.3000      -999.25      -999.25      -999.25      -999.25       1.1427      12.0000      47.3670
 43803.1199074074 02:52:40/04-Dec-2019     461.8100      77.4086      35.1200      15.0000      -999.25      -999.25      -999.25       1.1272      12.0000      46.7465
 43803.1200231481 02:52:50/04-Dec-2019     461.7200      76.9209      35.2100      -999.25      -999.25      -999.25      -999.25       1.1059      12.0000      45.8501
 43803.1201388889 02:53:00/04-Dec-2019     461.7300      76.9749      35.2000      -999.25      -999.25      -999.25      -999.25       1.1158      12.0000      46.2638
 43803.1202546296 02:53:10/04-Dec-2019     461.7400      81.1819      35.1900      -999.25      -999.25      -999.25      -999.25       1.1141      12.0000      46.1949
 43803.1203703704 02:53:20/04-Dec-2019     461.7800      83.9777      35.1500      -999.25      -999.25      -999.25      -999.25       1.0941      12.0000      45.3675
 43803.1204861111 02:53:30/04-Dec-2019     461.8600      85.0292      35.0700      -999.25      -999.25      -999.25      -999.25       1.1005      12.0000      45.6433
 43803.1206018519 02:53:40/04-Dec-2019     461.8800      83.7873      35.0500      -999.25      -999.25      -999.25      -999.25       1.1136      12.0000      46.1949
 43803.1207175926 02:53:50/04-Dec-2019     462.0400      82.5244      34.8900      -999.25      -999.25       0.0000       0.0000       1.1083      12.0000      45.9880
 43803.1208333333 02:54:00/04-Dec-2019     462.2300      82.3228      34.7000      -999.25      -999.25      -999.25      -999.25       1.1011      12.0000      45.7122
 43803.1209490741 02:54:10/04-Dec-2019     462.3200      81.7542      34.6100      -999.25      -999.25      -999.25      -999.25       1.1093      12.0000      46.0570
 43803.1210648148 02:54:20/04-Dec-2019     462.4200      81.3250      34.5100      -999.25      93.0000      -999.25      -999.25       1.1053      12.0000      45.9191
 43803.1211805556 02:54:30/04-Dec-2019     462.7000      81.4985      34.2300      -999.25      -999.25      -999.25      -999.25       1.1116      12.0000      46.1949
 43803.1212962963 02:54:40/04-Dec-2019     463.0600      82.0478      33.8600      15.0000      -999.25      -999.25      -999.25       1.1022      12.0000      45.8501
 43803.1214120370 02:54:50/04-Dec-2019     463.2500      81.3451      33.6800      -999.25      -999.25      -999.25      -999.25       1.1102      12.0000      46.1949
 43803.1215277778 02:55:00/04-Dec-2019     463.3500      79.4020      33.5800      -999.25      -999.25      -999.25      -999.25       1.1121      12.0000      46.2638
 43803.1216435185 02:55:10/04-Dec-2019     463.4400      78.5387      33.4800      -999.25      -999.25      -999.25      -999.25       1.1196      12.0000      46.6086
 43803.1217592593 02:55:20/04-Dec-2019     463.6300      73.8238      33.3000      -999.25      -999.25      -999.25      -999.25       1.1126      12.0000      46.3328
 43803.1218750000 02:55:30/04-Dec-2019     464.0000      68.2635      32.9200      -999.25      -999.25      -999.25      -999.25       1.1181      12.0000      46.6086
 43803.1219907407 02:55:40/04-Dec-2019     464.1800      59.7254      32.6600      -999.25      -999.25      -999.25      -999.25       1.1110      12.0000      46.3328
 43803.1221064815 02:55:50/04-Dec-2019     464.2700      55.9514      32.6400      -999.25      -999.25       0.0000       0.0000       1.1104      13.0000      46.3328
 43803.1222222222 02:56:00/04-Dec-2019     464.3700      55.8458      32.5500      -999.25      -999.25      -999.25      -999.25       1.1172      13.0000      46.6086
 43803.1223379630 02:56:10/04-Dec-2019     464.4600      69.0087      32.4600      -999.25      -999.25      -999.25      -999.25       1.1137      13.0000      46.4707
 43803.1224537037 02:56:20/04-Dec-2019     464.5600      76.6639      32.3600      -999.25      92.0000      -999.25      -999.25       1.1150      13.0000      46.5396
 43803.1225694444 02:56:30/04-Dec-2019     464.7500      81.0857      32.2600      15.0000      -999.25      -999.25      -999.25       1.1232      13.0000      46.8844
 43803.1226851852 02:56:40/04-Dec-2019     465.1000      80.4415      31.8100      -999.25      -999.25      -999.25      -999.25       1.1169      13.0000      46.6775
 43803.1228009259 02:56:50/04-Dec-2019     465.1200      82.8872      31.8000      -999.25      -999.25      -999.25      -999.25       1.1217      13.0000      46.8844
 43803.1229166667 02:57:00/04-Dec-2019     465.3900      85.3060      31.5300      -999.25      -999.25      -999.25      -999.25       1.1062      13.0000      46.2638
 43803.1230324074 02:57:10/04-Dec-2019     465.5800      87.3220      31.3500      -999.25      -999.25      -999.25      -999.25       1.1056      13.0000      46.2638
 43803.1231481481 02:57:20/04-Dec-2019     465.7600      87.1066      31.1600      -999.25      -999.25      -999.25      -999.25       1.1152      13.0000      46.6775
 43803.1232638889 02:57:30/04-Dec-2019     466.1300      83.4748      30.7900      -999.25      -999.25      -999.25      -999.25       1.1028      13.0000      46.1949
 43803.1233796296 02:57:40/04-Dec-2019     466.1300      80.3869      30.6000      -999.25      -999.25      -999.25      -999.25       1.1010      13.0000      46.1259
 43803.1234953704 02:57:50/04-Dec-2019     466.3200      81.0598      30.6100      -999.25      -999.25       0.0000       0.0000       1.1206      13.0000      46.9533
 43803.1236111111 02:58:00/04-Dec-2019     466.5000      79.8902      30.4300      -999.25      -999.25      -999.25      -999.25       1.1116      13.0000      46.6086
 43803.1237268519 02:58:10/04-Dec-2019     466.6900      76.7376      30.3200      -999.25      -999.25      -999.25      -999.25       1.1227      13.0000      47.0912
 43803.1238425926 02:58:20/04-Dec-2019     466.8800      74.2978      30.0500      -999.25      93.0000      -999.25      -999.25       1.1024      13.0000      46.2638
 43803.1239583333 02:58:30/04-Dec-2019     467.1600      74.9358      29.7700      12.0000      -999.25      -999.25      -999.25       1.1217      13.0000      47.0912
 43803.1240740741 02:58:40/04-Dec-2019     467.2500      77.0794      29.6800      -999.25      -999.25      -999.25      -999.25       1.1113      13.0000      46.6775
 43803.1241898148 02:58:50/04-Dec-2019     467.4400      77.4363      29.4800      -999.25      -999.25      -999.25      -999.25       1.1175      13.0000      46.9533
 43803.1243055556 02:59:00/04-Dec-2019     467.6200      75.6691      29.3000      -999.25      -999.25      -999.25      -999.25       1.1218      13.0000      47.1601
 43803.1244212963 02:59:10/04-Dec-2019     467.9000      74.4273      29.0300      -999.25      -999.25      -999.25      -999.25       1.1179      13.0000      47.0223
 43803.1245370370 02:59:20/04-Dec-2019     468.1700      75.4787      28.7400      -999.25      -999.25      -999.25      -999.25       1.1089      13.0000      46.6775
 43803.1246527778 02:59:30/04-Dec-2019     468.3600      78.2745      28.5600      -999.25      -999.25      -999.25      -999.25       1.1021      13.0000      46.4017
 43803.1247685185 02:59:40/04-Dec-2019     468.3600      82.2405      28.5600      -999.25      -999.25      -999.25      -999.25       1.1117      13.0000      46.8154
 43803.1248842593 02:59:50/04-Dec-2019     468.5500      84.6925      28.2800      -999.25      -999.25       0.0000       0.0000       1.1270      13.0000      47.5049
