~VERSION INFORMATION 
VERS  .    2.0                                     :CWLS Log ASCII Standard - VERSION 2.0
WRAP  .    NO                                      :One Line per Time step
PROD  .    Schlumberger Technology Corp.           :LAS Producer
PROG  .    Horizon LASWriter 9.2.113335.3100       :LAS Program name and version
SOURCE.    Run 12-TimeLogicalAcq                   :Run&Pass Information
CREA  .    01/21/2020                              :LAS Creation date {MM/DD/YYYY}
#--------------------------------------------------
~WELL INFORMATION 
#MNEM           .UNIT                      DATA            :DESCRIPTION
#----            ------          --------------            -----------------------------
STRT            .d               43837.2295138889          :START TIME(OLE Automation date)
STOP            .d               43837.6875000000          :STOP TIME(OLE Automation date)
STEP            .d                            0            :STEP TIME(10s in time)
NULL            .                       -999.25            :NULL VALUE
COMP            .                       Equinor            :COMPANY
WELL            .                        31/5-7            :WELL NAME
FLD             .                           Eos            :FIELD NAME
RIGN            .                 West Hercules            :Rig Name
RIGTYP          .                Semi-Submersible          :Rig Type
SON             .                     19SCA0085            :Service Order Number
SRVC            .                  Schlumberger            :SERVICE COMPANY
DATE            .                    01/07/2020            :LOG DATE(Composite Date for Composite LAP) (MM/DD/YYYY)
CLAB            .                       County:            :County Label
CNTY            .                                          :COUNTY
SLAB            .                                          :State/Province Label
STAT            .                                          :STATE or PROVINCE
PROV            .                                          :STATE or PROVINCE
CTRY            .                        Norway            :COUNTRY
CONT_REGION     .                        Europe            :Continent Region
SECT            .                                          :Section
TOWN            .                                          :Township
RANG            .                                          :Range
API             .                                          :API NUMBER
UWI             .                                          :UNIQUE WELL ID
LUL             .                Service Office            :Logging Unit Location
LUN             .                          A615            :Logging Unit Number
LOC             .                Norwegian North Sea       :FIELD LOCATION
FL1             .                Section: 8 1/2 in.        :Field Location Line 1
FL2             .                Job no.: 19SCA0085        :Field Location Line 2
LATI            .deg             60° 34' 35.14" N          :LATITUDE
LONG            .deg             3° 26' 36.13" E           :LONGITUDE
PDAT            .                           MSL            :Local Permanent Datum
LMF             .                            DF            :Logging Measured From
APD             .m                        31.00            :Elevation of Depth Reference (LMF) Above Permanent Datum
EPD             .m                         0.00            :Elevation of Permanent Datum (PDAT) above Mean Sea Level
EKB             .m                      -999.25            :Elevation of Kelly Bushing Above Permanent Datum
EDF             .m                        31.00            :Elevation of Drill Floor Above Permanent Datum
EGL             .m                      -307.00            :Elevation of Ground Level Above Permanent Datum
ECF             .m                      -999.25            :Elevation of Casing Flange above Permanent Datum
#--------------------------------------------------
~CURVE INFORMATION
#MNEM           .UNIT                  API CODE            :DESCRIPTION
#----            ------          --------------            -----------------------------
TIME_1900       .d                                         :                                                        Time Index(OLE Automation date)
TIME            .s                                         :                                (10s)                   Time(hh mm ss/dd-MMM-yyyy)
DEPTH           .m                                         :(RT)    (DnMWorkflow)                                   Depth Index
BLKP            .m                                         :(RT)    (DRILLING_SURFACE)                              Height of block above rig floor
GR              .gAPI                                      :(RT)    (ARC6)                                          Gamma Ray
CRPM            .c/min                                     :(RT)    (TELE675)                                       Collar Rotational Speed
STICK           .c/min                                     :(RT)    (TELE675)                                       Stick Slip Indicator
SHKRSK          .                                          :(RT)    (TELE675)                                       Shock Risk
SHKPK           .gn                                        :(RT)    (TELE675)                                       Shock Peak
DHAT            .degC                                      :(RM)    (ARC6)                                          Downhole Annulus Temperature
DHAP            .bar                                       :(RM)    (ARC6)                                          Downhole Annulus Pressure
ECD             .g/cm3                                     :(RM)    (ARC6)                                          Equivalent Circulating Density
#-------------------------------------------------------------
#       TIME_1900                 TIME        DEPTH         BLKP           GR         CRPM        STICK       SHKRSK        SHKPK         DHAT         DHAP          ECD 
#                                       (DnMWorkfl)  (DRILLING_)       (ARC6)    (TELE675)    (TELE675)    (TELE675)    (TELE675)       (ARC6)       (ARC6)       (ARC6) 
#                                              (RT)         (RT)         (RT)         (RT)         (RT)         (RT)         (RT)         (RM)         (RM)         (RM) 
#                                (10s)                                                                                                                                   
~ASCII
# ...
 43837.6350694444 15:14:30/07-Jan-2020   1970.51001      3.30000      -999.25      -999.25      -999.25      -999.25      -999.25     48.00000    225.11380      1.17019
 43837.6351851852 15:14:40/07-Jan-2020   1970.51001      3.30000      -999.25      -999.25      -999.25      -999.25      -999.25     48.00000    226.49280      1.17736
 43837.6353009259 15:14:50/07-Jan-2020   1970.51001      3.30000      -999.25      -999.25      -999.25      -999.25      -999.25     48.00000    226.01010      1.17485
 43837.6354166667 15:15:00/07-Jan-2020   1970.51001      3.30000      -999.25      -999.25      -999.25      -999.25      -999.25     47.00000    228.49230      1.18775
 43837.6355324074 15:15:10/07-Jan-2020   1969.73999      3.95000      -999.25      -999.25      -999.25      -999.25      -999.25     47.00000    224.76910      1.16888
 43837.6356481481 15:15:20/07-Jan-2020   1961.31006     12.31000      -999.25      -999.25      -999.25      -999.25      -999.25     47.00000    220.28750      1.15032
 43837.6357638889 15:15:30/07-Jan-2020   1951.55005     22.07000      -999.25      -999.25      -999.25      -999.25      -999.25     47.00000    220.63220      1.15793
 43837.6358796296 15:15:40/07-Jan-2020   1941.43005     32.79000      -999.25      -999.25      -999.25      -999.25      -999.25     47.00000    220.21860      1.16214
 43837.6359953704 15:15:50/07-Jan-2020   1932.08997     41.66999      -999.25      -999.25      -999.25      -999.25      -999.25     47.00000    220.70120      1.17021
 43837.6361111111 15:16:00/07-Jan-2020   1931.08008     42.54000      -999.25      -999.25      -999.25      -999.25      -999.25     48.00000    225.32070      1.19529
 43837.6362268519 15:16:10/07-Jan-2020   1931.26001     42.36000      -999.25      -999.25      -999.25      -999.25      -999.25     48.00000    224.07960      1.18860
 43837.6363425926 15:16:20/07-Jan-2020   1931.26001     42.09000      -999.25      -999.25      -999.25      -999.25      -999.25     48.00000    225.18280      1.19445
 43837.6364583333 15:16:30/07-Jan-2020   1931.26001     34.73000      -999.25      -999.25      -999.25      -999.25      -999.25     48.00000    223.66590      1.18640
 43837.6365740741 15:16:40/07-Jan-2020   1931.26001     17.23000      -999.25      -999.25      -999.25      -999.25      -999.25     48.00000    222.97640      1.18275
 43837.6366898148 15:16:50/07-Jan-2020   1931.26001      8.83000      -999.25      -999.25      -999.25      -999.25      -999.25     48.00000    223.32120      1.18458
 43837.6368055556 15:17:00/07-Jan-2020   1931.26001      8.83000      -999.25      -999.25      -999.25      -999.25      -999.25     47.00000    222.70070      1.18128
 43837.6369212963 15:17:10/07-Jan-2020   1931.26001      8.39000      -999.25      -999.25      -999.25      -999.25      -999.25     47.00000    223.04540      1.18311
 43837.6370370370 15:17:20/07-Jan-2020   1931.26001      3.46000      -999.25      -999.25      -999.25      -999.25      -999.25     47.00000    223.73490      1.18677
 43837.6371527778 15:17:30/07-Jan-2020   1931.26001      3.43000      -999.25      -999.25      -999.25      -999.25      -999.25     47.00000    222.83860      1.18202
 43837.6372685185 15:17:40/07-Jan-2020   1928.03992      6.36000      -999.25      -999.25      -999.25      -999.25      -999.25     47.00000    221.80430      1.17850
 43837.6373842593 15:17:50/07-Jan-2020   1924.27991     10.12000      -999.25      -999.25      -999.25      -999.25      -999.25     47.00000    218.15010      1.16160
 43837.6375000000 15:18:00/07-Jan-2020   1911.09998     23.30000      -999.25      -999.25      -999.25      -999.25      -999.25     47.00000    217.46060      1.16583
 43837.6376157407 15:18:10/07-Jan-2020   1899.35999     35.04000      -999.25      -999.25      -999.25      -999.25      -999.25     47.00000    216.28850      1.16682
 43837.6377314815 15:18:20/07-Jan-2020   1892.38989     42.01000      -999.25      -999.25      -999.25      -999.25      -999.25     47.00000    217.80540      1.17917
 43837.6378472222 15:18:30/07-Jan-2020   1891.90991     42.49000      -999.25      -999.25      -999.25      -999.25      -999.25     47.00000    218.97750      1.18581
 43837.6379629630 15:18:40/07-Jan-2020   1892.09998     42.18000      -999.25      -999.25      -999.25      -999.25      -999.25     47.00000    216.97800      1.17486
 43837.6380787037 15:18:50/07-Jan-2020   1892.09998     41.98000      -999.25      -999.25      -999.25      -999.25      -999.25     47.00000    218.28800      1.18195
 43837.6381944444 15:19:00/07-Jan-2020   1892.09998     30.13000      -999.25      -999.25      -999.25      -999.25      -999.25     47.00000    218.08120      1.18083
 43837.6383101852 15:19:10/07-Jan-2020   1892.09998     13.55000      -999.25      -999.25      -999.25      -999.25      -999.25     47.00000    217.87430      1.17971
 43837.6384259259 15:19:20/07-Jan-2020   1892.09998      8.67000      -999.25      -999.25      -999.25      -999.25      -999.25     47.00000    218.90850      1.18531
 43837.6385416667 15:19:30/07-Jan-2020   1892.09998      8.67000      -999.25      -999.25      -999.25      -999.25      -999.25     47.00000    219.94280      1.19091
 43837.6386574074 15:19:40/07-Jan-2020   1892.09998      3.78000      -999.25      -999.25      -999.25      -999.25      -999.25     47.00000    220.28750      1.19278
 43837.6387731481 15:19:50/07-Jan-2020   1892.09998      3.48000      -999.25      -999.25      -999.25      -999.25      -999.25     47.00000    218.97750      1.18569
 43837.6388888889 15:20:00/07-Jan-2020   1885.73999      9.83000      -999.25      -999.25      -999.25      -999.25      -999.25     47.00000    215.59910      1.17139
 43837.6390046296 15:20:10/07-Jan-2020   1877.75000     18.12000      -999.25      -999.25      -999.25      -999.25      -999.25     47.00000    214.01330      1.16785
 43837.6391203704 15:20:20/07-Jan-2020   1868.76001     26.85000      -999.25      -999.25      -999.25      -999.25      -999.25     47.00000    212.01380      1.16245
 43837.6392361111 15:20:30/07-Jan-2020   1859.68005     36.19000      -999.25      -999.25      -999.25      -999.25      -999.25     47.00000    212.22060      1.16938
 43837.6393518519 15:20:40/07-Jan-2020   1853.21997     42.18000      -999.25      -999.25      -999.25      -999.25      -999.25     47.00000    216.15060      1.19507
 43837.6394675926 15:20:50/07-Jan-2020   1852.85999     42.49000      -999.25      -999.25      -999.25      -999.25      -999.25     47.00000    213.04800      1.17813
 43837.6395833333 15:21:00/07-Jan-2020   1853.21997     42.12000      -999.25      -999.25      -999.25      -999.25      -999.25     47.00000    213.18590      1.17866
 43837.6396990741 15:21:10/07-Jan-2020   1853.21997     36.84000      -999.25      -999.25      -999.25      -999.25      -999.25     47.00000    214.08220      1.18362
 43837.6398148148 15:21:20/07-Jan-2020   1853.21997     19.95000      -999.25      -999.25      -999.25      -999.25      -999.25     47.00000    214.42700      1.18552
 43837.6399305556 15:21:30/07-Jan-2020   1853.21997      8.87000      -999.25      -999.25      -999.25      -999.25      -999.25     47.00000    215.39220      1.19086
 43837.6400462963 15:21:40/07-Jan-2020   1853.21997      8.66000      -999.25      -999.25      -999.25      -999.25      -999.25     47.00000    214.63380      1.18667
 43837.6401620370 15:21:50/07-Jan-2020   1853.21997      8.65000      -999.25      -999.25      -999.25      -999.25      -999.25     47.00000    215.73700      1.19277
 43837.6402777778 15:22:00/07-Jan-2020   1853.21997      3.62000      -999.25      -999.25      -999.25      -999.25      -999.25     47.00000    216.01280      1.19429
 43837.6403935185 15:22:10/07-Jan-2020   1853.21997      3.46000      -999.25      -999.25      -999.25      -999.25      -999.25     46.00000    215.04750      1.18895
 43837.6405092593 15:22:20/07-Jan-2020   1847.60999      9.94000      -999.25      -999.25      -999.25      -999.25      -999.25     46.00000    210.35900      1.16684
