~VERSION INFORMATION 
VERS  .    2.0                                     :CWLS Log ASCII Standard - VERSION 2.0
WRAP  .    NO                                      :One Line per Time step
PROD  .    Schlumberger Technology Corp.           :LAS Producer
PROG  .    Horizon LASWriter 9.2.113335.3100       :LAS Program name and version
SOURCE.    Run 3-TimeLogicalAcq                    :Run&Pass Information
CREA  .    12/12/2019                              :LAS Creation date {MM/DD/YYYY}
#--------------------------------------------------
~WELL INFORMATION 
#MNEM           .UNIT                      DATA            :DESCRIPTION
#----            ------          --------------            -----------------------------
STRT            .d               43804.6875000000          :START TIME(OLE Automation date)
STOP            .d               43805.8541666667          :STOP TIME(OLE Automation date)
STEP            .d                            0            :STEP TIME(10s in time)
NULL            .                       -999.25            :NULL VALUE
COMP            .                       Equinor            :COMPANY
WELL            .                        31/5-7            :WELL NAME
FLD             .                           Eos            :FIELD NAME
RIGN            .                 West Hercules            :Rig Name
RIGTYP          .                Semi-Submersible          :Rig Type
SON             .                     19SCA0085            :Service Order Number
SRVC            .                  Schlumberger            :SERVICE COMPANY
DATE            .                    12/05/2019            :LOG DATE(Composite Date for Composite LAP) (MM/DD/YYYY)
CLAB            .                       County:            :County Label
CNTY            .                                          :COUNTY
SLAB            .                                          :State/Province Label
STAT            .                                          :STATE or PROVINCE
PROV            .                                          :STATE or PROVINCE
CTRY            .                        Norway            :COUNTRY
CONT_REGION     .                        Europe            :Continent Region
SECT            .                                          :Section
TOWN            .                                          :Township
RANG            .                                          :Range
API             .                                          :API NUMBER
UWI             .                                          :UNIQUE WELL ID
LUL             .                Service Office            :Logging Unit Location
LUN             .                          A615            :Logging Unit Number
LOC             .                Norwegian North Sea       :FIELD LOCATION
FL1             .                Section: 26 in.           :Field Location Line 1
FL2             .                Job no.: 19SCA0085        :Field Location Line 2
LATI            .deg             60° 34' 35.14" N          :LATITUDE
LONG            .deg             3° 26' 36.13" E           :LONGITUDE
PDAT            .                           MSL            :Local Permanent Datum
LMF             .                            DF            :Logging Measured From
APD             .m                        31.00            :Elevation of Depth Reference (LMF) Above Permanent Datum
EPD             .m                         0.00            :Elevation of Permanent Datum (PDAT) above Mean Sea Level
EKB             .m                      -999.25            :Elevation of Kelly Bushing Above Permanent Datum
EDF             .m                        31.00            :Elevation of Drill Floor Above Permanent Datum
EGL             .m                      -307.00            :Elevation of Ground Level Above Permanent Datum
ECF             .m                      -999.25            :Elevation of Casing Flange above Permanent Datum
#--------------------------------------------------
~CURVE INFORMATION
#MNEM           .UNIT                  API CODE            :DESCRIPTION
#----            ------          --------------            -----------------------------
TIME_1900       .d                                         :                                                        Time Index(OLE Automation date)
TIME            .s                                         :                                (10s)                   Time(hh mm ss/dd-MMM-yyyy)
DEPTH           .m                                         :(RT)    (DnMWorkflow)                                   Depth Index
GR_CAL          .gAPI                                      :(RT)    (ARC9)                                          Calibrated Gamma Ray
BLKP            .m                                         :(RT)    (DRILLING_SURFACE)                              Height of block above rig floor
CRPM            .c/min                                     :(RT)    (TELE900)                                       Collar Rotational Speed
STICK           .c/min                                     :(RT)    (TELE900)                                       Stick Slip Indicator
SHKPK           .gn                                        :(RT)    (TELE900)                                       Shock Peak
SHKRSK          .                                          :(RT)    (TELE900)                                       Shock Risk
DHAP            .bar                                       :(RM)    (ARC9)                                          Downhole Annulus Pressure
DHAT            .degC                                      :(RM)    (ARC9)                                          Downhole Annulus Temperature
ECD             .g/cm3                                     :(RM)    (ARC9)                                          Equivalent Circulating Density
#-------------------------------------------------------------
#       TIME_1900                 TIME        DEPTH       GR_CAL         BLKP         CRPM        STICK        SHKPK       SHKRSK         DHAP         DHAT          ECD 
#                                       (DnMWorkfl)       (ARC9)  (DRILLING_)    (TELE900)    (TELE900)    (TELE900)    (TELE900)       (ARC9)       (ARC9)       (ARC9) 
#                                              (RT)         (RT)         (RT)         (RT)         (RT)         (RT)         (RT)         (RM)         (RM)         (RM) 
#                                (10s)                                                                                                                                   
~ASCII
# ...
 43805.0763888889 01:50:00/06-Dec-2019     547.5000      51.5579      35.2700      -999.25      -999.25      -999.25      -999.25      51.9865      13.0000       1.0727
 43805.0765046296 01:50:10/06-Dec-2019     546.9300      51.6654      36.1100      -999.25      -999.25      -999.25      -999.25      51.9865      13.0000       1.0741
 43805.0766203704 01:50:20/06-Dec-2019     546.7401      51.7885      36.0200      -999.25      -999.25      -999.25      -999.25      51.9865      13.0000       1.0743
 43805.0767361111 01:50:30/06-Dec-2019     547.5900      51.9209      35.3600      -999.25      -999.25      -999.25      -999.25      52.0554      13.0000       1.0740
 43805.0768518519 01:50:40/06-Dec-2019     547.0300      52.0543      36.0200      -999.25      -999.25      -999.25      -999.25      52.0554      13.0000       1.0753
 43805.0769675926 01:50:50/06-Dec-2019     546.9300      52.1792      36.0200      -999.25      -999.25      -999.25      -999.25      51.9865      13.0000       1.0740
 43805.0770833333 01:51:00/06-Dec-2019     547.4000      52.2861      35.8300      -999.25      -999.25      -999.25      -999.25      52.0554      13.0000       1.0747
 43805.0771990741 01:51:10/06-Dec-2019     545.7800      52.3664      37.1700      -999.25      -999.25       0.0000       0.0000      51.9865      13.0000       1.0765
 43805.0773148148 01:51:20/06-Dec-2019     546.4600      52.4134      36.4900      -999.25      -999.25      -999.25      -999.25      51.9865      13.0000       1.0751
 43805.0774305556 01:51:30/06-Dec-2019     546.4600      47.0850      36.4900      -999.25      -999.25      -999.25      -999.25      51.8486      13.0000       1.0722
 43805.0775462963 01:51:40/06-Dec-2019     546.4600      47.9654      36.4900      -999.25      -999.25      -999.25      -999.25      51.9865      13.0000       1.0751
 43805.0776620370 01:51:50/06-Dec-2019     546.5500      52.2129      36.4000      -999.25      -999.25       0.0000       0.0000      51.7796      13.0000       1.0706
 43805.0777777778 01:52:00/06-Dec-2019     546.8400      52.9120      36.1100      -999.25      -999.25      -999.25      -999.25      51.8486      13.0000       1.0714
 43805.0778935185 01:52:10/06-Dec-2019     546.2600      50.8230      36.6900      -999.25      -999.25      -999.25      -999.25      51.8486      13.0000       1.0726
 43805.0780092593 01:52:20/06-Dec-2019     546.2600      48.0150      36.6900      -999.25      -999.25      -999.25      -999.25      51.7796      13.0000       1.0712
 43805.0781250000 01:52:30/06-Dec-2019     546.3600      46.3978      36.5900      54.0000      -999.25      -999.25      -999.25      51.8486      13.0000       1.0724
 43805.0782407407 01:52:40/06-Dec-2019     546.4600      45.8135      36.4900      -999.25      48.0000       0.0000       0.0000      51.8486      13.0000       1.0722
 43805.0783564815 01:52:50/06-Dec-2019     546.4600      46.3978      36.4900      -999.25      -999.25      -999.25      -999.25      51.8486      13.0000       1.0722
 43805.0784722222 01:53:00/06-Dec-2019     546.4600      51.6621      36.4900      -999.25      -999.25      -999.25      -999.25      51.8486      13.0000       1.0722
 43805.0785879630 01:53:10/06-Dec-2019     546.4600      51.8638      36.4900      -999.25      -999.25      -999.25      -999.25      51.8486      13.0000       1.0722
 43805.0787037037 01:53:20/06-Dec-2019     546.4600      48.2276      36.4900      55.0000      -999.25       0.0000       0.0000      51.8486      13.0000       1.0722
 43805.0788194444 01:53:30/06-Dec-2019     546.1200      44.5915      36.8300      -999.25      33.0000      -999.25      -999.25      51.9865      13.0000       1.0758
 43805.0789351852 01:53:40/06-Dec-2019     546.9700      42.6567      35.9800      -999.25      -999.25      -999.25      -999.25      51.9865      13.0000       1.0740
 43805.0790509259 01:53:50/06-Dec-2019     547.8300      43.6401      35.1200      -999.25      -999.25      -999.25      -999.25      52.0554      13.0000       1.0735
 43805.0791666667 01:54:00/06-Dec-2019     548.9200      42.8280      34.0300      55.0000      -999.25       0.0000       0.0000      52.1933      13.0000       1.0740
 43805.0792824074 01:54:10/06-Dec-2019     549.4500      42.7029      33.5000      -999.25      93.0000      -999.25      -999.25      52.3312      13.0000       1.0756
 43805.0793981481 01:54:20/06-Dec-2019     550.2300      43.3232      32.7200      -999.25      -999.25      -999.25      -999.25      52.3312      13.0000       1.0739
 43805.0795138889 01:54:30/06-Dec-2019     549.6600      42.2753      33.2900      -999.25      -999.25      -999.25      -999.25      52.3312      13.0000       1.0753
 43805.0796296296 01:54:40/06-Dec-2019     550.1500      40.7170      32.8000      -999.25      -999.25      -999.25      -999.25      52.3312      13.0000       1.0742
 43805.0797453704 01:54:50/06-Dec-2019     550.3800      42.0159      32.5700      56.0000      -999.25       0.0000       0.0000      52.3312      13.0000       1.0737
 43805.0798611111 01:55:00/06-Dec-2019     550.1200      47.9893      32.8300      -999.25      90.0000      -999.25      -999.25      52.3312      13.0000       1.0742
 43805.0799768518 01:55:10/06-Dec-2019     550.1200      53.0731      32.8300      -999.25      -999.25      -999.25      -999.25      52.3312      13.0000       1.0742
 43805.0800925926 01:55:20/06-Dec-2019     550.3100      50.3843      32.6400      -999.25      -999.25      -999.25      -999.25      52.3312      13.0000       1.0738
 43805.0802083333 01:55:30/06-Dec-2019     550.8900      45.3213      32.0600      55.0000      -999.25       0.0000       0.0000      52.3312      13.0000       1.0726
 43805.0803240741 01:55:40/06-Dec-2019     550.2900      43.3865      32.7600      -999.25      42.0000      -999.25      -999.25      52.3312      13.0000       1.0739
 43805.0804398148 01:55:50/06-Dec-2019     550.4800      45.4853      32.4700      -999.25      -999.25      -999.25      -999.25      52.3312      13.0000       1.0734
 43805.0805555556 01:56:00/06-Dec-2019     550.9600      45.8703      31.8900      -999.25      -999.25      -999.25      -999.25      52.3312      13.0000       1.0723
 43805.0806712963 01:56:10/06-Dec-2019     551.2500      46.4095      31.7000      53.0000      -999.25      -999.25      -999.25      52.3312      13.0000       1.0718
 43805.0807870370 01:56:20/06-Dec-2019     551.3900      48.2276      31.5700      -999.25      39.0000       0.0000       0.0000      52.3312      13.0000       1.0715
 43805.0809027778 01:56:30/06-Dec-2019     550.7000      50.0457      32.4500      -999.25      -999.25      -999.25      -999.25      52.3312      13.0000       1.0731
 43805.0810185185 01:56:40/06-Dec-2019     551.0800      52.1443      31.9700      -999.25      -999.25      -999.25      -999.25      52.3312      13.0000       1.0722
 43805.0811342593 01:56:50/06-Dec-2019     550.7900      50.2985      32.3600      -999.25      -999.25      -999.25      -999.25      52.4002      13.0000       1.0744
 43805.0812500000 01:57:00/06-Dec-2019     551.1800      44.8443      31.7700      51.0000      -999.25       0.0000       0.0000      52.4691      13.0000       1.0748
 43805.0813657407 01:57:10/06-Dec-2019     552.1100      39.3901      31.2300      -999.25      36.0000      -999.25      -999.25      52.4002      13.0000       1.0717
 43805.0814814815 01:57:20/06-Dec-2019     550.6700      38.4271      32.3800      -999.25      -999.25      -999.25      -999.25      52.4002      13.0000       1.0745
 43805.0815972222 01:57:30/06-Dec-2019     550.3800      42.6193      32.4800      -999.25      -999.25      -999.25      -999.25      52.4002      13.0000       1.0750
 43805.0817129630 01:57:40/06-Dec-2019     551.1500      44.7181      31.7100      57.0000      -999.25       0.0000       0.0000      52.4002      13.0000       1.0733
 43805.0818287037 01:57:50/06-Dec-2019     551.1500      42.7833      31.6100      -999.25      39.0000      -999.25      -999.25      52.4002      13.0000       1.0732
