~VERSION INFORMATION 
VERS  .    2.0                                     :CWLS Log ASCII Standard - VERSION 2.0
WRAP  .    NO                                      :One Line per Time step
PROD  .    Schlumberger Technology Corp.           :LAS Producer
PROG  .    Horizon LASWriter 9.2.113335.3100       :LAS Program name and version
SOURCE.    Run 9-TimeLogicalAcq                    :Run&Pass Information
CREA  .    01/21/2020                              :LAS Creation date {MM/DD/YYYY}
#--------------------------------------------------
~WELL INFORMATION 
#MNEM           .UNIT                      DATA            :DESCRIPTION
#----            ------          --------------            -----------------------------
STRT            .d               43828.3333333334          :START TIME(OLE Automation date)
STOP            .d               43829.1041666667          :STOP TIME(OLE Automation date)
STEP            .d                            0            :STEP TIME(10s in time)
NULL            .                       -999.25            :NULL VALUE
COMP            .                       Equinor            :COMPANY
WELL            .                        31/5-7            :WELL NAME
FLD             .                           Eos            :FIELD NAME
RIGN            .                 West Hercules            :Rig Name
RIGTYP          .                Semi-Submersible          :Rig Type
SON             .                     19SCA0085            :Service Order Number
SRVC            .                  Schlumberger            :SERVICE COMPANY
DATE            .                    12/29/2019            :LOG DATE(Composite Date for Composite LAP) (MM/DD/YYYY)
CLAB            .                       County:            :County Label
CNTY            .                                          :COUNTY
SLAB            .                                          :State/Province Label
STAT            .                                          :STATE or PROVINCE
PROV            .                                          :STATE or PROVINCE
CTRY            .                        Norway            :COUNTRY
CONT_REGION     .                        Europe            :Continent Region
SECT            .                                          :Section
TOWN            .                                          :Township
RANG            .                                          :Range
API             .                                          :API NUMBER
UWI             .                                          :UNIQUE WELL ID
LUL             .                Service Office            :Logging Unit Location
LUN             .                          A615            :Logging Unit Number
LOC             .                Norwegian North Sea       :FIELD LOCATION
FL1             .                Section: 8 1/2 in.        :Field Location Line 1
FL2             .                Job no.: 19SCA0085        :Field Location Line 2
LATI            .deg             60° 34' 35.14" N          :LATITUDE
LONG            .deg             3° 26' 36.13" E           :LONGITUDE
PDAT            .                           MSL            :Local Permanent Datum
LMF             .                            DF            :Logging Measured From
APD             .m                        31.00            :Elevation of Depth Reference (LMF) Above Permanent Datum
EPD             .m                         0.00            :Elevation of Permanent Datum (PDAT) above Mean Sea Level
EKB             .m                      -999.25            :Elevation of Kelly Bushing Above Permanent Datum
EDF             .m                        31.00            :Elevation of Drill Floor Above Permanent Datum
EGL             .m                      -307.00            :Elevation of Ground Level Above Permanent Datum
ECF             .m                      -999.25            :Elevation of Casing Flange above Permanent Datum
#--------------------------------------------------
~CURVE INFORMATION
#MNEM           .UNIT                  API CODE            :DESCRIPTION
#----            ------          --------------            -----------------------------
TIME_1900       .d                                         :                                                        Time Index(OLE Automation date)
TIME            .s                                         :                                (10s)                   Time(hh mm ss/dd-MMM-yyyy)
DEPTH           .m                                         :(RT)    (DnMWorkflow)                                   Depth Index
BLKP            .m                                         :(RT)    (DRILLING_SURFACE)                              Height of block above rig floor
GR              .gAPI                                      :(RT)    (ARC6)                                          Gamma Ray
CRPM            .c/min                                     :(RT)    (TELE675)                                       Collar Rotational Speed
STICK           .c/min                                     :(RT)    (TELE675)                                       Stick Slip Indicator
SHKRSK          .                                          :(RT)    (TELE675)                                       Shock Risk
SHKPK           .gn                                        :(RT)    (TELE675)                                       Shock Peak
DHAT            .degC                                      :(RM)    (ARC6)                                          Downhole Annulus Temperature
DHAP            .bar                                       :(RM)    (ARC6)                                          Downhole Annulus Pressure
ECD             .g/cm3                                     :(RM)    (ARC6)                                          Equivalent Circulating Density
#-------------------------------------------------------------
#       TIME_1900                 TIME        DEPTH         BLKP           GR         CRPM        STICK       SHKRSK        SHKPK         DHAT         DHAP          ECD 
#                                       (DnMWorkfl)  (DRILLING_)       (ARC6)    (TELE675)    (TELE675)    (TELE675)    (TELE675)       (ARC6)       (ARC6)       (ARC6) 
#                                              (RT)         (RT)         (RT)         (RT)         (RT)         (RT)         (RT)         (RM)         (RM)         (RM) 
#                                (10s)                                                                                                                                   
~ASCII
# ...
 43828.8722222222 20:56:00/29-Dec-2019   2569.69995     32.39000      -999.25      -999.25      -999.25      -999.25      -999.25     52.00000    293.99240      1.17061
 43828.8723379630 20:56:10/29-Dec-2019   2569.79004     32.30000      -999.25      -999.25      -999.25      -999.25      -999.25     52.00000    294.19930      1.17139
 43828.8724537037 20:56:20/29-Dec-2019   2569.60986     32.48000      -999.25      -999.25      -999.25      -999.25      -999.25     52.00000    294.47510      1.17266
 43828.8725694444 20:56:30/29-Dec-2019   2570.15991     31.93000      -999.25      -999.25      -999.25      -999.25      -999.25     52.00000    295.02670      1.17455
 43828.8726851852 20:56:40/29-Dec-2019   2570.07007     32.02000      -999.25      -999.25      -999.25      -999.25      -999.25     52.00000    294.95770      1.17442
 43828.8728009259 20:56:50/29-Dec-2019   2569.60986     32.48000      -999.25      -999.25      -999.25      -999.25      -999.25     52.00000    296.26770      1.17984
 43828.8729166667 20:57:00/29-Dec-2019   2569.60986     32.48000      -999.25      -999.25      -999.25      -999.25      -999.25     51.00000    296.33670      1.18007
 43828.8730324074 20:57:10/29-Dec-2019   2569.69995     32.39000      -999.25      -999.25      -999.25      -999.25      -999.25     51.00000    296.26770      1.17971
 43828.8731481481 20:57:20/29-Dec-2019   2569.60986     32.48000      -999.25      -999.25      -999.25      -999.25      -999.25     51.00000    296.88820      1.18218
 43828.8732638889 20:57:30/29-Dec-2019   2569.22998     32.86000      -999.25      -999.25      -999.25      -999.25      -999.25     51.00000    297.37090      1.18427
 43828.8733796296 20:57:40/29-Dec-2019   2569.79004     32.30000      -999.25      -999.25      -999.25      -999.25      -999.25     51.00000    297.23300      1.18346
 43828.8734953704 20:57:50/29-Dec-2019   2569.69995     32.39000      -999.25      -999.25      -999.25      -999.25      -999.25     51.00000    298.40510      1.18810
 43828.8736111111 20:58:00/29-Dec-2019   2569.33008     32.76000      -999.25      -999.25      -999.25      -999.25      -999.25     51.00000    299.43930      1.19247
 43828.8737268519 20:58:10/29-Dec-2019   2569.88013     32.21000      -999.25      -999.25      -999.25      -999.25      -999.25     51.00000    299.37040      1.19206
 43828.8738425926 20:58:20/29-Dec-2019   2569.69995     32.39000      -999.25      -999.25      -999.25      -999.25      -999.25     51.00000    299.37040      1.19210
 43828.8739583333 20:58:30/29-Dec-2019   2569.33008     32.76000      -999.25      -999.25      -999.25      -999.25      -999.25     51.00000    299.37040      1.19223
 43828.8740740741 20:58:40/29-Dec-2019   2569.69995     32.39000      -999.25      -999.25      -999.25      -999.25      -999.25     50.00000    299.30140      1.19182
 43828.8741898148 20:58:50/29-Dec-2019   2569.88013     32.21000      -999.25      -999.25      -999.25      -999.25      -999.25     50.00000    299.37040      1.19206
 43828.8743055556 20:59:00/29-Dec-2019   2569.60986     32.48000      -999.25      -999.25      -999.25      -999.25      -999.25     50.00000    299.30140      1.19179
 43828.8744212963 20:59:10/29-Dec-2019   2569.60986     32.48000      -999.25      -999.25      -999.25      -999.25      -999.25     50.00000    299.16350      1.19124
 43828.8745370370 20:59:20/29-Dec-2019   2569.79004     32.30000      -999.25      -999.25      -999.25      -999.25      -999.25     50.00000    299.16350      1.19120
 43828.8746527778 20:59:30/29-Dec-2019   2569.88013     32.21000      -999.25      -999.25      -999.25      -999.25      -999.25     50.00000    291.71720      1.16158
 43828.8747685185 20:59:40/29-Dec-2019   2569.79004     32.30000      -999.25      -999.25      -999.25      -999.25      -999.25     50.00000    292.19980      1.16347
 43828.8748842593 20:59:50/29-Dec-2019   2569.88013     32.21000      -999.25      -999.25      -999.25      -999.25      -999.25     50.00000    292.13090      1.16315
 43828.8750000000 21:00:00/29-Dec-2019   2569.60986     32.48000      -999.25      -999.25      -999.25      -999.25      -999.25     50.00000    292.13090      1.16315
 43828.8751157407 21:00:10/29-Dec-2019   2569.88013     32.21000      -999.25      -999.25      -999.25      -999.25      -999.25     49.00000    292.13090      1.16315
 43828.8752314815 21:00:20/29-Dec-2019   2569.96997     32.12000      -999.25      -999.25      -999.25      -999.25      -999.25     49.00000    290.82090      1.15790
 43828.8753472222 21:00:30/29-Dec-2019   2569.41992     32.67000      -999.25      -999.25      -999.25      -999.25      -999.25     49.00000    291.09670      1.15924
 43828.8754629630 21:00:40/29-Dec-2019   2569.73999     32.35000      -999.25      -999.25      -999.25      -999.25      -999.25     49.00000    291.09670      1.15909
 43828.8755787037 21:00:50/29-Dec-2019   2569.68994     32.40000      -999.25      -999.25      -999.25      -999.25      -999.25     49.00000    291.02770      1.15886
 43828.8756944444 21:01:00/29-Dec-2019   2569.69995     32.39000      -999.25      -999.25      -999.25      -999.25      -999.25     49.00000    291.02770      1.15885
 43828.8758101852 21:01:10/29-Dec-2019   2569.80981     32.28000      -999.25      -999.25      -999.25      -999.25      -999.25     49.00000    290.95880      1.15851
 43828.8759259259 21:01:20/29-Dec-2019   2569.79004     32.30000      -999.25      -999.25      -999.25      -999.25      -999.25     49.00000    291.02770      1.15885
 43828.8760416667 21:01:30/29-Dec-2019   2569.88013     32.21000      -999.25      -999.25      -999.25      -999.25      -999.25     49.00000    290.95880      1.15845
 43828.8761574074 21:01:40/29-Dec-2019   2569.68994     32.40000      -999.25      -999.25      -999.25      -999.25      -999.25     49.00000    290.88980      1.15834
 43828.8762731481 21:01:50/29-Dec-2019   2569.88013     32.21000      -999.25      -999.25      -999.25      -999.25      -999.25     49.00000    290.95880      1.15862
 43828.8763888889 21:02:00/29-Dec-2019   2569.50000     32.59000      -999.25      -999.25      -999.25      -999.25      -999.25     49.00000    291.37240      1.16019
 43828.8765046296 21:02:10/29-Dec-2019   2569.41016     32.68000      -999.25      -999.25      -999.25      -999.25      -999.25     48.00000    288.47660      1.14881
 43828.8766203704 21:02:20/29-Dec-2019   2569.60010     32.49000      -999.25      -999.25      -999.25      -999.25      -999.25     48.00000    289.57980      1.15312
 43828.8767361111 21:02:30/29-Dec-2019   2569.88013     32.21000      -999.25      -999.25      -999.25      -999.25      -999.25     48.00000    291.51030      1.16068
 43828.8768518518 21:02:40/29-Dec-2019   2569.68994     32.40000      -999.25      -999.25      -999.25      -999.25      -999.25     48.00000    290.82090      1.15802
 43828.8769675926 21:02:50/29-Dec-2019   2569.60010     32.49000      -999.25      -999.25      -999.25      -999.25      -999.25     48.00000    289.64880      1.15340
 43828.8770833333 21:03:00/29-Dec-2019   2569.60010     32.49000      -999.25      -999.25      -999.25      -999.25      -999.25     48.00000    289.99350      1.15477
 43828.8771990741 21:03:10/29-Dec-2019   2569.68994     32.40000      -999.25      -999.25      -999.25      -999.25      -999.25     48.00000    289.85560      1.15418
 43828.8773148148 21:03:20/29-Dec-2019   2569.68994     32.40000      -999.25      -999.25      -999.25      -999.25      -999.25     48.00000    290.68300      1.15747
 43828.8774305556 21:03:30/29-Dec-2019   2569.41016     32.68000      -999.25      -999.25      -999.25      -999.25      -999.25     48.00000    289.09720      1.15128
 43828.8775462963 21:03:40/29-Dec-2019   2569.60010     32.49000      -999.25      -999.25      -999.25      -999.25      -999.25     48.00000    288.33880      1.14826
 43828.8776620370 21:03:50/29-Dec-2019   2569.68994     32.30000      -999.25      -999.25      -999.25      -999.25      -999.25     48.00000    290.82090      1.15798
