~VERSION INFORMATION 
VERS  .    2.0                                     :CWLS Log ASCII Standard - VERSION 2.0
WRAP  .    NO                                      :One Line per Time step
PROD  .    Schlumberger Technology Corp.           :LAS Producer
PROG  .    Horizon LASWriter 9.2.113335.3100       :LAS Program name and version
SOURCE.    Run 13-TimeLogicalAcq                   :Run&Pass Information
CREA  .    01/21/2020                              :LAS Creation date {MM/DD/YYYY}
#--------------------------------------------------
~WELL INFORMATION 
#MNEM           .UNIT                      DATA            :DESCRIPTION
#----            ------          --------------            -----------------------------
STRT            .d               43844.3958333334          :START TIME(OLE Automation date)
STOP            .d               43845.1666666667          :STOP TIME(OLE Automation date)
STEP            .d                            0            :STEP TIME(10s in time)
NULL            .                       -999.25            :NULL VALUE
COMP            .                       Equinor            :COMPANY
WELL            .                        31/5-7            :WELL NAME
FLD             .                           Eos            :FIELD NAME
RIGN            .                 West Hercules            :Rig Name
RIGTYP          .                Semi-Submersible          :Rig Type
SON             .                     19SCA0085            :Service Order Number
SRVC            .                  Schlumberger            :SERVICE COMPANY
DATE            .                    01/13/2020            :LOG DATE(Composite Date for Composite LAP) (MM/DD/YYYY)
CLAB            .                       County:            :County Label
CNTY            .                                          :COUNTY
SLAB            .                                          :State/Province Label
STAT            .                                          :STATE or PROVINCE
PROV            .                                          :STATE or PROVINCE
CTRY            .                        Norway            :COUNTRY
CONT_REGION     .                        Europe            :Continent Region
SECT            .                                          :Section
TOWN            .                                          :Township
RANG            .                                          :Range
API             .                                          :API NUMBER
UWI             .                                          :UNIQUE WELL ID
LUL             .                Service Office            :Logging Unit Location
LUN             .                          A615            :Logging Unit Number
LOC             .                Norwegian North Sea       :FIELD LOCATION
FL1             .                Section: 8 1/2 in.        :Field Location Line 1
FL2             .                Job no.: 19SCA0085        :Field Location Line 2
LATI            .deg             60° 34' 35.14" N          :LATITUDE
LONG            .deg             3° 26' 36.13" E           :LONGITUDE
PDAT            .                           MSL            :Local Permanent Datum
LMF             .                            DF            :Logging Measured From
APD             .m                        31.00            :Elevation of Depth Reference (LMF) Above Permanent Datum
EPD             .m                         0.00            :Elevation of Permanent Datum (PDAT) above Mean Sea Level
EKB             .m                      -999.25            :Elevation of Kelly Bushing Above Permanent Datum
EDF             .m                        31.00            :Elevation of Drill Floor Above Permanent Datum
EGL             .m                      -307.00            :Elevation of Ground Level Above Permanent Datum
ECF             .m                      -999.25            :Elevation of Casing Flange above Permanent Datum
#--------------------------------------------------
~CURVE INFORMATION
#MNEM           .UNIT                  API CODE            :DESCRIPTION
#----            ------          --------------            -----------------------------
TIME_1900       .d                                         :                                                        Time Index(OLE Automation date)
TIME            .s                                         :                                (10s)                   Time(hh mm ss/dd-MMM-yyyy)
DEPTH           .m                                         :(RT)    (DnMWorkflow)                                   Depth Index
BLKP            .m                                         :(RT)    (DRILLING_SURFACE)                              Height of block above rig floor
GR              .gAPI                                      :(RT)    (ARC6)                                          Gamma Ray
CRPM            .c/min                                     :(RT)    (TELE675)                                       Collar Rotational Speed
STICK           .c/min                                     :(RT)    (TELE675)                                       Stick Slip Indicator
SHKRSK          .                                          :(RT)    (TELE675)                                       Shock Risk
SHKPK           .gn                                        :(RT)    (TELE675)                                       Shock Peak
DHAT            .degC                                      :(RM)    (ARC6)                                          Downhole Annulus Temperature
DHAP            .bar                                       :(RM)    (ARC6)                                          Downhole Annulus Pressure
ECD             .g/cm3                                     :(RM)    (ARC6)                                          Equivalent Circulating Density
#-------------------------------------------------------------
#       TIME_1900                 TIME        DEPTH         BLKP           GR         CRPM        STICK       SHKRSK        SHKPK         DHAT         DHAP          ECD 
#                                       (DnMWorkfl)  (DRILLING_)       (ARC6)    (TELE675)    (TELE675)    (TELE675)    (TELE675)       (ARC6)       (ARC6)       (ARC6) 
#                                              (RT)         (RT)         (RT)         (RT)         (RT)         (RT)         (RT)         (RM)         (RM)         (RM) 
#                                (10s)                                                                                                                                   
~ASCII
# ...
 43844.8569444444 20:34:00/14-Jan-2020   2907.30005     41.79000     67.08216      -999.25      -999.25      0.00000      0.00000     50.00000    349.28840      1.22888
 43844.8570601852 20:34:10/14-Jan-2020   2907.19995     41.66999     70.13094      -999.25      -999.25      -999.25      -999.25     50.00000    350.66730      1.23376
 43844.8571759259 20:34:20/14-Jan-2020   2907.48999     41.29000     68.78406      -999.25      -999.25      -999.25      -999.25     50.00000    351.83950      1.23776
 43844.8572916667 20:34:30/14-Jan-2020   2907.11011     41.66999     53.20628      -999.25      -999.25      -999.25      -999.25     50.00000    351.08110      1.23525
 43844.8574074074 20:34:40/14-Jan-2020   2908.32007     40.19000     42.80328    175.00000      -999.25      -999.25      -999.25     50.00000    350.39160      1.23230
 43844.8575231481 20:34:50/14-Jan-2020   2908.02002     40.76000     34.53757      -999.25    381.00000      0.00000      0.00000     50.00000    351.35680      1.23583
 43844.8576388889 20:35:00/14-Jan-2020   2909.33008     39.45000     36.49821      -999.25      -999.25      -999.25      -999.25     50.00000    351.70160      1.23649
 43844.8577546296 20:35:10/14-Jan-2020   2908.60986     40.17000     43.70792      -999.25      -999.25      -999.25      -999.25     50.00000    349.90890      1.23049
 43844.8578703704 20:35:20/14-Jan-2020   2908.89014     39.98000     45.18247      -999.25      -999.25      -999.25      -999.25     50.00000    351.15000      1.23474
 43844.8579861111 20:35:30/14-Jan-2020   2908.81006     39.98000     46.58171      -999.25      -999.25      -999.25      -999.25     50.00000    351.90840      1.23744
 43844.8581018519 20:35:40/14-Jan-2020   2908.84009     39.95000     50.72778    138.00000      -999.25      -999.25      -999.25     50.00000    351.28790      1.23524
 43844.8582175926 20:35:50/14-Jan-2020   2909.17993     39.60000     55.65622      -999.25    375.00000      0.00000      0.00000     51.00000    350.46050      1.23219
 43844.8583333333 20:36:00/14-Jan-2020   2909.58008     39.20000     59.80228      -999.25      -999.25      -999.25      -999.25     51.00000    350.59840      1.23250
 43844.8584490741 20:36:10/14-Jan-2020   2909.85010     38.93000     60.90030      -999.25      -999.25      -999.25      -999.25     51.00000    351.83950      1.23675
 43844.8585648148 20:36:20/14-Jan-2020   2910.11987     38.68000     61.63996      -999.25      -999.25      -999.25      -999.25     51.00000    350.59840      1.23227
 43844.8586805556 20:36:30/14-Jan-2020   2910.40015     38.38000     69.17065    186.00000      -999.25      -999.25      -999.25     51.00000    350.32260      1.23118
 43844.8587962963 20:36:40/14-Jan-2020   2910.43018     38.44000     80.20452      -999.25    381.00000      0.00000      0.00000     51.00000    351.21890      1.23433
 43844.8589120370 20:36:50/14-Jan-2020   2910.70020     38.26000     91.23840      -999.25      -999.25      -999.25      -999.25     51.00000    350.73630      1.23252
 43844.8590277778 20:37:00/14-Jan-2020   2909.75000     39.21000     98.25658      -999.25      -999.25      -999.25      -999.25     51.00000    351.01210      1.23390
 43844.8591435185 20:37:10/14-Jan-2020   2909.93994     38.94000    102.49580      -999.25      -999.25      -999.25      -999.25     51.00000    350.94320      1.23356
 43844.8592592593 20:37:20/14-Jan-2020   2909.61987     39.16000    104.74120      -999.25      -999.25      -999.25      -999.25     51.00000    351.63260      1.23612
 43844.8593750000 20:37:30/14-Jan-2020   2910.55005     38.23000    104.84480    179.00000      -999.25      -999.25      -999.25     51.00000    351.21890      1.23427
 43844.8594907407 20:37:40/14-Jan-2020   2910.27002     38.42000    101.55920      -999.25    258.00000      0.00000      0.00000     51.00000    350.87420      1.23317
 43844.8596064815 20:37:50/14-Jan-2020   2910.73999     37.86000     95.92748      -999.25      -999.25      -999.25      -999.25     51.00000    351.28790      1.23442
 43844.8597222222 20:38:00/14-Jan-2020   2910.97998     37.81000     91.14564      -999.25      -999.25      -999.25      -999.25     51.00000    351.56370      1.23530
 43844.8598379630 20:38:10/14-Jan-2020   2910.93994     37.84000     88.45483      -999.25      -999.25      -999.25      -999.25     51.00000    350.59840      1.23194
 43844.8599537037 20:38:20/14-Jan-2020   2910.54004     38.24000     89.81277    237.00000      -999.25      -999.25      -999.25     51.00000    350.46050      1.23161
 43844.8600694444 20:38:30/14-Jan-2020   2910.85010     37.93000     88.49276      -999.25    381.00000      0.00000      0.00000     50.00000    355.42470      1.24893
 43844.8601851852 20:38:40/14-Jan-2020   2910.05005     38.73000     80.35518      -999.25      -999.25      -999.25      -999.25     50.00000    351.70160      1.23618
 43844.8603009259 20:38:50/14-Jan-2020   2909.22998     39.55000     71.83894      -999.25      -999.25      -999.25      -999.25     50.00000    354.32160      1.24574
 43844.8604166667 20:39:00/14-Jan-2020   2908.08008     40.70000     57.19368      -999.25      -999.25      -999.25      -999.25     50.00000    351.97730      1.23799
 43844.8605324074 20:39:10/14-Jan-2020   2907.03003     41.75000     55.16493      -999.25      -999.25      -999.25      -999.25     50.00000    350.18470      1.23212
 43844.8606481481 20:39:20/14-Jan-2020   2906.61011     42.17000     55.88184    190.00000    195.00000      -999.25      -999.25     50.00000    354.94210      1.24905
 43844.8607638889 20:39:30/14-Jan-2020   2906.61011     42.17000     55.88184      -999.25      -999.25      0.00000      0.00000     50.00000    351.08110      1.23546
 43844.8608796296 20:39:40/14-Jan-2020   2906.61011     42.17000     55.16493      -999.25      -999.25      -999.25      -999.25     50.00000    354.45950      1.24735
 43844.8609953704 20:39:50/14-Jan-2020   2907.46021     41.32000     54.70232      -999.25      -999.25      -999.25      -999.25     50.00000    348.80580      1.22710
 43844.8611111111 20:40:00/14-Jan-2020   2908.57983     40.20000     56.39714      -999.25      -999.25      -999.25      -999.25     50.00000    346.25470      1.21765
 43844.8612268518 20:40:10/14-Jan-2020   2909.88013     39.00000     71.13754    192.00000      -999.25      -999.25      -999.25     50.00000    350.59840      1.23238
 43844.8613425926 20:40:20/14-Jan-2020   2911.05005     37.76000     84.13205      -999.25     18.00000      0.00000      0.00000     50.00000    351.08110      1.23358
 43844.8614583333 20:40:30/14-Jan-2020   2911.15991     37.69000     86.90022      -999.25      -999.25      -999.25      -999.25     50.00000    349.63310      1.22844
 43844.8615740741 20:40:40/14-Jan-2020   2911.15991     37.62000     82.91795      -999.25      -999.25      -999.25      -999.25     50.00000    351.56370      1.23522
 43844.8616898148 20:40:50/14-Jan-2020   2911.06006     37.53000     82.83850      -999.25      -999.25      -999.25      -999.25     50.00000    351.90840      1.23645
 43844.8618055556 20:41:00/14-Jan-2020   2911.42993     37.35000     86.23866    205.00000      -999.25      -999.25      -999.25     50.00000    350.73630      1.23220
 43844.8619212963 20:41:10/14-Jan-2020   2911.36011     37.42000     89.20990      -999.25    351.00000      -999.25      -999.25     50.00000    350.87420      1.23271
 43844.8620370370 20:41:20/14-Jan-2020   2911.34009     37.45000     85.92428      -999.25      -999.25      0.00000      0.00000     50.00000    352.11530      1.23708
 43844.8621527778 20:41:30/14-Jan-2020   2911.51001     37.18000     77.42494      -999.25      -999.25      -999.25      -999.25     50.00000    351.49470      1.23482
 43844.8622685185 20:41:40/14-Jan-2020   2911.58008     37.11000     70.90144      -999.25      -999.25      -999.25      -999.25     50.00000    350.87420      1.23261
 43844.8623842593 20:41:50/14-Jan-2020   2912.65991     36.03000     55.64626      -999.25      -999.25      -999.25      -999.25     50.00000    351.97730      1.23603
