~VERSION INFORMATION 
VERS  .    2.0                                     :CWLS Log ASCII Standard - VERSION 2.0
WRAP  .    NO                                      :One Line per Time step
PROD  .    Schlumberger Technology Corp.           :LAS Producer
PROG  .    Horizon LASWriter 9.2.113335.3100       :LAS Program name and version
SOURCE.    Run 5-TimeLogicalAcq                    :Run&Pass Information
CREA  .    12/20/2019                              :LAS Creation date {MM/DD/YYYY}
#--------------------------------------------------
~WELL INFORMATION 
#MNEM           .UNIT                      DATA            :DESCRIPTION
#----            ------          --------------            -----------------------------
STRT            .d               43815.4062500000          :START TIME(OLE Automation date)
STOP            .d               43816.7395833333          :STOP TIME(OLE Automation date)
STEP            .d                            0            :STEP TIME(10s in time)
NULL            .                       -999.25            :NULL VALUE
COMP            .                       Equinor            :COMPANY
WELL            .                        31/5-7            :WELL NAME
FLD             .                           Eos            :FIELD NAME
RIGN            .                 West Hercules            :Rig Name
RIGTYP          .                Semi-Submersible          :Rig Type
SON             .                     19SCA0085            :Service Order Number
SRVC            .                  Schlumberger            :SERVICE COMPANY
DATE            .                    12/16/2019            :LOG DATE(Composite Date for Composite LAP) (MM/DD/YYYY)
CLAB            .                       County:            :County Label
CNTY            .                                          :COUNTY
SLAB            .                                          :State/Province Label
STAT            .                                          :STATE or PROVINCE
PROV            .                                          :STATE or PROVINCE
CTRY            .                        Norway            :COUNTRY
CONT_REGION     .                        Europe            :Continent Region
SECT            .                                          :Section
TOWN            .                                          :Township
RANG            .                                          :Range
API             .                                          :API NUMBER
UWI             .                                          :UNIQUE WELL ID
LUL             .                Service Office            :Logging Unit Location
LUN             .                          A615            :Logging Unit Number
LOC             .                Norwegian North Sea       :FIELD LOCATION
FL1             .                Section: 12 1/4 in. pilot :Field Location Line 1
FL2             .                Job no.: 19SCA0085        :Field Location Line 2
LATI            .deg             60° 34' 35.14" N          :LATITUDE
LONG            .deg             3° 26' 36.13" E           :LONGITUDE
PDAT            .                           MSL            :Local Permanent Datum
LMF             .                            DF            :Logging Measured From
APD             .m                        31.00            :Elevation of Depth Reference (LMF) Above Permanent Datum
EPD             .m                         0.00            :Elevation of Permanent Datum (PDAT) above Mean Sea Level
EKB             .m                      -999.25            :Elevation of Kelly Bushing Above Permanent Datum
EDF             .m                        31.00            :Elevation of Drill Floor Above Permanent Datum
EGL             .m                      -307.00            :Elevation of Ground Level Above Permanent Datum
ECF             .m                      -999.25            :Elevation of Casing Flange above Permanent Datum
#--------------------------------------------------
~CURVE INFORMATION
#MNEM           .UNIT                  API CODE            :DESCRIPTION
#----            ------          --------------            -----------------------------
TIME_1900       .d                                         :                                                        Time Index(OLE Automation date)
TIME            .s                                         :                                (10s)                   Time(hh mm ss/dd-MMM-yyyy)
DEPTH           .m                                         :(RT)    (DnMWorkflow)                                   Depth Index
GR              .gAPI                                      :(RT)    (ARC9)                                          Gamma Ray
BLKP            .m                                         :(RT)    (DRILLING_SURFACE)                              Height of block above rig floor
STICK           .c/min                                     :(RT)    (TELE900)                                       Stick Slip Indicator
CRPM            .c/min                                     :(RT)    (TELE900)                                       Collar Rotational Speed
SHKRSK          .                                          :(RT)    (TELE900)                                       Shock Risk
SHKPK           .gn                                        :(RT)    (TELE900)                                       Shock Peak
ECD             .g/cm3                                     :(RM)    (ARC9)                                          Equivalent Circulating Density
DHAP            .bar                                       :(RM)    (ARC9)                                          Downhole Annulus Pressure
DHAT            .degC                                      :(RM)    (ARC9)                                          Downhole Annulus Temperature
#-------------------------------------------------------------
#       TIME_1900                 TIME        DEPTH           GR         BLKP        STICK         CRPM       SHKRSK        SHKPK          ECD         DHAP         DHAT 
#                                       (DnMWorkfl)       (ARC9)  (DRILLING_)    (TELE900)    (TELE900)    (TELE900)    (TELE900)       (ARC9)       (ARC9)       (ARC9) 
#                                              (RT)         (RT)         (RT)         (RT)         (RT)         (RT)         (RT)         (RM)         (RM)         (RM) 
#                                (10s)                                                                                                                                   
~ASCII
# ...
 43816.3118055556 07:29:00/17-Dec-2019    1873.3101      -999.25      43.4700      -999.25      -999.25      -999.25      -999.25       1.2628     230.5607      32.0000
 43816.3119212963 07:29:10/17-Dec-2019    1873.3101      -999.25      43.4700      -999.25      -999.25      -999.25      -999.25       1.2655     231.0433      32.0000
 43816.3120370370 07:29:20/17-Dec-2019    1873.3101      -999.25      43.4700      -999.25      -999.25      -999.25      -999.25       1.2726     232.3533      32.0000
 43816.3121527778 07:29:30/17-Dec-2019    1873.3101      -999.25      43.4700      -999.25      -999.25      -999.25      -999.25       1.2730     232.4223      32.0000
 43816.3122685185 07:29:40/17-Dec-2019    1873.3101      -999.25      43.4700      -999.25      -999.25      -999.25      -999.25       1.2681     231.5260      32.0000
 43816.3123842593 07:29:50/17-Dec-2019    1873.3101      -999.25      43.4700      -999.25      -999.25      -999.25      -999.25       1.2692     231.7328      32.0000
 43816.3125000000 07:30:00/17-Dec-2019    1873.3101      -999.25      43.4700      -999.25      -999.25      -999.25      -999.25       1.2621     230.4228      32.0000
 43816.3126157407 07:30:10/17-Dec-2019    1873.3101      -999.25      43.4700      -999.25      -999.25      -999.25      -999.25       1.2647     230.9054      32.0000
 43816.3127314815 07:30:20/17-Dec-2019    1873.3101      -999.25      43.4700      -999.25      -999.25      -999.25      -999.25       1.2670     231.3191      32.0000
 43816.3128472222 07:30:30/17-Dec-2019    1873.3101      -999.25      43.4700      -999.25      -999.25      -999.25      -999.25       1.2753     232.8360      32.0000
 43816.3129629630 07:30:40/17-Dec-2019    1873.3101      -999.25      43.4600      -999.25      -999.25      -999.25      -999.25       1.2738     232.5602      32.0000
 43816.3130787037 07:30:50/17-Dec-2019    1873.3101      -999.25      32.7400      -999.25      -999.25      -999.25      -999.25       1.2685     231.5949      32.0000
 43816.3131944444 07:31:00/17-Dec-2019    1873.3101      -999.25      17.1300      -999.25      -999.25      -999.25      -999.25       1.2749     232.7670      32.0000
 43816.3133101852 07:31:10/17-Dec-2019    1873.3101      -999.25       8.1700      -999.25      -999.25      -999.25      -999.25       1.2662     231.1812      32.0000
 43816.3134259259 07:31:20/17-Dec-2019    1873.3101      -999.25       4.5700      -999.25      -999.25      -999.25      -999.25       1.2711     232.0775      32.0000
 43816.3135416667 07:31:30/17-Dec-2019    1873.3101      -999.25       4.6700      -999.25      -999.25      -999.25      -999.25       1.2745     232.6981      32.0000
 43816.3136574074 07:31:40/17-Dec-2019    1873.3101      -999.25       4.7300      -999.25      -999.25      -999.25      -999.25       1.2621     230.4228      32.0000
 43816.3137731481 07:31:50/17-Dec-2019    1873.3101      -999.25       4.4800      -999.25      -999.25      -999.25      -999.25       1.2647     230.9054      32.0000
 43816.3138888889 07:32:00/17-Dec-2019    1873.3101      -999.25       4.5200      -999.25      -999.25      -999.25      -999.25       1.2655     231.0433      32.0000
 43816.3140046296 07:32:10/17-Dec-2019    1873.3101      -999.25       4.4900      -999.25      -999.25      -999.25      -999.25       1.2745     232.6981      32.0000
 43816.3141203704 07:32:20/17-Dec-2019    1873.3101      -999.25       4.5200      -999.25      -999.25      -999.25      -999.25       1.2689     231.6638      32.0000
 43816.3142361111 07:32:30/17-Dec-2019    1873.3101      -999.25       4.4000      -999.25      -999.25      -999.25      -999.25       1.2658     231.1123      32.0000
 43816.3143518518 07:32:40/17-Dec-2019    1873.3101      -999.25       4.3700      -999.25      -999.25      -999.25      -999.25       1.2647     230.9054      32.0000
 43816.3144675926 07:32:50/17-Dec-2019    1873.3101      -999.25       4.3600      -999.25      -999.25      -999.25      -999.25       1.2658     231.1123      32.0000
 43816.3145833333 07:33:00/17-Dec-2019    1873.3101      -999.25       4.3600      -999.25      -999.25      -999.25      -999.25       1.2696     231.8017      32.0000
 43816.3146990741 07:33:10/17-Dec-2019    1873.3101      -999.25       4.3600      -999.25      -999.25      -999.25      -999.25       1.2621     230.4228      32.0000
 43816.3148148148 07:33:20/17-Dec-2019    1872.9100      -999.25       4.5100      -999.25      -999.25      -999.25      -999.25       1.2672     231.3191      32.0000
 43816.3149305556 07:33:30/17-Dec-2019    1872.9100      -999.25       4.5100      -999.25      -999.25      -999.25      -999.25       1.2722     232.2154      32.0000
 43816.3150462963 07:33:40/17-Dec-2019    1872.5499      -999.25       4.8700      -999.25      -999.25      -999.25      -999.25       1.2698     231.7328      32.0000
 43816.3151620370 07:33:50/17-Dec-2019    1872.1500      -999.25       5.2700      -999.25      -999.25      -999.25      -999.25       1.2602     229.9402      32.0000
 43816.3152777778 07:34:00/17-Dec-2019    1870.7700      -999.25       6.6500      -999.25      -999.25      -999.25      -999.25       1.2556     228.9059      32.0000
 43816.3153935185 07:34:10/17-Dec-2019    1869.2400      -999.25       8.1800      -999.25      -999.25      -999.25      -999.25       1.2485     227.4580      32.0000
 43816.3155092593 07:34:20/17-Dec-2019    1869.2600      -999.25       8.1600      -999.25      -999.25      -999.25      -999.25       1.2649     230.4228      32.0000
 43816.3156250000 07:34:30/17-Dec-2019    1870.1700      -999.25       7.2500      -999.25      -999.25      -999.25      -999.25       1.2608     229.8023      32.0000
 43816.3157407407 07:34:40/17-Dec-2019    1868.7999      -999.25       8.6200      -999.25      -999.25      -999.25      -999.25       1.2521     228.0786      32.0000
 43816.3158564815 07:34:50/17-Dec-2019    1867.3199      -999.25      10.1000      -999.25      -999.25      -999.25      -999.25       1.2541     228.2165      32.0000
 43816.3159722222 07:35:00/17-Dec-2019    1865.7600      -999.25      11.6600      -999.25      -999.25      -999.25      -999.25       1.2610     229.3196      32.0000
 43816.3160879630 07:35:10/17-Dec-2019    1864.2800      -999.25      13.1400      -999.25      -999.25      -999.25      -999.25       1.2556     228.1475      32.0000
 43816.3162037037 07:35:20/17-Dec-2019    1862.7501      -999.25      14.6700      -999.25      -999.25      -999.25      -999.25       1.2542     227.6649      32.0000
 43816.3163194444 07:35:30/17-Dec-2019    1861.2100      -999.25      16.2100      -999.25      -999.25      -999.25      -999.25       1.2580     228.2165      32.0000
 43816.3164351852 07:35:40/17-Dec-2019    1859.7000      -999.25      17.7200      -999.25      -999.25      -999.25      -999.25       1.2578     227.9407      32.0000
 43816.3165509259 07:35:50/17-Dec-2019    1858.2201      -999.25      19.2000      -999.25      -999.25      -999.25      -999.25       1.2592     228.0096      32.0000
 43816.3166666667 07:36:00/17-Dec-2019    1856.5901      -999.25      20.8800      -999.25      -999.25      -999.25      -999.25       1.2532     226.7686      32.0000
 43816.3167824074 07:36:10/17-Dec-2019    1855.0500      -999.25      22.3700      -999.25      -999.25      -999.25      -999.25       1.2526     226.4238      32.0000
 43816.3168981481 07:36:20/17-Dec-2019    1853.4900      -999.25      24.0200      -999.25      -999.25      -999.25      -999.25       1.2584     227.3202      32.0000
 43816.3170138889 07:36:30/17-Dec-2019    1851.9700      -999.25      25.5800      -999.25      -999.25      -999.25      -999.25       1.2551     226.4928      32.0000
 43816.3171296296 07:36:40/17-Dec-2019    1850.3401      -999.25      27.1200      -999.25      -999.25      -999.25      -999.25       1.2602     227.2512      32.0000
 43816.3172453704 07:36:50/17-Dec-2019    1848.8600      -999.25      28.6500      -999.25      -999.25      -999.25      -999.25       1.2539     225.9412      33.0000
