~VERSION INFORMATION 
VERS  .    2.0                                     :CWLS Log ASCII Standard - VERSION 2.0
WRAP  .    NO                                      :One Line per Time step
PROD  .    Schlumberger Technology Corp.           :LAS Producer
PROG  .    Horizon LASWriter 9.2.113335.3100       :LAS Program name and version
SOURCE.    Run 2-TimeLogicalAcq                    :Run&Pass Information
CREA  .    12/11/2019                              :LAS Creation date {MM/DD/YYYY}
#--------------------------------------------------
~WELL INFORMATION 
#MNEM           .UNIT                      DATA            :DESCRIPTION
#----            ------          --------------            -----------------------------
STRT            .d               43803.0416666667          :START TIME(OLE Automation date)
STOP            .d               43803.8437500000          :STOP TIME(OLE Automation date)
STEP            .d                            0            :STEP TIME(10s in time)
NULL            .                       -999.25            :NULL VALUE
COMP            .                       Equinor            :COMPANY
WELL            .                        31/5-7            :WELL NAME
FLD             .                           Eos            :FIELD NAME
RIGN            .                 West Hercules            :Rig Name
RIGTYP          .                Semi-Submersible          :Rig Type
SON             .                     19SCA0085            :Service Order Number
SRVC            .                  Schlumberger            :SERVICE COMPANY
DATE            .                    12/04/2019            :LOG DATE(Composite Date for Composite LAP) (MM/DD/YYYY)
CLAB            .                       County:            :County Label
CNTY            .                                          :COUNTY
SLAB            .                                          :State/Province Label
STAT            .                                          :STATE or PROVINCE
PROV            .                                          :STATE or PROVINCE
CTRY            .                        Norway            :COUNTRY
CONT_REGION     .                        Europe            :Continent Region
SECT            .                                          :Section
TOWN            .                                          :Township
RANG            .                                          :Range
API             .                                          :API NUMBER
UWI             .                                          :UNIQUE WELL ID
LUL             .                Service Office            :Logging Unit Location
LUN             .                          A615            :Logging Unit Number
LOC             .                Norwegian North Sea       :FIELD LOCATION
FL1             .                Section: 8 1/2 in. pilot  :Field Location Line 1
FL2             .                Job no.: 19SCA0085        :Field Location Line 2
LATI            .deg             60° 34' 35.14" N          :LATITUDE
LONG            .deg             3° 26' 36.13" E           :LONGITUDE
PDAT            .                           MSL            :Local Permanent Datum
LMF             .                            DF            :Logging Measured From
APD             .m                        31.00            :Elevation of Depth Reference (LMF) Above Permanent Datum
EPD             .m                         0.00            :Elevation of Permanent Datum (PDAT) above Mean Sea Level
EKB             .m                      -999.25            :Elevation of Kelly Bushing Above Permanent Datum
EDF             .m                        31.00            :Elevation of Drill Floor Above Permanent Datum
EGL             .m                      -307.00            :Elevation of Ground Level Above Permanent Datum
ECF             .m                      -999.25            :Elevation of Casing Flange above Permanent Datum
#--------------------------------------------------
~CURVE INFORMATION
#MNEM           .UNIT                  API CODE            :DESCRIPTION
#----            ------          --------------            -----------------------------
TIME_1900       .d                                         :                                                        Time Index(OLE Automation date)
TIME            .s                                         :                                (10s)                   Time(hh mm ss/dd-MMM-yyyy)
DEPTH           .m                                         :(RT)    (DnMWorkflow)                                   Depth Index
GR              .gAPI                                      :(RT)    (DV6MT)                                         Gamma Ray
BLKP            .m                                         :(RT)    (DRILLING_SURFACE)                              Height of block above rig floor
STICK           .c/min                                     :(RT)    (TELE675)                                       Stick Slip Indicator
CRPM            .c/min                                     :(RT)    (TELE675)                                       Collar Rotational Speed
SHKRSK          .                                          :(RT)    (TELE675)                                       Shock Risk
SHKPK           .gn                                        :(RT)    (TELE675)                                       Shock Peak
ECD             .g/cm3                                     :(RM)    (DV6MT)                                         Equivalent Circulating Density
DHAT            .degC                                      :(RM)    (DV6MT)                                         Downhole Annulus Temperature
DHAP            .bar                                       :(RM)    (DV6MT)                                         Downhole Annulus Pressure
#-------------------------------------------------------------
#       TIME_1900                 TIME        DEPTH           GR         BLKP        STICK         CRPM       SHKRSK        SHKPK          ECD         DHAT         DHAP 
#                                       (DnMWorkfl)      (DV6MT)  (DRILLING_)    (TELE675)    (TELE675)    (TELE675)    (TELE675)      (DV6MT)      (DV6MT)      (DV6MT) 
#                                              (RT)         (RT)         (RT)         (RT)         (RT)         (RT)         (RT)         (RM)         (RM)         (RM) 
#                                (10s)                                                                                                                                   
~ASCII
# ...
 43803.4027777778 09:40:00/04-Dec-2019     693.3535     106.0582      34.7400      -999.25      -999.25      -999.25      -999.25       1.2107      14.0000      77.7039
 43803.4028935185 09:40:10/04-Dec-2019     693.3318     108.6670      34.7600      21.0000      -999.25      -999.25      -999.25       1.2243      14.0000      78.5313
 43803.4030092593 09:40:20/04-Dec-2019     693.2103     106.3028      34.8800      -999.25      -999.25      -999.25      -999.25       1.2120      14.0000      77.7729
 43803.4031250000 09:40:30/04-Dec-2019     693.6587      99.7273      34.4300      -999.25      -999.25      -999.25      -999.25       1.2155      14.0000      78.0487
 43803.4032407407 09:40:40/04-Dec-2019     693.8171     101.2347      34.2700      -999.25      -999.25      -999.25      -999.25       1.2142      14.0000      77.9797
 43803.4033564815 09:40:50/04-Dec-2019     693.9755     101.5278      34.1100      -999.25      -999.25      -999.25      -999.25       1.2171      14.0000      78.1866
 43803.4034722222 09:41:00/04-Dec-2019     693.9439      99.4330      34.1400      -999.25      -999.25      -999.25      -999.25       1.2161      14.0000      78.1176
 43803.4035879630 09:41:10/04-Dec-2019     694.1124      94.8082      33.9700      -999.25      -999.25      -999.25      -999.25       1.2135      14.0000      77.9797
 43803.4037037037 09:41:20/04-Dec-2019     694.4607      98.5572      33.6200      -999.25      -999.25       0.0000       0.0000       1.2130      14.0000      77.9797
 43803.4038194444 09:41:30/04-Dec-2019     694.7091     101.2883      33.3700      -999.25      -999.25      -999.25      -999.25       1.2039      14.0000      77.4281
 43803.4039351852 09:41:40/04-Dec-2019     694.7775     102.5927      33.3000      -999.25      -999.25      -999.25      -999.25       1.2103      14.0000      77.8418
 43803.4040509259 09:41:50/04-Dec-2019     694.9459     103.7479      33.1300      -999.25      96.0000      -999.25      -999.25       1.1929      14.0000      76.7387
 43803.4041666667 09:42:00/04-Dec-2019     695.0043     105.4172      33.0700      21.0000      -999.25      -999.25      -999.25       1.2120      14.0000      77.9797
 43803.4042824074 09:42:10/04-Dec-2019     695.2628     106.2074      32.8100      -999.25      -999.25      -999.25      -999.25       1.2170      14.0000      78.3244
 43803.4043981481 09:42:20/04-Dec-2019     695.4211     103.0494      32.6500      -999.25      -999.25      -999.25      -999.25       1.2048      14.0000      77.5660
 43803.4045138889 09:42:30/04-Dec-2019     695.4896     101.6373      32.5800      -999.25      -999.25      -999.25      -999.25       1.2080      14.0000      77.7729
 43803.4046296296 09:42:40/04-Dec-2019     695.7380     102.5927      32.3300      -999.25      -999.25      -999.25      -999.25       1.2139      14.0000      78.1866
 43803.4047453704 09:42:50/04-Dec-2019     695.9064     104.3384      32.1600      -999.25      -999.25      -999.25      -999.25       1.2094      14.0000      77.9108
 43803.4048611111 09:43:00/04-Dec-2019     696.0648     105.4172      32.0000      -999.25      -999.25      -999.25      -999.25       1.2101      14.0000      77.9797
 43803.4049768519 09:43:10/04-Dec-2019     695.9432     105.9124      32.1200      -999.25      -999.25      -999.25      -999.25       1.2086      14.0000      77.9108
 43803.4050925926 09:43:20/04-Dec-2019     696.2016     105.1653      31.8600      -999.25      -999.25       0.0000       0.0000       1.2120      14.0000      78.1176
 43803.4052083333 09:43:30/04-Dec-2019     696.3600     103.8221      31.7000      -999.25      -999.25      -999.25      -999.25       1.2008      14.0000      77.4281
 43803.4053240741 09:43:40/04-Dec-2019     696.6184     103.2728      31.4400      -999.25      -999.25      -999.25      -999.25       1.2091      14.0000      77.9797
 43803.4054398148 09:43:50/04-Dec-2019     696.7769     103.0992      31.2800      -999.25      96.0000      -999.25      -999.25       1.1960      14.0000      77.1523
 43803.4055555556 09:44:00/04-Dec-2019     696.6552     103.5285      31.3900      21.0000      -999.25      -999.25      -999.25       1.2047      14.0000      77.7039
 43803.4056712963 09:44:10/04-Dec-2019     697.0037     103.1731      31.0400      -999.25      -999.25      -999.25      -999.25       1.2068      14.0000      77.9108
 43803.4057870370 09:44:20/04-Dec-2019     697.5421      99.6723      30.5100      -999.25      -999.25      -999.25      -999.25       1.2084      14.0000      78.0487
 43803.4059027778 09:44:30/04-Dec-2019     697.5204      99.0914      30.5300      -999.25      -999.25      -999.25      -999.25       1.2122      14.0000      78.2555
 43803.4060185185 09:44:40/04-Dec-2019     697.4888     100.6115      30.5600      -999.25      -999.25      -999.25      -999.25       1.2064      14.0000      77.9108
 43803.4061342593 09:44:50/04-Dec-2019     697.8373     101.7925      30.2100      -999.25      -999.25      -999.25      -999.25       1.2133      14.0000      78.3934
 43803.4062500000 09:45:00/04-Dec-2019     697.8057     103.3126      30.2400      -999.25      -999.25      -999.25      -999.25       1.2152      14.0000      78.5313
 43803.4063657407 09:45:10/04-Dec-2019     698.1541     104.2782      29.8900      -999.25      -999.25      -999.25      -999.25       1.2170      14.0000      78.6692
 43803.4064814815 09:45:20/04-Dec-2019     698.5024     105.8341      29.5400      -999.25      -999.25       0.0000       0.0000       1.1761      14.0000      76.0492
 43803.4065972222 09:45:30/04-Dec-2019     698.1909     105.8585      29.8500      -999.25      -999.25      -999.25      -999.25       1.1985      14.0000      77.4971
 43803.4067129630 09:45:40/04-Dec-2019     698.1693     104.3384      29.8700      -999.25      97.0000      -999.25      -999.25       1.2067      14.0000      78.0487
 43803.4068287037 09:45:50/04-Dec-2019     698.6177     103.1574      29.4200      -999.25      -999.25      -999.25      -999.25       1.2097      14.0000      78.2555
 43803.4069444444 09:46:00/04-Dec-2019     698.9661     101.6373      29.0700      21.0000      -999.25      -999.25      -999.25       1.2195      14.0000      78.9450
 43803.4070601852 09:46:10/04-Dec-2019     699.2145      99.9185      28.8200      -999.25      -999.25      -999.25      -999.25       1.2235      14.0000      79.2208
 43803.4071759259 09:46:20/04-Dec-2019     699.1929      93.1559      28.8400      -999.25      -999.25      -999.25      -999.25       1.2237      14.0000      79.2208
 43803.4072916667 09:46:30/04-Dec-2019     699.3513      95.4134      28.6800      -999.25      -999.25      -999.25      -999.25       1.2136      14.0000      78.6002
 43803.4074074074 09:46:40/04-Dec-2019     699.5997      98.2092      28.4300      -999.25      -999.25      -999.25      -999.25       1.2194      14.0000      79.0139
 43803.4075231481 09:46:50/04-Dec-2019     699.7681      99.2607      28.2600      -999.25      -999.25      -999.25      -999.25       1.2086      14.0000      78.3244
 43803.4076388889 09:47:00/04-Dec-2019     699.9266      98.0189      28.1000      -999.25      -999.25      -999.25      -999.25       1.2222      14.0000      79.2208
 43803.4077546296 09:47:10/04-Dec-2019     700.1749      98.9756      27.8500      -999.25      -999.25       0.0000       0.0000       1.2206      14.0000      79.1518
 43803.4078703704 09:47:20/04-Dec-2019     700.0634     101.8563      27.9600      -999.25      -999.25      -999.25      -999.25       1.2097      14.0000      78.4623
 43803.4079861111 09:47:30/04-Dec-2019     700.2218     101.2009      27.8000      -999.25      -999.25      -999.25      -999.25       1.2121      14.0000      78.6002
 43803.4081018518 09:47:40/04-Dec-2019     700.5703     100.5629      27.4500      -999.25      94.0000      -999.25      -999.25       1.2125      14.0000      78.6692
 43803.4082175926 09:47:50/04-Dec-2019     700.4485     103.0027      27.5700      -999.25      -999.25      -999.25      -999.25       1.2127      14.0000      78.6692
