~VERSION INFORMATION 
VERS  .    2.0                                     :CWLS Log ASCII Standard - VERSION 2.0
WRAP  .    NO                                      :One Line per Time step
PROD  .    Schlumberger Technology Corp.           :LAS Producer
PROG  .    Horizon LASWriter 9.2.113335.3100       :LAS Program name and version
SOURCE.    Run 8-TimeLogicalAcq                    :Run&Pass Information
CREA  .    12/30/2019                              :LAS Creation date {MM/DD/YYYY}
#--------------------------------------------------
~WELL INFORMATION 
#MNEM           .UNIT                      DATA            :DESCRIPTION
#----            ------          --------------            -----------------------------
STRT            .d               43822.4166666667          :START TIME(OLE Automation date)
STOP            .d               43824.6875000000          :STOP TIME(OLE Automation date)
STEP            .d                            0            :STEP TIME(10s in time)
NULL            .                       -999.25            :NULL VALUE
COMP            .                       Equinor            :COMPANY
WELL            .                        31/5-7            :WELL NAME
FLD             .                           Eos            :FIELD NAME
RIGN            .                 West Hercules            :Rig Name
RIGTYP          .                Semi-Submersible          :Rig Type
SON             .                     19SCA0085            :Service Order Number
SRVC            .                  Schlumberger            :SERVICE COMPANY
DATE            .                    12/23/2019            :LOG DATE(Composite Date for Composite LAP) (MM/DD/YYYY)
CLAB            .                       County:            :County Label
CNTY            .                                          :COUNTY
SLAB            .                                          :State/Province Label
STAT            .                                          :STATE or PROVINCE
PROV            .                                          :STATE or PROVINCE
CTRY            .                        Norway            :COUNTRY
CONT_REGION     .                        Europe            :Continent Region
SECT            .                                          :Section
TOWN            .                                          :Township
RANG            .                                          :Range
API             .                                          :API NUMBER
UWI             .                                          :UNIQUE WELL ID
LUL             .                Service Office            :Logging Unit Location
LUN             .                          A615            :Logging Unit Number
LOC             .                Norwegian North Sea       :FIELD LOCATION
FL1             .                Section: 12 1/4 in.       :Field Location Line 1
FL2             .                Job no.: 19SCA0085        :Field Location Line 2
LATI            .deg             60° 34' 35.14" N          :LATITUDE
LONG            .deg             3° 26' 36.13" E           :LONGITUDE
PDAT            .                           MSL            :Local Permanent Datum
LMF             .                            DF            :Logging Measured From
APD             .m                        31.00            :Elevation of Depth Reference (LMF) Above Permanent Datum
EPD             .m                         0.00            :Elevation of Permanent Datum (PDAT) above Mean Sea Level
EKB             .m                      -999.25            :Elevation of Kelly Bushing Above Permanent Datum
EDF             .m                        31.00            :Elevation of Drill Floor Above Permanent Datum
EGL             .m                      -307.00            :Elevation of Ground Level Above Permanent Datum
ECF             .m                      -999.25            :Elevation of Casing Flange above Permanent Datum
#--------------------------------------------------
~CURVE INFORMATION
#MNEM           .UNIT                  API CODE            :DESCRIPTION
#----            ------          --------------            -----------------------------
TIME_1900       .d                                         :                                                        Time Index(OLE Automation date)
TIME            .s                                         :                                (10s)                   Time(hh mm ss/dd-MMM-yyyy)
DEPTH           .m                                         :(RT)    (DnMWorkflow)                                   Depth Index
GR              .gAPI                                      :(RT)    (ARC9)                                          Gamma Ray
BLKP            .m                                         :(RT)    (DRILLING_SURFACE)                              Height of block above rig floor
CRPM            .c/min                                     :(RT)    (TELE900)                                       Collar Rotational Speed
STICK           .c/min                                     :(RT)    (TELE900)                                       Stick Slip Indicator
SHKPK           .gn                                        :(RT)    (TELE900)                                       Shock Peak
SHKRSK          .                                          :(RT)    (TELE900)                                       Shock Risk
DHAP            .bar                                       :(RM)    (ARC9)                                          Downhole Annulus Pressure
DHAT            .degC                                      :(RM)    (ARC9)                                          Downhole Annulus Temperature
ECD             .g/cm3                                     :(RM)    (ARC9)                                          Equivalent Circulating Density
#-------------------------------------------------------------
#       TIME_1900                 TIME        DEPTH           GR         BLKP         CRPM        STICK        SHKPK       SHKRSK         DHAP         DHAT          ECD 
#                                       (DnMWorkfl)       (ARC9)  (DRILLING_)    (TELE900)    (TELE900)    (TELE900)    (TELE900)       (ARC9)       (ARC9)       (ARC9) 
#                                              (RT)         (RT)         (RT)         (RT)         (RT)         (RT)         (RT)         (RM)         (RM)         (RM) 
#                                (10s)                                                                                                                                   
~ASCII
# ...
 43823.1666666667 04:00:00/24-Dec-2019    2025.9100      89.5536       6.2800      -999.25      -999.25      -999.25      -999.25     256.4850      36.0000       1.2983
 43823.1667824074 04:00:10/24-Dec-2019    2026.0900      87.9752       6.1000      -999.25      -999.25      -999.25      -999.25     256.3471      36.0000       1.2975
 43823.1668981481 04:00:20/24-Dec-2019    2026.2500      83.3890       5.9400     224.0000      -999.25      -999.25      -999.25     256.2781      36.0000       1.2970
 43823.1670138889 04:00:30/24-Dec-2019    2026.0100      79.5010       6.1800      -999.25      -999.25      -999.25      -999.25     256.2781      36.0000       1.2972
 43823.1671296296 04:00:40/24-Dec-2019    2026.2000      81.2001       5.9900      -999.25      -999.25      -999.25      -999.25     256.4850      36.0000       1.2981
 43823.1672453704 04:00:50/24-Dec-2019    2026.2800      81.8172       5.9100      -999.25     351.0000      -999.25      -999.25     256.4850      36.0000       1.2981
 43823.1673611111 04:01:00/24-Dec-2019    2026.2599      81.0262       5.9300      -999.25      -999.25      15.9892       0.0000     256.4160      36.0000       1.2977
 43823.1674768519 04:01:10/24-Dec-2019    2026.5800      81.0318       5.6100      -999.25      -999.25      -999.25      -999.25     256.4850      36.0000       1.2979
 43823.1675925926 04:01:20/24-Dec-2019    2026.4500      82.4308       5.7400      -999.25      -999.25      -999.25      -999.25     256.4850      36.0000       1.2980
 43823.1677083333 04:01:30/24-Dec-2019    2026.5400      85.7461       5.6500      -999.25      -999.25      -999.25      -999.25     256.2781      36.0000       1.2968
 43823.1678240741 04:01:40/24-Dec-2019    2026.5901      89.6341       5.6000     191.0000      -999.25      -999.25      -999.25     256.4850      36.0000       1.2979
 43823.1679398148 04:01:50/24-Dec-2019    2026.6799      94.2203       5.5100      -999.25      -999.25      -999.25      -999.25     256.4850      36.0000       1.2978
 43823.1680555556 04:02:00/24-Dec-2019    2026.7700      92.3968       5.4200      -999.25      -999.25      -999.25      -999.25     256.5539      36.0000       1.2981
 43823.1681712963 04:02:10/24-Dec-2019    2026.7100      89.6504       5.4800      -999.25      -999.25      -999.25      -999.25     256.4850      36.0000       1.2978
 43823.1682870370 04:02:20/24-Dec-2019    2026.8700      87.6868       5.3200      -999.25     198.0000      -999.25      -999.25     256.3471      36.0000       1.2970
 43823.1684027778 04:02:30/24-Dec-2019    2026.8700      85.7233       5.3200      -999.25      -999.25      31.9783       0.0000     256.3471      36.0000       1.2970
 43823.1685185185 04:02:40/24-Dec-2019    2026.9601      83.7448       5.2300      -999.25      -999.25      -999.25      -999.25     256.4160      36.0000       1.2973
 43823.1686342593 04:02:50/24-Dec-2019    2026.9601      80.6700       5.2300      -999.25      -999.25      -999.25      -999.25     256.4850      36.0000       1.2976
 43823.1687500000 04:03:00/24-Dec-2019    2027.0499      80.5668       5.1400     174.0000      -999.25      -999.25      -999.25     256.2781      36.0000       1.2965
 43823.1688657407 04:03:10/24-Dec-2019    2027.1400      86.8062       5.0500      -999.25      -999.25      -999.25      -999.25     256.4160      36.0000       1.2972
 43823.1689814815 04:03:20/24-Dec-2019    2027.1400      93.3953       5.0500      -999.25      -999.25      -999.25      -999.25     256.2092      36.0000       1.2961
 43823.1690972222 04:03:30/24-Dec-2019    2027.1400      94.9989       5.0500      -999.25      -999.25      -999.25      -999.25     256.1402      36.0000       1.2958
 43823.1692129630 04:03:40/24-Dec-2019    2027.2300      89.5307       4.9500      -999.25     279.0000      -999.25      -999.25     256.4850      36.0000       1.2974
 43823.1693287037 04:03:50/24-Dec-2019    2027.2999      87.4411       4.8900      -999.25      -999.25       0.0000       0.0000     256.3471      36.0000       1.2967
 43823.1694444444 04:04:00/24-Dec-2019    2027.2400      89.7079       4.9500      -999.25      -999.25      -999.25      -999.25     256.4160      36.0000       1.2971
 43823.1695601852 04:04:10/24-Dec-2019    2027.1499      93.2634       4.8600      -999.25      -999.25      -999.25      -999.25     256.4160      36.0000       1.2971
 43823.1696759259 04:04:20/24-Dec-2019    2027.1499      94.3836       5.0400      -999.25      -999.25      -999.25      -999.25     256.5539      36.0000       1.2979
 43823.1697916667 04:04:30/24-Dec-2019    2027.3301      93.9897       4.8600     199.0000      -999.25      -999.25      -999.25     256.3471      36.0000       1.2967
 43823.1699074074 04:04:40/24-Dec-2019    2027.2599      93.4446       4.9300      -999.25      -999.25      -999.25      -999.25     256.3471      36.0000       1.2967
 43823.1700231481 04:04:50/24-Dec-2019    2027.2300      89.7187       4.9600      -999.25      -999.25      -999.25      -999.25     256.3471      36.0000       1.2968
 43823.1701388889 04:05:00/24-Dec-2019    2027.3500      87.5743       4.8300      -999.25      90.0000      -999.25      -999.25     256.3471      36.0000       1.2967
 43823.1702546296 04:05:10/24-Dec-2019    2027.2101      87.0759       4.9800      -999.25      -999.25       0.0000       0.0000     256.4160      36.0000       1.2971
 43823.1703703704 04:05:20/24-Dec-2019    2027.2300      87.5872       4.9600      -999.25      -999.25      -999.25      -999.25     256.5539      36.0000       1.2978
 43823.1704861111 04:05:30/24-Dec-2019    2027.4099      90.3992       4.7800      -999.25      -999.25      -999.25      -999.25     256.3471      36.0000       1.2966
 43823.1706018519 04:05:40/24-Dec-2019    2027.1499      85.1090       5.0400      -999.25      -999.25      -999.25      -999.25     256.2781      36.0000       1.2965
 43823.1707175926 04:05:50/24-Dec-2019    2027.4099      81.1627       4.7800     196.0000      -999.25      -999.25      -999.25     256.3471      36.0000       1.2966
 43823.1708333333 04:06:00/24-Dec-2019    2027.3201      83.2100       4.8700      -999.25      -999.25      -999.25      -999.25     256.2092      36.0000       1.2960
 43823.1709490741 04:06:10/24-Dec-2019    2027.2300      82.8305       4.9600      -999.25      -999.25      -999.25      -999.25     256.4160      36.0000       1.2971
 43823.1710648148 04:06:20/24-Dec-2019    2027.4500      81.3756       4.7400      -999.25      -999.25      -999.25      -999.25     256.2781      36.0000       1.2963
 43823.1711805556 04:06:30/24-Dec-2019    2027.4099      80.7445       4.7800      -999.25      39.0000      -999.25      -999.25     256.2092      36.0000       1.2959
 43823.1712962963 04:06:40/24-Dec-2019    2027.4500      81.3756       4.7400      -999.25      -999.25       0.0000       0.0000     256.2781      36.0000       1.2963
 43823.1714120370 04:06:50/24-Dec-2019    2027.4900      82.2258       4.7000      -999.25      -999.25      -999.25      -999.25     256.2092      36.0000       1.2959
 43823.1715277778 04:07:00/24-Dec-2019    2027.4200      85.3488       4.7700      -999.25      -999.25      -999.25      -999.25     256.2092      36.0000       1.2959
 43823.1716435185 04:07:10/24-Dec-2019    2027.4900      93.3313       4.7000     205.0000      -999.25      -999.25      -999.25     256.1402      36.0000       1.2955
 43823.1717592593 04:07:20/24-Dec-2019    2027.4000      90.0249       4.7900      -999.25      -999.25      -999.25      -999.25     256.2781      36.0000       1.2963
 43823.1718750000 04:07:30/24-Dec-2019    2027.4701      82.0424       4.7200      -999.25      -999.25      -999.25      -999.25     256.1402      36.0000       1.2956
 43823.1719907407 04:07:40/24-Dec-2019    2027.4900      80.3901       4.7000      -999.25      -999.25      -999.25      -999.25     256.1402      36.0000       1.2955
 43823.1721064815 04:07:50/24-Dec-2019    2027.4900      78.1233       4.7000      -999.25      48.0000      -999.25      -999.25     256.1402      36.0000       1.2955
