~VERSION INFORMATION 
VERS  .    2.0                                     :CWLS Log ASCII Standard - VERSION 2.0
WRAP  .    NO                                      :One Line per Time step
PROD  .    Schlumberger Technology Corp.           :LAS Producer
PROG  .    Horizon LASWriter 9.2.113335.3100       :LAS Program name and version
SOURCE.    Run 2-TimeLogicalAcq                    :Run&Pass Information
CREA  .    12/11/2019                              :LAS Creation date {MM/DD/YYYY}
#--------------------------------------------------
~WELL INFORMATION 
#MNEM           .UNIT                      DATA            :DESCRIPTION
#----            ------          --------------            -----------------------------
STRT            .d               43803.0416666667          :START TIME(OLE Automation date)
STOP            .d               43803.8437500000          :STOP TIME(OLE Automation date)
STEP            .d                            0            :STEP TIME(10s in time)
NULL            .                       -999.25            :NULL VALUE
COMP            .                       Equinor            :COMPANY
WELL            .                        31/5-7            :WELL NAME
FLD             .                           Eos            :FIELD NAME
RIGN            .                 West Hercules            :Rig Name
RIGTYP          .                Semi-Submersible          :Rig Type
SON             .                     19SCA0085            :Service Order Number
SRVC            .                  Schlumberger            :SERVICE COMPANY
DATE            .                    12/04/2019            :LOG DATE(Composite Date for Composite LAP) (MM/DD/YYYY)
CLAB            .                       County:            :County Label
CNTY            .                                          :COUNTY
SLAB            .                                          :State/Province Label
STAT            .                                          :STATE or PROVINCE
PROV            .                                          :STATE or PROVINCE
CTRY            .                        Norway            :COUNTRY
CONT_REGION     .                        Europe            :Continent Region
SECT            .                                          :Section
TOWN            .                                          :Township
RANG            .                                          :Range
API             .                                          :API NUMBER
UWI             .                                          :UNIQUE WELL ID
LUL             .                Service Office            :Logging Unit Location
LUN             .                          A615            :Logging Unit Number
LOC             .                Norwegian North Sea       :FIELD LOCATION
FL1             .                Section: 8 1/2 in. pilot  :Field Location Line 1
FL2             .                Job no.: 19SCA0085        :Field Location Line 2
LATI            .deg             60° 34' 35.14" N          :LATITUDE
LONG            .deg             3° 26' 36.13" E           :LONGITUDE
PDAT            .                           MSL            :Local Permanent Datum
LMF             .                            DF            :Logging Measured From
APD             .m                        31.00            :Elevation of Depth Reference (LMF) Above Permanent Datum
EPD             .m                         0.00            :Elevation of Permanent Datum (PDAT) above Mean Sea Level
EKB             .m                      -999.25            :Elevation of Kelly Bushing Above Permanent Datum
EDF             .m                        31.00            :Elevation of Drill Floor Above Permanent Datum
EGL             .m                      -307.00            :Elevation of Ground Level Above Permanent Datum
ECF             .m                      -999.25            :Elevation of Casing Flange above Permanent Datum
#--------------------------------------------------
~CURVE INFORMATION
#MNEM           .UNIT                  API CODE            :DESCRIPTION
#----            ------          --------------            -----------------------------
TIME_1900       .d                                         :                                                        Time Index(OLE Automation date)
TIME            .s                                         :                                (10s)                   Time(hh mm ss/dd-MMM-yyyy)
DEPTH           .m                                         :(RT)    (DnMWorkflow)                                   Depth Index
GR              .gAPI                                      :(RT)    (DV6MT)                                         Gamma Ray
BLKP            .m                                         :(RT)    (DRILLING_SURFACE)                              Height of block above rig floor
STICK           .c/min                                     :(RT)    (TELE675)                                       Stick Slip Indicator
CRPM            .c/min                                     :(RT)    (TELE675)                                       Collar Rotational Speed
SHKRSK          .                                          :(RT)    (TELE675)                                       Shock Risk
SHKPK           .gn                                        :(RT)    (TELE675)                                       Shock Peak
ECD             .g/cm3                                     :(RM)    (DV6MT)                                         Equivalent Circulating Density
DHAT            .degC                                      :(RM)    (DV6MT)                                         Downhole Annulus Temperature
DHAP            .bar                                       :(RM)    (DV6MT)                                         Downhole Annulus Pressure
#-------------------------------------------------------------
#       TIME_1900                 TIME        DEPTH           GR         BLKP        STICK         CRPM       SHKRSK        SHKPK          ECD         DHAT         DHAP 
#                                       (DnMWorkfl)      (DV6MT)  (DRILLING_)    (TELE675)    (TELE675)    (TELE675)    (TELE675)      (DV6MT)      (DV6MT)      (DV6MT) 
#                                              (RT)         (RT)         (RT)         (RT)         (RT)         (RT)         (RT)         (RM)         (RM)         (RM) 
#                                (10s)                                                                                                                                   
~ASCII
# ...
 43803.2972222222 07:08:00/04-Dec-2019     615.5269      96.6803      35.5200      -999.25      -999.25      -999.25      -999.25       1.1659      13.0000      65.9139
 43803.2973379630 07:08:10/04-Dec-2019     615.5957      96.8538      35.5400      -999.25      93.0000      -999.25      -999.25       1.1668      13.0000      65.9828
 43803.2974537037 07:08:20/04-Dec-2019     615.6744      96.4246      35.4700      18.0000      -999.25      -999.25      -999.25       1.1826      13.0000      66.8792
 43803.2975694444 07:08:30/04-Dec-2019     615.8232      96.3461      35.3100      -999.25      -999.25      -999.25      -999.25       1.1761      13.0000      66.5344
 43803.2976851852 07:08:40/04-Dec-2019     615.9821      97.7853      35.1500      -999.25      -999.25      -999.25      -999.25       1.1659      13.0000      65.9828
 43803.2978009259 07:08:50/04-Dec-2019     616.1508     100.5015      35.0700      -999.25      -999.25      -999.25      -999.25       1.1767      13.0000      66.6034
 43803.2979166667 07:09:00/04-Dec-2019     616.6896     101.7433      34.4500      -999.25      -999.25      -999.25      -999.25       1.1858      13.0000      67.1549
 43803.2980324074 07:09:10/04-Dec-2019     617.0283     100.6918      34.1000      -999.25      -999.25      -999.25      -999.25       1.1602      13.0000      65.7760
 43803.2981481481 07:09:20/04-Dec-2019     616.5471      97.8961      34.5000      -999.25      -999.25      -999.25      -999.25       1.1544      13.0000      65.3623
 43803.2982638889 07:09:30/04-Dec-2019     616.5159      93.6891      34.6100      -999.25      -999.25      -999.25      -999.25       1.1540      13.0000      65.3623
 43803.2983796296 07:09:40/04-Dec-2019     616.9547      93.5618      34.1800      -999.25      -999.25       0.0000       0.0000       1.1719      13.0000      66.4655
 43803.2984953704 07:09:50/04-Dec-2019     617.3035      94.0946      33.9100      -999.25      -999.25      -999.25      -999.25       1.1658      13.0000      66.1207
 43803.2986111111 07:10:00/04-Dec-2019     617.6522      95.6147      33.4800      -999.25      94.0000      -999.25      -999.25       1.1664      13.0000      66.1897
 43803.2987268518 07:10:10/04-Dec-2019     617.8110      96.7957      33.3200      -999.25      -999.25      -999.25      -999.25       1.1617      13.0000      65.9139
 43803.2988425926 07:10:20/04-Dec-2019     617.5997      98.3157      33.5300      21.0000      -999.25      -999.25      -999.25       1.1724      13.0000      66.5344
 43803.2989583333 07:10:30/04-Dec-2019     617.5685      98.3091      33.5600      -999.25      -999.25      -999.25      -999.25       1.1736      13.0000      66.6034
 43803.2990740741 07:10:40/04-Dec-2019     617.8273      96.8131      33.3000      -999.25      -999.25      -999.25      -999.25       1.1696      13.0000      66.3965
 43803.2991898148 07:10:50/04-Dec-2019     617.9961      95.8648      33.1300      -999.25      -999.25      -999.25      -999.25       1.1722      13.0000      66.6034
 43803.2993055556 07:11:00/04-Dec-2019     618.5248      94.3447      32.6000      -999.25      -999.25      -999.25      -999.25       1.1609      13.0000      65.9828
 43803.2994212963 07:11:10/04-Dec-2019     618.5036      93.1637      32.6200      -999.25      -999.25      -999.25      -999.25       1.1646      13.0000      66.1897
 43803.2995370370 07:11:20/04-Dec-2019     618.6624      91.6436      32.4600      -999.25      -999.25      -999.25      -999.25       1.1764      13.0000      66.8792
 43803.2996527778 07:11:30/04-Dec-2019     618.8212      92.5012      32.3000      -999.25      -999.25       0.0000       0.0000       1.1651      13.0000      66.2586
 43803.2997685185 07:11:40/04-Dec-2019     618.8799      99.4556      32.2400      -999.25      -999.25      -999.25      -999.25       1.1771      13.0000      66.9481
 43803.2998842593 07:11:50/04-Dec-2019     618.9588     101.4214      32.1600      -999.25      -999.25      -999.25      -999.25       1.1708      13.0000      66.6034
 43803.3000000000 07:12:00/04-Dec-2019     619.3075     101.8506      31.8100      -999.25      94.0000      -999.25      -999.25       1.1714      13.0000      66.6723
 43803.3001157407 07:12:10/04-Dec-2019     619.4663     101.6771      31.6500      -999.25      -999.25      -999.25      -999.25       1.1679      13.0000      66.4655
 43803.3002314815 07:12:20/04-Dec-2019     619.4350     101.1278      31.6800      21.0000      -999.25      -999.25      -999.25       1.1603      13.0000      66.0518
 43803.3003472222 07:12:30/04-Dec-2019     619.7938     100.9756      31.3200      -999.25      -999.25      -999.25      -999.25       1.1810      13.0000      67.2928
 43803.3004629630 07:12:40/04-Dec-2019     620.1326     101.0715      30.9800      -999.25      -999.25      -999.25      -999.25       1.1758      13.0000      67.0170
 43803.3005787037 07:12:50/04-Dec-2019     620.1114     100.3571      31.0000      -999.25      -999.25      -999.25      -999.25       1.1785      13.0000      67.1549
 43803.3006944444 07:13:00/04-Dec-2019     620.2701      99.2783      30.8300      -999.25      -999.25      -999.25      -999.25       1.1671      13.0000      66.5344
 43803.3008101852 07:13:10/04-Dec-2019     620.3489      97.5326      30.6700      -999.25      -999.25      -999.25      -999.25       1.1713      13.0000      66.8102
 43803.3009259259 07:13:20/04-Dec-2019     620.4077      96.5772      30.7000      -999.25      -999.25      -999.25      -999.25       1.1765      13.0000      67.0860
 43803.3010416667 07:13:30/04-Dec-2019     620.7665      97.2947      30.3400      -999.25      -999.25       0.0000       0.0000       1.1827      13.0000      67.4997
 43803.3011574074 07:13:40/04-Dec-2019     621.1953      99.0428      29.9000      -999.25      -999.25      -999.25      -999.25       1.1882      13.0000      67.8444
 43803.3012731481 07:13:50/04-Dec-2019     620.9941      98.4684      30.0200      -999.25      -999.25      -999.25      -999.25       1.2023      13.0000      68.6028
 43803.3013888889 07:14:00/04-Dec-2019     621.0528      97.9778      30.0400      -999.25      94.0000      -999.25      -999.25       1.2102      13.0000      69.0855
 43803.3015046296 07:14:10/04-Dec-2019     621.3116      98.2127      29.7900      -999.25      -999.25      -999.25      -999.25       1.2098      13.0000      69.0855
 43803.3016203704 07:14:20/04-Dec-2019     621.3804      99.0428      29.7200      21.0000      -999.25      -999.25      -999.25       1.2035      13.0000      68.7407
 43803.3017361111 07:14:30/04-Dec-2019     621.3492      98.2933      29.8300      -999.25      -999.25      -999.25      -999.25       1.2131      13.0000      69.2923
 43803.3018518519 07:14:40/04-Dec-2019     621.6979      96.5602      29.3900      -999.25      -999.25      -999.25      -999.25       1.2342      13.0000      70.5334
 43803.3019675926 07:14:50/04-Dec-2019     621.7667      95.7301      29.3200      -999.25      -999.25      -999.25      -999.25       1.2555      13.0000      71.7744
 43803.3020833333 07:15:00/04-Dec-2019     621.6454      95.4952      29.3400      -999.25      -999.25      -999.25      -999.25       1.2512      13.0000      71.4986
 43803.3021990741 07:15:10/04-Dec-2019     621.7142      95.9858      29.3800      -999.25      -999.25      -999.25      -999.25       1.2555      13.0000      71.7744
 43803.3023148148 07:15:20/04-Dec-2019     622.1530      96.5602      29.0200      -999.25      -999.25      -999.25      -999.25       1.2320      13.0000      70.4644
 43803.3024305556 07:15:30/04-Dec-2019     622.6018      98.2021      28.4900      -999.25      -999.25       0.0000       0.0000       1.2374      13.0000      70.8092
 43803.3025462963 07:15:40/04-Dec-2019     622.3906      98.6733      28.6000      -999.25      -999.25      -999.25      -999.25       1.2267      13.0000      70.1886
 43803.3026620370 07:15:50/04-Dec-2019     622.6393      96.0645      28.4400      -999.25      -999.25      -999.25      -999.25       1.2179      13.0000      69.7060
