~VERSION INFORMATION 
VERS  .    2.0                                     :CWLS Log ASCII Standard - VERSION 2.0
WRAP  .    NO                                      :One Line per Time step
PROD  .    Schlumberger Technology Corp.           :LAS Producer
PROG  .    Horizon LASWriter 9.2.113335.3100       :LAS Program name and version
SOURCE.    Run 2-TimeLogicalAcq                    :Run&Pass Information
CREA  .    12/11/2019                              :LAS Creation date {MM/DD/YYYY}
#--------------------------------------------------
~WELL INFORMATION 
#MNEM           .UNIT                      DATA            :DESCRIPTION
#----            ------          --------------            -----------------------------
STRT            .d               43803.0416666667          :START TIME(OLE Automation date)
STOP            .d               43803.8437500000          :STOP TIME(OLE Automation date)
STEP            .d                            0            :STEP TIME(10s in time)
NULL            .                       -999.25            :NULL VALUE
COMP            .                       Equinor            :COMPANY
WELL            .                        31/5-7            :WELL NAME
FLD             .                           Eos            :FIELD NAME
RIGN            .                 West Hercules            :Rig Name
RIGTYP          .                Semi-Submersible          :Rig Type
SON             .                     19SCA0085            :Service Order Number
SRVC            .                  Schlumberger            :SERVICE COMPANY
DATE            .                    12/04/2019            :LOG DATE(Composite Date for Composite LAP) (MM/DD/YYYY)
CLAB            .                       County:            :County Label
CNTY            .                                          :COUNTY
SLAB            .                                          :State/Province Label
STAT            .                                          :STATE or PROVINCE
PROV            .                                          :STATE or PROVINCE
CTRY            .                        Norway            :COUNTRY
CONT_REGION     .                        Europe            :Continent Region
SECT            .                                          :Section
TOWN            .                                          :Township
RANG            .                                          :Range
API             .                                          :API NUMBER
UWI             .                                          :UNIQUE WELL ID
LUL             .                Service Office            :Logging Unit Location
LUN             .                          A615            :Logging Unit Number
LOC             .                Norwegian North Sea       :FIELD LOCATION
FL1             .                Section: 8 1/2 in. pilot  :Field Location Line 1
FL2             .                Job no.: 19SCA0085        :Field Location Line 2
LATI            .deg             60° 34' 35.14" N          :LATITUDE
LONG            .deg             3° 26' 36.13" E           :LONGITUDE
PDAT            .                           MSL            :Local Permanent Datum
LMF             .                            DF            :Logging Measured From
APD             .m                        31.00            :Elevation of Depth Reference (LMF) Above Permanent Datum
EPD             .m                         0.00            :Elevation of Permanent Datum (PDAT) above Mean Sea Level
EKB             .m                      -999.25            :Elevation of Kelly Bushing Above Permanent Datum
EDF             .m                        31.00            :Elevation of Drill Floor Above Permanent Datum
EGL             .m                      -307.00            :Elevation of Ground Level Above Permanent Datum
ECF             .m                      -999.25            :Elevation of Casing Flange above Permanent Datum
#--------------------------------------------------
~CURVE INFORMATION
#MNEM           .UNIT                  API CODE            :DESCRIPTION
#----            ------          --------------            -----------------------------
TIME_1900       .d                                         :                                                        Time Index(OLE Automation date)
TIME            .s                                         :                                (10s)                   Time(hh mm ss/dd-MMM-yyyy)
DEPTH           .m                                         :(RT)    (DnMWorkflow)                                   Depth Index
GR              .gAPI                                      :(RT)    (DV6MT)                                         Gamma Ray
BLKP            .m                                         :(RT)    (DRILLING_SURFACE)                              Height of block above rig floor
STICK           .c/min                                     :(RT)    (TELE675)                                       Stick Slip Indicator
CRPM            .c/min                                     :(RT)    (TELE675)                                       Collar Rotational Speed
SHKRSK          .                                          :(RT)    (TELE675)                                       Shock Risk
SHKPK           .gn                                        :(RT)    (TELE675)                                       Shock Peak
ECD             .g/cm3                                     :(RM)    (DV6MT)                                         Equivalent Circulating Density
DHAT            .degC                                      :(RM)    (DV6MT)                                         Downhole Annulus Temperature
DHAP            .bar                                       :(RM)    (DV6MT)                                         Downhole Annulus Pressure
#-------------------------------------------------------------
#       TIME_1900                 TIME        DEPTH           GR         BLKP        STICK         CRPM       SHKRSK        SHKPK          ECD         DHAT         DHAP 
#                                       (DnMWorkfl)      (DV6MT)  (DRILLING_)    (TELE675)    (TELE675)    (TELE675)    (TELE675)      (DV6MT)      (DV6MT)      (DV6MT) 
#                                              (RT)         (RT)         (RT)         (RT)         (RT)         (RT)         (RT)         (RM)         (RM)         (RM) 
#                                (10s)                                                                                                                                   
~ASCII
# ...
 43803.4416666667 10:36:00/04-Dec-2019     732.4400      88.4876      33.8300      -999.25      -999.25      -999.25      -999.25       1.2156      14.0000      82.6681
 43803.4417824074 10:36:10/04-Dec-2019     732.6000      90.5286      33.6800      -999.25      -999.25       0.0000       0.0000       1.2031      14.0000      81.8408
 43803.4418981481 10:36:20/04-Dec-2019     733.0400      91.6898      33.2300      -999.25      -999.25      -999.25      -999.25       1.2063      14.0000      82.1166
 43803.4420138889 10:36:30/04-Dec-2019     733.1100      91.1154      33.1700      -999.25      -999.25      -999.25      -999.25       1.2073      14.0000      82.1855
 43803.4421296296 10:36:40/04-Dec-2019     733.0900      90.6248      33.1900      -999.25      97.0000      -999.25      -999.25       1.2002      14.0000      81.7029
 43803.4422453704 10:36:50/04-Dec-2019     733.3500      90.8597      32.9300      -999.25      -999.25      -999.25      -999.25       1.2008      14.0000      81.7718
 43803.4423611111 10:37:00/04-Dec-2019     733.4200      91.6898      32.8500      24.0000      -999.25      -999.25      -999.25       1.2088      14.0000      82.3234
 43803.4424768519 10:37:10/04-Dec-2019     733.4901      92.7522      32.7900      -999.25      -999.25      -999.25      -999.25       1.2147      14.0000      82.7371
 43803.4425925926 10:37:20/04-Dec-2019     733.8400      93.7944      32.4300      -999.25      -999.25      -999.25      -999.25       1.2070      14.0000      82.2545
 43803.4427083333 10:37:30/04-Dec-2019     734.1800      93.0042      32.1000      -999.25      -999.25      -999.25      -999.25       1.2155      14.0000      82.8750
 43803.4428240741 10:37:40/04-Dec-2019     734.1600      91.3348      32.1100      -999.25      -999.25      -999.25      -999.25       1.2047      14.0000      82.1166
 43803.4429398148 10:37:50/04-Dec-2019     734.2300      90.1797      32.0400      -999.25      -999.25      -999.25      -999.25       1.2114      14.0000      82.5992
 43803.4430555556 10:38:00/04-Dec-2019     734.6600      88.8753      31.6100      -999.25      -999.25      -999.25      -999.25       1.2035      14.0000      82.1166
 43803.4431712963 10:38:10/04-Dec-2019     734.8300      88.4722      31.4400      -999.25      -999.25       0.0000       0.0000       1.1982      14.0000      81.7718
 43803.4432870370 10:38:20/04-Dec-2019     734.7200      88.5921      31.5500      -999.25      -999.25      -999.25      -999.25       1.1984      14.0000      81.7718
 43803.4434027778 10:38:30/04-Dec-2019     735.1500      89.4222      31.1200      -999.25      -999.25      -999.25      -999.25       1.2138      14.0000      82.8750
 43803.4435185185 10:38:40/04-Dec-2019     735.2200      89.6571      31.0500      -999.25      99.0000      -999.25      -999.25       1.2010      14.0000      81.9787
 43803.4436342593 10:38:50/04-Dec-2019     735.2100      89.1665      31.0600      24.0000      -999.25      -999.25      -999.25       1.1966      14.0000      81.7029
 43803.4437500000 10:39:00/04-Dec-2019     735.2700      88.5921      31.0000      -999.25      -999.25      -999.25      -999.25       1.1922      14.0000      81.4271
 43803.4438657407 10:39:10/04-Dec-2019     735.3400      85.6603      30.9300      -999.25      -999.25      -999.25      -999.25       1.2125      14.0000      82.8060
 43803.4439814815 10:39:20/04-Dec-2019     735.6900      85.0675      30.5800      -999.25      -999.25      -999.25      -999.25       1.2034      14.0000      82.2545
 43803.4440972222 10:39:30/04-Dec-2019     736.2200      89.6923      30.0500      -999.25      -999.25      -999.25      -999.25       1.2102      14.0000      82.7371
 43803.4442129630 10:39:40/04-Dec-2019     736.0100      91.7871      30.2600      -999.25      -999.25      -999.25      -999.25       1.1962      14.0000      81.7718
 43803.4443287037 10:39:50/04-Dec-2019     736.0900      91.4941      30.1800      -999.25      -999.25      -999.25      -999.25       1.2080      14.0000      82.5992
 43803.4444444444 10:40:00/04-Dec-2019     736.5200      89.9866      29.7500      -999.25      -999.25      -999.25      -999.25       1.2054      14.0000      82.4613
 43803.4445601852 10:40:10/04-Dec-2019     736.6000      92.3635      29.6700      -999.25      -999.25       0.0000       0.0000       1.2088      14.0000      82.6681
 43803.4446759259 10:40:20/04-Dec-2019     736.6700      95.5679      29.6000      -999.25      -999.25      -999.25      -999.25       1.2132      14.0000      83.0129
 43803.4447916667 10:40:30/04-Dec-2019     736.8300      96.8097      29.4500      -999.25      -999.25      -999.25      -999.25       1.2080      14.0000      82.6681
 43803.4449074074 10:40:40/04-Dec-2019     736.9901      95.7582      29.2800      -999.25      96.0000      -999.25      -999.25       1.2046      14.0000      82.4613
 43803.4450231481 10:40:50/04-Dec-2019     736.9800      92.9625      29.2900      24.0000      -999.25      -999.25      -999.25       1.2066      14.0000      82.5992
 43803.4451388889 10:41:00/04-Dec-2019     737.3100      88.7555      28.9600      -999.25      -999.25      -999.25      -999.25       1.2110      14.0000      82.9439
 43803.4452546296 10:41:10/04-Dec-2019     737.7500      88.3727      28.5200      -999.25      -999.25      -999.25      -999.25       1.2124      14.0000      83.0818
 43803.4453703704 10:41:20/04-Dec-2019     737.5500      88.8729      28.7200      -999.25      -999.25      -999.25      -999.25       1.1986      14.0000      82.1166
 43803.4454861111 10:41:30/04-Dec-2019     737.9900      89.5957      28.2800      -999.25      -999.25      -999.25      -999.25       1.2081      14.0000      82.8060
 43803.4456018518 10:41:40/04-Dec-2019     738.0601      89.5957      28.2100      -999.25      -999.25      -999.25      -999.25       1.2129      14.0000      83.1508
 43803.4457175926 10:41:50/04-Dec-2019     738.0400      88.8729      28.2300      -999.25      -999.25      -999.25      -999.25       1.2000      14.0000      82.2545
 43803.4458333333 10:42:00/04-Dec-2019     738.1100      88.2763      28.1600      -999.25      -999.25      -999.25      -999.25       1.2017      14.0000      82.3924
 43803.4459490741 10:42:10/04-Dec-2019     738.2700      87.2617      28.0000      -999.25      -999.25       0.0000       0.0000       1.2062      14.0000      82.7371
 43803.4460648148 10:42:20/04-Dec-2019     738.7100      86.6652      27.5600      -999.25      -999.25      -999.25      -999.25       1.2046      14.0000      82.6681
 43803.4461805556 10:42:30/04-Dec-2019     738.7800      85.9423      27.4900      -999.25      94.0000      -999.25      -999.25       1.2053      14.0000      82.7371
 43803.4462962963 10:42:40/04-Dec-2019     738.8500      85.9423      27.4200      -999.25      -999.25      -999.25      -999.25       1.2145      14.0000      83.3576
 43803.4464120370 10:42:50/04-Dec-2019     739.1000      86.6652      27.1700      27.0000      -999.25      -999.25      -999.25       1.2169      14.0000      83.5645
 43803.4465277778 10:43:00/04-Dec-2019     739.2600      86.3307      27.0100      -999.25      -999.25      -999.25      -999.25       1.2107      14.0000      83.1508
 43803.4466435185 10:43:10/04-Dec-2019     739.4300      85.2010      26.8400      -999.25      -999.25      -999.25      -999.25       1.2087      14.0000      83.0129
 43803.4467592593 10:43:20/04-Dec-2019     739.8700      88.1554      26.4000      -999.25      -999.25      -999.25      -999.25       1.2207      14.0000      83.9092
 43803.4468750000 10:43:30/04-Dec-2019     739.7500      90.9511      26.5200      -999.25      -999.25      -999.25      -999.25       1.2153      14.0000      83.4955
 43803.4469907407 10:43:40/04-Dec-2019     739.7300      92.0026      26.5500      -999.25      -999.25      -999.25      -999.25       1.2119      14.0000      83.2887
 43803.4471064815 10:43:50/04-Dec-2019     740.3500      90.7608      25.9200      -999.25      -999.25      -999.25      -999.25       1.2071      14.0000      83.0129
