~VERSION INFORMATION 
VERS  .    2.0                                     :CWLS Log ASCII Standard - VERSION 2.0
WRAP  .    NO                                      :One Line per Time step
PROD  .    Schlumberger Technology Corp.           :LAS Producer
PROG  .    Horizon LASWriter 9.2.113335.3100       :LAS Program name and version
SOURCE.    Run 9-TimeLogicalAcq                    :Run&Pass Information
CREA  .    01/21/2020                              :LAS Creation date {MM/DD/YYYY}
#--------------------------------------------------
~WELL INFORMATION 
#MNEM           .UNIT                      DATA            :DESCRIPTION
#----            ------          --------------            -----------------------------
STRT            .d               43828.3333333334          :START TIME(OLE Automation date)
STOP            .d               43829.1041666667          :STOP TIME(OLE Automation date)
STEP            .d                            0            :STEP TIME(10s in time)
NULL            .                       -999.25            :NULL VALUE
COMP            .                       Equinor            :COMPANY
WELL            .                        31/5-7            :WELL NAME
FLD             .                           Eos            :FIELD NAME
RIGN            .                 West Hercules            :Rig Name
RIGTYP          .                Semi-Submersible          :Rig Type
SON             .                     19SCA0085            :Service Order Number
SRVC            .                  Schlumberger            :SERVICE COMPANY
DATE            .                    12/29/2019            :LOG DATE(Composite Date for Composite LAP) (MM/DD/YYYY)
CLAB            .                       County:            :County Label
CNTY            .                                          :COUNTY
SLAB            .                                          :State/Province Label
STAT            .                                          :STATE or PROVINCE
PROV            .                                          :STATE or PROVINCE
CTRY            .                        Norway            :COUNTRY
CONT_REGION     .                        Europe            :Continent Region
SECT            .                                          :Section
TOWN            .                                          :Township
RANG            .                                          :Range
API             .                                          :API NUMBER
UWI             .                                          :UNIQUE WELL ID
LUL             .                Service Office            :Logging Unit Location
LUN             .                          A615            :Logging Unit Number
LOC             .                Norwegian North Sea       :FIELD LOCATION
FL1             .                Section: 8 1/2 in.        :Field Location Line 1
FL2             .                Job no.: 19SCA0085        :Field Location Line 2
LATI            .deg             60° 34' 35.14" N          :LATITUDE
LONG            .deg             3° 26' 36.13" E           :LONGITUDE
PDAT            .                           MSL            :Local Permanent Datum
LMF             .                            DF            :Logging Measured From
APD             .m                        31.00            :Elevation of Depth Reference (LMF) Above Permanent Datum
EPD             .m                         0.00            :Elevation of Permanent Datum (PDAT) above Mean Sea Level
EKB             .m                      -999.25            :Elevation of Kelly Bushing Above Permanent Datum
EDF             .m                        31.00            :Elevation of Drill Floor Above Permanent Datum
EGL             .m                      -307.00            :Elevation of Ground Level Above Permanent Datum
ECF             .m                      -999.25            :Elevation of Casing Flange above Permanent Datum
#--------------------------------------------------
~CURVE INFORMATION
#MNEM           .UNIT                  API CODE            :DESCRIPTION
#----            ------          --------------            -----------------------------
TIME_1900       .d                                         :                                                        Time Index(OLE Automation date)
TIME            .s                                         :                                (10s)                   Time(hh mm ss/dd-MMM-yyyy)
DEPTH           .m                                         :(RT)    (DnMWorkflow)                                   Depth Index
BLKP            .m                                         :(RT)    (DRILLING_SURFACE)                              Height of block above rig floor
GR              .gAPI                                      :(RT)    (ARC6)                                          Gamma Ray
CRPM            .c/min                                     :(RT)    (TELE675)                                       Collar Rotational Speed
STICK           .c/min                                     :(RT)    (TELE675)                                       Stick Slip Indicator
SHKRSK          .                                          :(RT)    (TELE675)                                       Shock Risk
SHKPK           .gn                                        :(RT)    (TELE675)                                       Shock Peak
DHAT            .degC                                      :(RM)    (ARC6)                                          Downhole Annulus Temperature
DHAP            .bar                                       :(RM)    (ARC6)                                          Downhole Annulus Pressure
ECD             .g/cm3                                     :(RM)    (ARC6)                                          Equivalent Circulating Density
#-------------------------------------------------------------
#       TIME_1900                 TIME        DEPTH         BLKP           GR         CRPM        STICK       SHKRSK        SHKPK         DHAT         DHAP          ECD 
#                                       (DnMWorkfl)  (DRILLING_)       (ARC6)    (TELE675)    (TELE675)    (TELE675)    (TELE675)       (ARC6)       (ARC6)       (ARC6) 
#                                              (RT)         (RT)         (RT)         (RT)         (RT)         (RT)         (RT)         (RM)         (RM)         (RM) 
#                                (10s)                                                                                                                                   
~ASCII
# ...
 43829.0555555556 01:20:00/30-Dec-2019   2441.03003     42.55000      -999.25      -999.25      -999.25      -999.25      -999.25     45.00000    272.41190      1.14210
 43829.0556712963 01:20:10/30-Dec-2019   2441.07007     42.51000      -999.25      -999.25      -999.25      -999.25      -999.25     45.00000    279.03080      1.16983
 43829.0557870370 01:20:20/30-Dec-2019   2441.00000     42.58000      -999.25      -999.25      -999.25      -999.25      -999.25     45.00000    280.89240      1.17772
 43829.0559027778 01:20:30/30-Dec-2019   2441.07007     42.51000      -999.25      -999.25      -999.25      -999.25      -999.25     45.00000    273.85980      1.14819
 43829.0560185185 01:20:40/30-Dec-2019   2441.25000     42.33000      -999.25      -999.25      -999.25      -999.25      -999.25     45.00000    275.30770      1.15417
 43829.0561342593 01:20:50/30-Dec-2019   2441.22998     42.34999      -999.25      -999.25      -999.25      -999.25      -999.25     45.00000    274.20450      1.14952
 43829.0562500000 01:21:00/30-Dec-2019   2441.22998     42.34999      -999.25      -999.25      -999.25      -999.25      -999.25     45.00000    273.51500      1.14663
 43829.0563657407 01:21:10/30-Dec-2019   2441.22998     42.34999      -999.25      -999.25      -999.25      -999.25      -999.25     45.00000    275.92820      1.15675
 43829.0564814815 01:21:20/30-Dec-2019   2441.22998     42.34999      -999.25      -999.25      -999.25      -999.25      -999.25     45.00000    275.58350      1.15530
 43829.0565972222 01:21:30/30-Dec-2019   2441.22998     42.34999      -999.25      -999.25      -999.25      -999.25      -999.25     45.00000    273.92870      1.14836
 43829.0567129630 01:21:40/30-Dec-2019   2441.22998     42.34999      -999.25      -999.25      -999.25      -999.25      -999.25     45.00000    274.61820      1.15126
 43829.0568287037 01:21:50/30-Dec-2019   2441.22998     42.34999      -999.25      -999.25      -999.25      -999.25      -999.25     45.00000    276.06610      1.15732
 43829.0569444444 01:22:00/30-Dec-2019   2441.22998     42.34999      -999.25      -999.25      -999.25      -999.25      -999.25     45.00000    276.82450      1.16050
 43829.0570601852 01:22:10/30-Dec-2019   2441.22998     42.34999      -999.25      -999.25      -999.25      -999.25      -999.25     45.00000    274.96290      1.15270
 43829.0571759259 01:22:20/30-Dec-2019   2441.45996     42.10000      -999.25      -999.25      -999.25      -999.25      -999.25     45.00000    273.85980      1.14797
 43829.0572916667 01:22:30/30-Dec-2019   2441.45996     42.10000      -999.25      -999.25      -999.25      -999.25      -999.25     45.00000    276.61770      1.15953
 43829.0574074074 01:22:40/30-Dec-2019   2441.45996     42.10000      -999.25      -999.25      -999.25      -999.25      -999.25     45.00000    278.82400      1.16878
 43829.0575231481 01:22:50/30-Dec-2019   2441.45996     37.51000      -999.25      -999.25      -999.25      -999.25      -999.25     45.00000    277.92770      1.16502
 43829.0576388889 01:23:00/30-Dec-2019   2441.45996     19.94000      -999.25      -999.25      -999.25      -999.25      -999.25     45.00000    272.96340      1.14421
 43829.0577546296 01:23:10/30-Dec-2019   2441.45996     14.68000      -999.25      -999.25      -999.25      -999.25      -999.25     45.00000    273.03240      1.14450
 43829.0578703704 01:23:20/30-Dec-2019   2441.45996     14.67000      -999.25      -999.25      -999.25      -999.25      -999.25     45.00000    277.58290      1.16357
 43829.0579861111 01:23:30/30-Dec-2019   2441.45996      5.82000      -999.25      -999.25      -999.25      -999.25      -999.25     45.00000    276.34190      1.15837
 43829.0581018519 01:23:40/30-Dec-2019   2441.45996      3.41000      -999.25      -999.25      -999.25      -999.25      -999.25     45.00000    269.10240      1.12803
 43829.0582175926 01:23:50/30-Dec-2019   2438.17017      6.48000      -999.25      -999.25      -999.25      -999.25      -999.25     45.00000    265.93080      1.11584
 43829.0583333333 01:24:00/30-Dec-2019   2425.14990     19.50000      -999.25      -999.25      -999.25      -999.25      -999.25     45.00000    265.51710      1.12087
 43829.0584490741 01:24:10/30-Dec-2019   2412.27002     32.38000      -999.25      -999.25      -999.25      -999.25      -999.25     45.00000    266.82710      1.13147
 43829.0585648148 01:24:20/30-Dec-2019   2403.60986     41.04000      -999.25      -999.25      -999.25      -999.25      -999.25     45.00000    268.06820      1.14131
 43829.0586805556 01:24:30/30-Dec-2019   2402.40991     42.24000      -999.25      -999.25      -999.25      -999.25      -999.25     46.00000    269.30920      1.14731
 43829.0587962963 01:24:40/30-Dec-2019   2402.40991     42.24000      -999.25      -999.25      -999.25      -999.25      -999.25     46.00000    271.17080      1.15524
 43829.0589120370 01:24:50/30-Dec-2019   2402.32007     42.33000      -999.25      -999.25      -999.25      -999.25      -999.25     46.00000    268.89550      1.14560
 43829.0590277778 01:25:00/30-Dec-2019   2402.20996     42.44000      -999.25      -999.25      -999.25      -999.25      -999.25     46.00000    272.20500      1.15975
 43829.0591435185 01:25:10/30-Dec-2019   2402.20996     42.44000      -999.25      -999.25      -999.25      -999.25      -999.25     46.00000    275.92820      1.17561
 43829.0592592593 01:25:20/30-Dec-2019   2402.42993     42.21000      -999.25      -999.25      -999.25      -999.25      -999.25     46.00000    275.44550      1.17344
 43829.0593750000 01:25:30/30-Dec-2019   2402.42993     42.21000      -999.25      -999.25      -999.25      -999.25      -999.25     46.00000    268.68870      1.14466
 43829.0594907407 01:25:40/30-Dec-2019   2402.42993     34.78000      -999.25      -999.25      -999.25      -999.25      -999.25     46.00000    272.54970      1.16110
 43829.0596064815 01:25:50/30-Dec-2019   2402.42993     17.68000      -999.25      -999.25      -999.25      -999.25      -999.25     46.00000    270.75710      1.15347
 43829.0597222222 01:26:00/30-Dec-2019   2402.42993     12.36000      -999.25      -999.25      -999.25      -999.25      -999.25     46.00000    269.10240      1.14642
 43829.0598379630 01:26:10/30-Dec-2019   2402.42993     12.36000      -999.25      -999.25      -999.25      -999.25      -999.25     46.00000    271.03290      1.15464
 43829.0599537037 01:26:20/30-Dec-2019   2402.42993     12.36000      -999.25      -999.25      -999.25      -999.25      -999.25     46.00000    274.27340      1.16845
 43829.0600694444 01:26:30/30-Dec-2019   2402.42993      4.49000      -999.25      -999.25      -999.25      -999.25      -999.25     46.00000    270.68820      1.15317
 43829.0601851852 01:26:40/30-Dec-2019   2402.42993      3.42000      -999.25      -999.25      -999.25      -999.25      -999.25     46.00000    266.13760      1.13379
 43829.0603009259 01:26:50/30-Dec-2019   2398.89990      7.30000      -999.25      -999.25      -999.25      -999.25      -999.25     46.00000    262.82810      1.12106
 43829.0604166667 01:27:00/30-Dec-2019   2386.22998     19.76000      -999.25      -999.25      -999.25      -999.25      -999.25     46.00000    261.10450      1.12063
 43829.0605324074 01:27:10/30-Dec-2019   2372.88013     33.83000      -999.25      -999.25      -999.25      -999.25      -999.25     46.00000    262.27660      1.13094
 43829.0606481481 01:27:20/30-Dec-2019   2363.97998     41.70000      -999.25      -999.25      -999.25      -999.25      -999.25     46.00000    266.41340      1.15359
 43829.0607638889 01:27:30/30-Dec-2019   2363.33008     42.29000      -999.25      -999.25      -999.25      -999.25      -999.25     47.00000    269.17130      1.16576
 43829.0608796296 01:27:40/30-Dec-2019   2363.29004     42.33000      -999.25      -999.25      -999.25      -999.25      -999.25     47.00000    266.20660      1.15293
 43829.0609953704 01:27:50/30-Dec-2019   2363.29004     42.33000      -999.25      -999.25      -999.25      -999.25      -999.25     47.00000    265.51710      1.14995
