~VERSION INFORMATION 
VERS  .    2.0                                     :CWLS Log ASCII Standard - VERSION 2.0
WRAP  .    NO                                      :One Line per Time step
PROD  .    Schlumberger Technology Corp.           :LAS Producer
PROG  .    Horizon LASWriter 9.2.113335.3100       :LAS Program name and version
SOURCE.    Run 12-TimeLogicalAcq                   :Run&Pass Information
CREA  .    01/21/2020                              :LAS Creation date {MM/DD/YYYY}
#--------------------------------------------------
~WELL INFORMATION 
#MNEM           .UNIT                      DATA            :DESCRIPTION
#----            ------          --------------            -----------------------------
STRT            .d               43837.2295138889          :START TIME(OLE Automation date)
STOP            .d               43837.6875000000          :STOP TIME(OLE Automation date)
STEP            .d                            0            :STEP TIME(10s in time)
NULL            .                       -999.25            :NULL VALUE
COMP            .                       Equinor            :COMPANY
WELL            .                        31/5-7            :WELL NAME
FLD             .                           Eos            :FIELD NAME
RIGN            .                 West Hercules            :Rig Name
RIGTYP          .                Semi-Submersible          :Rig Type
SON             .                     19SCA0085            :Service Order Number
SRVC            .                  Schlumberger            :SERVICE COMPANY
DATE            .                    01/07/2020            :LOG DATE(Composite Date for Composite LAP) (MM/DD/YYYY)
CLAB            .                       County:            :County Label
CNTY            .                                          :COUNTY
SLAB            .                                          :State/Province Label
STAT            .                                          :STATE or PROVINCE
PROV            .                                          :STATE or PROVINCE
CTRY            .                        Norway            :COUNTRY
CONT_REGION     .                        Europe            :Continent Region
SECT            .                                          :Section
TOWN            .                                          :Township
RANG            .                                          :Range
API             .                                          :API NUMBER
UWI             .                                          :UNIQUE WELL ID
LUL             .                Service Office            :Logging Unit Location
LUN             .                          A615            :Logging Unit Number
LOC             .                Norwegian North Sea       :FIELD LOCATION
FL1             .                Section: 8 1/2 in.        :Field Location Line 1
FL2             .                Job no.: 19SCA0085        :Field Location Line 2
LATI            .deg             60° 34' 35.14" N          :LATITUDE
LONG            .deg             3° 26' 36.13" E           :LONGITUDE
PDAT            .                           MSL            :Local Permanent Datum
LMF             .                            DF            :Logging Measured From
APD             .m                        31.00            :Elevation of Depth Reference (LMF) Above Permanent Datum
EPD             .m                         0.00            :Elevation of Permanent Datum (PDAT) above Mean Sea Level
EKB             .m                      -999.25            :Elevation of Kelly Bushing Above Permanent Datum
EDF             .m                        31.00            :Elevation of Drill Floor Above Permanent Datum
EGL             .m                      -307.00            :Elevation of Ground Level Above Permanent Datum
ECF             .m                      -999.25            :Elevation of Casing Flange above Permanent Datum
#--------------------------------------------------
~CURVE INFORMATION
#MNEM           .UNIT                  API CODE            :DESCRIPTION
#----            ------          --------------            -----------------------------
TIME_1900       .d                                         :                                                        Time Index(OLE Automation date)
TIME            .s                                         :                                (10s)                   Time(hh mm ss/dd-MMM-yyyy)
DEPTH           .m                                         :(RT)    (DnMWorkflow)                                   Depth Index
BLKP            .m                                         :(RT)    (DRILLING_SURFACE)                              Height of block above rig floor
GR              .gAPI                                      :(RT)    (ARC6)                                          Gamma Ray
CRPM            .c/min                                     :(RT)    (TELE675)                                       Collar Rotational Speed
STICK           .c/min                                     :(RT)    (TELE675)                                       Stick Slip Indicator
SHKRSK          .                                          :(RT)    (TELE675)                                       Shock Risk
SHKPK           .gn                                        :(RT)    (TELE675)                                       Shock Peak
DHAT            .degC                                      :(RM)    (ARC6)                                          Downhole Annulus Temperature
DHAP            .bar                                       :(RM)    (ARC6)                                          Downhole Annulus Pressure
ECD             .g/cm3                                     :(RM)    (ARC6)                                          Equivalent Circulating Density
#-------------------------------------------------------------
#       TIME_1900                 TIME        DEPTH         BLKP           GR         CRPM        STICK       SHKRSK        SHKPK         DHAT         DHAP          ECD 
#                                       (DnMWorkfl)  (DRILLING_)       (ARC6)    (TELE675)    (TELE675)    (TELE675)    (TELE675)       (ARC6)       (ARC6)       (ARC6) 
#                                              (RT)         (RT)         (RT)         (RT)         (RT)         (RT)         (RT)         (RM)         (RM)         (RM) 
#                                (10s)                                                                                                                                   
~ASCII
# ...
 43837.4128472222 09:54:30/07-Jan-2020   2689.86011     27.98000     51.14704      -999.25     12.00000      -999.25      -999.25     38.00000    314.26300      1.19529
 43837.4129629630 09:54:40/07-Jan-2020   2689.81006     28.02000     52.72330      -999.25      -999.25      0.00000      0.00000     38.00000    317.57250      1.20790
 43837.4130787037 09:54:50/07-Jan-2020   2690.04004     27.79000     52.58094      -999.25      -999.25      -999.25      -999.25     38.00000    315.77990      1.20098
 43837.4131944444 09:55:00/07-Jan-2020   2690.26978     27.57000     50.60248      -999.25      -999.25      -999.25      -999.25     38.00000    313.91830      1.19380
 43837.4133101852 09:55:10/07-Jan-2020   2690.20996     27.61000     49.03005      -999.25      -999.25      -999.25      -999.25     38.00000    317.64150      1.20798
 43837.4134259259 09:55:20/07-Jan-2020   2690.36011     27.48000     49.74696     59.00000      -999.25      -999.25      -999.25     38.00000    314.74570      1.19691
 43837.4135416667 09:55:30/07-Jan-2020   2690.66992     27.17000     49.74696      -999.25     15.00000      0.00000      0.00000     38.00000    314.60780      1.19624
 43837.4136574074 09:55:40/07-Jan-2020   2690.61987     27.22000     49.03005      -999.25      -999.25      -999.25      -999.25     38.00000    315.09040      1.19810
 43837.4137731481 09:55:50/07-Jan-2020   2691.11987     26.72000     46.93658      -999.25      -999.25      -999.25      -999.25     38.00000    313.84940      1.19318
 43837.4138888889 09:56:00/07-Jan-2020   2691.08008     26.76000     44.55908      -999.25      -999.25      -999.25      -999.25     38.00000    313.64250      1.19239
 43837.4140046296 09:56:10/07-Jan-2020   2691.02002     26.80000     43.18175     58.00000      -999.25      -999.25      -999.25     38.00000    317.02090      1.20526
 43837.4141203704 09:56:20/07-Jan-2020   2691.25977     26.57000     42.70113      -999.25     81.00000      0.00000      0.00000     38.00000    315.15940      1.19808
 43837.4142361111 09:56:30/07-Jan-2020   2691.30005     26.35000     42.90226      -999.25      -999.25      -999.25      -999.25     38.00000    316.46940      1.20301
 43837.4143518518 09:56:40/07-Jan-2020   2691.35010     26.49000     43.47136      -999.25      -999.25      -999.25      -999.25     38.00000    319.91670      1.21612
 43837.4144675926 09:56:50/07-Jan-2020   2691.57983     26.26000     44.14732      -999.25      -999.25      -999.25      -999.25     38.00000    319.02040      1.21261
 43837.4145833333 09:57:00/07-Jan-2020   2691.70996     26.13000     44.94880      -999.25      -999.25      -999.25      -999.25     38.00000    316.81410      1.20417
 43837.4146990741 09:57:10/07-Jan-2020   2692.03003     25.99000     46.33082     57.00000      -999.25      -999.25      -999.25     38.00000    314.19410      1.19410
 43837.4148148148 09:57:20/07-Jan-2020   2692.34985     25.58000     47.97363      -999.25     60.00000      0.00000      0.00000     38.00000    313.02200      1.18948
 43837.4149305556 09:57:30/07-Jan-2020   2692.56982     25.35000     49.35566      -999.25      -999.25      -999.25      -999.25     38.00000    314.53880      1.19514
 43837.4150462963 09:57:40/07-Jan-2020   2692.25000     25.59000     49.73296      -999.25      -999.25      -999.25      -999.25     38.00000    316.74520      1.20366
 43837.4151620370 09:57:50/07-Jan-2020   2692.56982     25.35000    978.90140      -999.25      -999.25      -999.25      -999.25     38.00000    315.36620      1.19829
 43837.4152777778 09:58:00/07-Jan-2020   2692.97998     24.86000    967.78350     59.00000      -999.25      -999.25      -999.25     38.00000    315.57300      1.19888
 43837.4153935185 09:58:10/07-Jan-2020   2692.64990     25.19000    962.41410      -999.25     63.00000      0.00000      0.00000     38.00000    319.36520      1.21342
 43837.4155092593 09:58:20/07-Jan-2020   2692.89014     24.95000    974.08860      -999.25      -999.25      -999.25      -999.25     38.00000    316.81410      1.20364
 43837.4156250000 09:58:30/07-Jan-2020   2693.02002     24.81000    991.84240      -999.25      -999.25      -999.25      -999.25     38.00000    315.84880      1.19991
 43837.4157407407 09:58:40/07-Jan-2020   2693.14990     24.68000     50.31348      -999.25      -999.25      -999.25      -999.25     38.00000    318.46880      1.20981
 43837.4158564815 09:58:50/07-Jan-2020   2693.28979     24.54000     50.46027      -999.25      -999.25      -999.25      -999.25     38.00000    317.84830      1.20738
 43837.4159722222 09:59:00/07-Jan-2020   2693.33008     24.50000     50.85798      -999.25      -999.25      -999.25      -999.25     38.00000    319.50300      1.21365
 43837.4160879630 09:59:10/07-Jan-2020   2693.46997     24.46000     51.44477      -999.25     36.00000      -999.25      -999.25     38.00000    316.88300      1.20365
 43837.4162037037 09:59:20/07-Jan-2020   2693.79004     24.05000     52.17312      -999.25      -999.25      -999.25      -999.25     38.00000    316.05570      1.20035
 43837.4163194444 09:59:30/07-Jan-2020   2693.91992     23.91000     52.98400      -999.25      -999.25      -999.25      -999.25     38.00000    318.60670      1.20998
 43837.4164351852 09:59:40/07-Jan-2020   2694.05981     23.77000     53.81174      -999.25      -999.25      -999.25      -999.25     38.00000    318.26200      1.20861
 43837.4165509259 09:59:50/07-Jan-2020   2694.29004     23.54000     54.58927      -999.25      -999.25      -999.25      -999.25     38.00000    314.81460      1.19542
 43837.4166666667 10:00:00/07-Jan-2020   2694.23999     23.60000     55.25360      -999.25      -999.25      0.00000      0.00000     38.00000    317.91730      1.20722
 43837.4167824074 10:00:10/07-Jan-2020   2694.37012     23.46000     55.75092      -999.25      -999.25      -999.25      -999.25     38.00000    316.19360      1.20062
 43837.4168981481 10:00:20/07-Jan-2020   2694.61011     23.23000     56.04092      -999.25      -999.25      -999.25      -999.25     38.00000    315.57300      1.19815
 43837.4170138889 10:00:30/07-Jan-2020   2694.64014     23.19000     55.35709      -999.25      -999.25      -999.25      -999.25     38.00000    317.02090      1.20364
 43837.4171296296 10:00:40/07-Jan-2020   2694.77002     23.07000     57.05717     59.00000      -999.25      -999.25      -999.25     38.00000    317.57250      1.20567
 43837.4172453704 10:00:50/07-Jan-2020   2694.91016     22.93000     58.54279      -999.25     36.00000      -999.25      -999.25     38.00000    317.98620      1.20718
 43837.4173611111 10:01:00/07-Jan-2020   2695.01978     22.82000     56.89998      -999.25      -999.25      0.00000      0.00000     38.00000    314.46990      1.19378
 43837.4174768519 10:01:10/07-Jan-2020   2695.14014     22.70000     52.65031      -999.25      -999.25      -999.25      -999.25     38.00000    316.67620      1.20211
 43837.4175925926 10:01:20/07-Jan-2020   2695.25000     22.59000     49.58533      -999.25      -999.25      -999.25      -999.25     38.00000    318.53780      1.20912
 43837.4177083333 10:01:30/07-Jan-2020   2695.36011     22.48000     51.88984      -999.25      -999.25      -999.25      -999.25     38.00000    318.53780      1.20907
 43837.4178240741 10:01:40/07-Jan-2020   2695.73999     22.10000     53.93447     59.00000      -999.25      -999.25      -999.25     38.00000    314.88360      1.19503
 43837.4179398148 10:01:50/07-Jan-2020   2695.48999     22.35000     54.06259      -999.25      9.00000      0.00000      0.00000     38.00000    321.22670      1.21922
 43837.4180555556 10:02:00/07-Jan-2020   2695.14014     22.70000     50.78194      -999.25      -999.25      -999.25      -999.25     38.00000    322.46780      1.22409
 43837.4181712963 10:02:10/07-Jan-2020   2695.80005     22.03000     46.58567      -999.25      -999.25      -999.25      -999.25     38.00000    317.02090      1.20312
 43837.4182870370 10:02:20/07-Jan-2020   2695.91992     21.92000     41.00898      -999.25      -999.25      -999.25      -999.25     38.00000    319.50300      1.21248
