~VERSION INFORMATION 
VERS  .    2.0                                     :CWLS Log ASCII Standard - VERSION 2.0
WRAP  .    NO                                      :One Line per Time step
PROD  .    Schlumberger Technology Corp.           :LAS Producer
PROG  .    Horizon LASWriter 9.2.113335.3100       :LAS Program name and version
SOURCE.    Run 7-TimeLogicalAcq                    :Run&Pass Information
CREA  .    12/27/2019                              :LAS Creation date {MM/DD/YYYY}
#--------------------------------------------------
~WELL INFORMATION 
#MNEM           .UNIT                      DATA            :DESCRIPTION
#----            ------          --------------            -----------------------------
STRT            .d               43818.4166666667          :START TIME(OLE Automation date)
STOP            .d               43819.7083333333          :STOP TIME(OLE Automation date)
STEP            .d                            0            :STEP TIME(10s in time)
NULL            .                       -999.25            :NULL VALUE
COMP            .                       Equinor            :COMPANY
WELL            .                        31/5-7            :WELL NAME
FLD             .                           Eos            :FIELD NAME
RIGN            .                 West Hercules            :Rig Name
RIGTYP          .                Semi-Submersible          :Rig Type
SON             .                     19SCA0085            :Service Order Number
SRVC            .                  Schlumberger            :SERVICE COMPANY
DATE            .                    12/19/2019            :LOG DATE(Composite Date for Composite LAP) (MM/DD/YYYY)
CLAB            .                       County:            :County Label
CNTY            .                                          :COUNTY
SLAB            .                                          :State/Province Label
STAT            .                                          :STATE or PROVINCE
PROV            .                                          :STATE or PROVINCE
CTRY            .                        Norway            :COUNTRY
CONT_REGION     .                        Europe            :Continent Region
SECT            .                                          :Section
TOWN            .                                          :Township
RANG            .                                          :Range
API             .                                          :API NUMBER
UWI             .                                          :UNIQUE WELL ID
LUL             .                Service Office            :Logging Unit Location
LUN             .                          A615            :Logging Unit Number
LOC             .                Norwegian North Sea       :FIELD LOCATION
FL1             .                Section: 12 1/4 x 17 1/5 in.:Field Location Line 1
FL2             .                Job no.: 19SCA0085        :Field Location Line 2
LATI            .deg             60° 34' 35.14" N          :LATITUDE
LONG            .deg             3° 26' 36.13" E           :LONGITUDE
PDAT            .                           MSL            :Local Permanent Datum
LMF             .                            DF            :Logging Measured From
APD             .m                        31.00            :Elevation of Depth Reference (LMF) Above Permanent Datum
EPD             .m                         0.00            :Elevation of Permanent Datum (PDAT) above Mean Sea Level
EKB             .m                      -999.25            :Elevation of Kelly Bushing Above Permanent Datum
EDF             .m                        31.00            :Elevation of Drill Floor Above Permanent Datum
EGL             .m                      -307.00            :Elevation of Ground Level Above Permanent Datum
ECF             .m                      -999.25            :Elevation of Casing Flange above Permanent Datum
#--------------------------------------------------
~CURVE INFORMATION
#MNEM           .UNIT                  API CODE            :DESCRIPTION
#----            ------          --------------            -----------------------------
TIME_1900       .d                                         :                                                        Time Index(OLE Automation date)
TIME            .s                                         :                                (10s)                   Time(hh mm ss/dd-MMM-yyyy)
DEPTH           .m                                         :(RT)    (DnMWorkflow)                                   Depth Index
BLKP            .m                                         :(RT)    (DRILLING_SURFACE)                              Height of block above rig floor
GR_CAL          .gAPI                                      :(RT)    (ARC9)                                          Calibrated Gamma Ray
STICK           .c/min                                     :(RT)    (TELE900)                                       Stick Slip Indicator
CRPM            .c/min                                     :(RT)    (TELE900)                                       Collar Rotational Speed
SHKRSK          .                                          :(RT)    (TELE900)                                       Shock Risk
SHKPK           .gn                                        :(RT)    (TELE900)                                       Shock Peak
DHAT            .degC                                      :(RM)    (ARC9)                                          Downhole Annulus Temperature
DHAP            .bar                                       :(RM)    (ARC9)                                          Downhole Annulus Pressure
ECD             .g/cm3                                     :(RM)    (ARC9)                                          Equivalent Circulating Density
#-------------------------------------------------------------
#       TIME_1900                 TIME        DEPTH         BLKP       GR_CAL        STICK         CRPM       SHKRSK        SHKPK         DHAT         DHAP          ECD 
#                                       (DnMWorkfl)  (DRILLING_)       (ARC9)    (TELE900)    (TELE900)    (TELE900)    (TELE900)       (ARC9)       (ARC9)       (ARC9) 
#                                              (RT)         (RT)         (RT)         (RT)         (RT)         (RT)         (RT)         (RM)         (RM)         (RM) 
#                                (10s)                                                                                                                                   
~ASCII
# ...
 43819.2888888889 06:56:00/20-Dec-2019   1834.90002      8.45000    138.76390      -999.25      -999.25      -999.25      -999.25     36.00000    233.04280      1.30480
 43819.2890046296 06:56:10/20-Dec-2019   1835.02991      8.32000    139.62930      -999.25    201.00000      0.00000      0.00000     36.00000    233.24960      1.30586
 43819.2891203704 06:56:20/20-Dec-2019   1835.17004      8.28000    145.43360    339.00000      -999.25      -999.25      -999.25     36.00000    233.45650      1.30694
 43819.2892361111 06:56:30/20-Dec-2019   1835.33997      8.03000    153.46090      -999.25      -999.25      -999.25      -999.25     36.00000    233.11170      1.30487
 43819.2893518518 06:56:40/20-Dec-2019   1835.39990      7.96000    157.37480      -999.25      -999.25      -999.25      -999.25     36.00000    233.31860      1.30598
 43819.2894675926 06:56:50/20-Dec-2019   1835.57007      7.80000    154.96930      -999.25    226.00000      -999.25      -999.25     36.00000    233.04280      1.30432
 43819.2895833333 06:57:00/20-Dec-2019   1835.64990      7.71000    147.69700    177.00000      -999.25      0.00000      0.00000     36.00000    233.18070      1.30503
 43819.2896990741 06:57:10/20-Dec-2019   1835.83008      7.52000    140.42470      -999.25      -999.25      -999.25      -999.25     36.00000    233.31860      1.30567
 43819.2898148148 06:57:20/20-Dec-2019   1835.93005      7.44000    139.09830      -999.25      -999.25      -999.25      -999.25     36.00000    233.45650      1.30638
 43819.2899305556 06:57:30/20-Dec-2019   1836.10999      7.25000    144.82100      -999.25      -999.25      -999.25      -999.25     36.00000    233.24960      1.30509
 43819.2900462963 06:57:40/20-Dec-2019   1836.20996      7.14000    145.40530      -999.25    197.00000      0.00000      0.00000     36.00000    233.52540      1.30656
 43819.2901620370 06:57:50/20-Dec-2019   1836.48999      6.86000    144.82100    234.00000      -999.25      -999.25      -999.25     36.00000    233.45650      1.30597
 43819.2902777778 06:58:00/20-Dec-2019   1836.67004      6.68000    141.80450      -999.25      -999.25      -999.25      -999.25     36.00000    233.45650      1.30584
 43819.2903935185 06:58:10/20-Dec-2019   1836.94006      6.41000    135.41690      -999.25      -999.25      -999.25      -999.25     36.00000    233.38750      1.30526
 43819.2905092593 06:58:20/20-Dec-2019   1837.12000      6.23000    141.96210      -999.25    193.00000      0.00000      0.00000     36.00000    233.45650      1.30552
 43819.2906250000 06:58:30/20-Dec-2019   1837.30005      6.05000    145.83160    324.00000      -999.25      -999.25      -999.25     36.00000    233.45650      1.30539
 43819.2907407407 06:58:40/20-Dec-2019   1837.56995      5.87000    145.21490      -999.25      -999.25      -999.25      -999.25     36.00000    233.52540      1.30560
 43819.2908564815 06:58:50/20-Dec-2019   1837.56995      5.78000    140.11130      -999.25      -999.25      -999.25      -999.25     36.00000    233.52540      1.30558
 43819.2909722222 06:59:00/20-Dec-2019   1837.73999      5.61000    136.48350      -999.25      -999.25      -999.25      -999.25     36.00000    233.66330      1.30623
 43819.2910879630 06:59:10/20-Dec-2019   1837.94995      5.41000    135.96430      -999.25    188.00000      0.00000      0.00000     36.00000    233.80120      1.30686
 43819.2912037037 06:59:20/20-Dec-2019   1838.09998      5.26000    140.11970    381.00000      -999.25      -999.25      -999.25     36.00000    233.66330      1.30598
 43819.2913194444 06:59:30/20-Dec-2019   1838.33008      5.03000    144.96530      -999.25      -999.25      -999.25      -999.25     36.00000    233.66330      1.30581
 43819.2914351852 06:59:40/20-Dec-2019   1838.55005      4.81000    147.97550      -999.25      -999.25      -999.25      -999.25     36.00000    233.73230      1.30604
 43819.2915509259 06:59:50/20-Dec-2019   1838.80005      4.56000    147.26200      -999.25    236.00000      0.00000      0.00000     36.00000    233.73230      1.30586
 43819.2916666667 07:00:00/20-Dec-2019   1839.02002      4.33000    147.26540    381.00000      -999.25      -999.25      -999.25     36.00000    233.87020      1.30647
 43819.2917824074 07:00:10/20-Dec-2019   1839.25989      4.19000    147.98420      -999.25      -999.25      -999.25      -999.25     36.00000    233.80120      1.30594
 43819.2918981481 07:00:20/20-Dec-2019   1839.40002      3.97000    135.69280      -999.25      -999.25      -999.25      -999.25     36.00000    234.07700      1.30736
 43819.2920138889 07:00:30/20-Dec-2019   1839.62000      3.83000    132.88760      -999.25    195.00000      -999.25      -999.25     36.00000    234.14600      1.30760
 43819.2921296296 07:00:40/20-Dec-2019   1839.95007      3.41000    132.30330    264.00000      -999.25      0.00000      0.00000     36.00000    234.00810      1.30658
 43819.2922453704 07:00:50/20-Dec-2019   1839.92004      3.43000    132.88760      -999.25      -999.25      -999.25      -999.25     36.00000    234.14600      1.30737
 43819.2923611111 07:01:00/20-Dec-2019   1840.28992      3.07000    131.82090      -999.25      -999.25      -999.25      -999.25     36.00000    234.35280      1.30826
 43819.2924768519 07:01:10/20-Dec-2019   1840.54993      2.81000    133.33850      -999.25      -999.25      -999.25      -999.25     37.00000    234.42170      1.30846
 43819.2925925926 07:01:20/20-Dec-2019   1840.69995      2.65000    138.79280      -999.25    207.00000      0.00000      0.00000     37.00000    234.28380      1.30758
 43819.2927083333 07:01:30/20-Dec-2019   1841.01001      2.34000    144.24700    345.00000      -999.25      -999.25      -999.25     37.00000    234.42170      1.30813
 43819.2928240741 07:01:40/20-Dec-2019   1841.17993      2.19000    144.40360      -999.25      -999.25      -999.25      -999.25     37.00000    234.35280      1.30763
 43819.2929398148 07:01:50/20-Dec-2019   1841.23999      2.12000      -999.25      -999.25      -999.25      -999.25      -999.25     37.00000    234.21490      1.30681
 43819.2930555556 07:02:00/20-Dec-2019   1841.26001      2.06000      -999.25      -999.25    238.00000      -999.25      -999.25     37.00000    234.14600      1.30640
 43819.2931712963 07:02:10/20-Dec-2019   1840.28003      3.06000      -999.25    381.00000      -999.25      -999.25      -999.25     37.00000    233.93910      1.30595
 43819.2932870370 07:02:20/20-Dec-2019   1840.28003      3.07000      -999.25      -999.25      -999.25      -999.25      -999.25     37.00000    234.90440      1.31134
 43819.2934027778 07:02:30/20-Dec-2019   1839.62000      3.71000      -999.25      -999.25      -999.25      -999.25      -999.25     37.00000    234.42170      1.30912
 43819.2935185185 07:02:40/20-Dec-2019   1838.80005      4.55000      -999.25      -999.25      -999.25      -999.25      -999.25     37.00000    234.21490      1.30856
 43819.2936342593 07:02:50/20-Dec-2019   1838.81995      4.54000      -999.25      -999.25      -999.25      -999.25      -999.25     37.00000    231.73280      1.29468
 43819.2937500000 07:03:00/20-Dec-2019   1838.85010      4.50000      -999.25      -999.25      -999.25      -999.25      -999.25     37.00000    232.07750      1.29658
 43819.2938657407 07:03:10/20-Dec-2019   1838.85010      4.50000      -999.25      -999.25      -999.25      -999.25      -999.25     37.00000    232.62910      1.29966
 43819.2939814815 07:03:20/20-Dec-2019   1838.85010      4.50000      -999.25      -999.25      -999.25      -999.25      -999.25     37.00000    232.49120      1.29889
 43819.2940972222 07:03:30/20-Dec-2019   1838.85010      4.50000      -999.25      -999.25      -999.25      -999.25      -999.25     37.00000    232.90490      1.30120
 43819.2942129630 07:03:40/20-Dec-2019   1838.85010      4.59000      -999.25      -999.25      -999.25      -999.25      -999.25     37.00000    232.69810      1.30005
 43819.2943287037 07:03:50/20-Dec-2019   1838.85010      4.73000      -999.25      -999.25      -999.25      -999.25      -999.25     37.00000    232.83600      1.30082
