~VERSION INFORMATION 
VERS  .    2.0                                     :CWLS Log ASCII Standard - VERSION 2.0
WRAP  .    NO                                      :One Line per Time step
PROD  .    Schlumberger Technology Corp.           :LAS Producer
PROG  .    Horizon LASWriter 9.2.113335.3100       :LAS Program name and version
SOURCE.    Run 8-TimeLogicalAcq                    :Run&Pass Information
CREA  .    12/30/2019                              :LAS Creation date {MM/DD/YYYY}
#--------------------------------------------------
~WELL INFORMATION 
#MNEM           .UNIT                      DATA            :DESCRIPTION
#----            ------          --------------            -----------------------------
STRT            .d               43822.4166666667          :START TIME(OLE Automation date)
STOP            .d               43824.6875000000          :STOP TIME(OLE Automation date)
STEP            .d                            0            :STEP TIME(10s in time)
NULL            .                       -999.25            :NULL VALUE
COMP            .                       Equinor            :COMPANY
WELL            .                        31/5-7            :WELL NAME
FLD             .                           Eos            :FIELD NAME
RIGN            .                 West Hercules            :Rig Name
RIGTYP          .                Semi-Submersible          :Rig Type
SON             .                     19SCA0085            :Service Order Number
SRVC            .                  Schlumberger            :SERVICE COMPANY
DATE            .                    12/23/2019            :LOG DATE(Composite Date for Composite LAP) (MM/DD/YYYY)
CLAB            .                       County:            :County Label
CNTY            .                                          :COUNTY
SLAB            .                                          :State/Province Label
STAT            .                                          :STATE or PROVINCE
PROV            .                                          :STATE or PROVINCE
CTRY            .                        Norway            :COUNTRY
CONT_REGION     .                        Europe            :Continent Region
SECT            .                                          :Section
TOWN            .                                          :Township
RANG            .                                          :Range
API             .                                          :API NUMBER
UWI             .                                          :UNIQUE WELL ID
LUL             .                Service Office            :Logging Unit Location
LUN             .                          A615            :Logging Unit Number
LOC             .                Norwegian North Sea       :FIELD LOCATION
FL1             .                Section: 12 1/4 in.       :Field Location Line 1
FL2             .                Job no.: 19SCA0085        :Field Location Line 2
LATI            .deg             60° 34' 35.14" N          :LATITUDE
LONG            .deg             3° 26' 36.13" E           :LONGITUDE
PDAT            .                           MSL            :Local Permanent Datum
LMF             .                            DF            :Logging Measured From
APD             .m                        31.00            :Elevation of Depth Reference (LMF) Above Permanent Datum
EPD             .m                         0.00            :Elevation of Permanent Datum (PDAT) above Mean Sea Level
EKB             .m                      -999.25            :Elevation of Kelly Bushing Above Permanent Datum
EDF             .m                        31.00            :Elevation of Drill Floor Above Permanent Datum
EGL             .m                      -307.00            :Elevation of Ground Level Above Permanent Datum
ECF             .m                      -999.25            :Elevation of Casing Flange above Permanent Datum
#--------------------------------------------------
~CURVE INFORMATION
#MNEM           .UNIT                  API CODE            :DESCRIPTION
#----            ------          --------------            -----------------------------
TIME_1900       .d                                         :                                                        Time Index(OLE Automation date)
TIME            .s                                         :                                (10s)                   Time(hh mm ss/dd-MMM-yyyy)
DEPTH           .m                                         :(RT)    (DnMWorkflow)                                   Depth Index
GR              .gAPI                                      :(RT)    (ARC9)                                          Gamma Ray
BLKP            .m                                         :(RT)    (DRILLING_SURFACE)                              Height of block above rig floor
CRPM            .c/min                                     :(RT)    (TELE900)                                       Collar Rotational Speed
STICK           .c/min                                     :(RT)    (TELE900)                                       Stick Slip Indicator
SHKPK           .gn                                        :(RT)    (TELE900)                                       Shock Peak
SHKRSK          .                                          :(RT)    (TELE900)                                       Shock Risk
DHAP            .bar                                       :(RM)    (ARC9)                                          Downhole Annulus Pressure
DHAT            .degC                                      :(RM)    (ARC9)                                          Downhole Annulus Temperature
ECD             .g/cm3                                     :(RM)    (ARC9)                                          Equivalent Circulating Density
#-------------------------------------------------------------
#       TIME_1900                 TIME        DEPTH           GR         BLKP         CRPM        STICK        SHKPK       SHKRSK         DHAP         DHAT          ECD 
#                                       (DnMWorkfl)       (ARC9)  (DRILLING_)    (TELE900)    (TELE900)    (TELE900)    (TELE900)       (ARC9)       (ARC9)       (ARC9) 
#                                              (RT)         (RT)         (RT)         (RT)         (RT)         (RT)         (RT)         (RM)         (RM)         (RM) 
#                                (10s)                                                                                                                                   
~ASCII
# ...
 43823.0277777778 00:40:00/24-Dec-2019    1955.2300     136.2461      38.6700      -999.25     159.0000      -999.25      -999.25     245.5223      32.0000       1.2880
 43823.0278935185 00:40:10/24-Dec-2019    1955.2300     135.6151      38.6700      -999.25      -999.25       0.0000       0.0000     245.5913      32.0000       1.2884
 43823.0280092593 00:40:20/24-Dec-2019    1955.2900     136.2461      38.6100      -999.25      -999.25      -999.25      -999.25     245.6602      32.0000       1.2887
 43823.0281250000 00:40:30/24-Dec-2019    1955.3000     134.8480      38.6000      -999.25      -999.25      -999.25      -999.25     245.5913      32.0000       1.2883
 43823.0282407407 00:40:40/24-Dec-2019    1955.3101     126.8655      38.5900      -999.25      -999.25      -999.25      -999.25     245.7291      32.0000       1.2890
 43823.0283564815 00:40:50/24-Dec-2019    1955.3600     123.5591      38.5400     154.0000      -999.25      -999.25      -999.25     245.7291      32.0000       1.2890
 43823.0284722222 00:41:00/24-Dec-2019    1955.3899     131.5415      38.5100      -999.25      -999.25      -999.25      -999.25     245.5913      32.0000       1.2883
 43823.0285879630 00:41:10/24-Dec-2019    1955.4100     137.1980      38.4900      -999.25      -999.25      -999.25      -999.25     245.5913      32.0000       1.2882
 43823.0287037037 00:41:20/24-Dec-2019    1955.5200     137.5882      38.3800      -999.25      -999.25      -999.25      -999.25     245.8671      32.0000       1.2896
 43823.0288194444 00:41:30/24-Dec-2019    1955.5399     132.2583      38.3600      -999.25      39.0000      -999.25      -999.25     245.7981      32.0000       1.2892
 43823.0289351852 00:41:40/24-Dec-2019    1955.6600     121.8797      38.2500      -999.25      -999.25       0.0000       0.0000     245.7981      32.0000       1.2892
 43823.0290509259 00:41:50/24-Dec-2019    1955.5001     112.8975      38.4000      -999.25      -999.25      -999.25      -999.25     245.6602      32.0000       1.2885
 43823.0291666667 00:42:00/24-Dec-2019    1955.5300     103.7657      38.3700      -999.25      -999.25      -999.25      -999.25     245.8671      32.0000       1.2896
 43823.0292824074 00:42:10/24-Dec-2019    1955.6300     101.7184      38.2700     155.0000      -999.25      -999.25      -999.25     245.8671      32.0000       1.2895
 43823.0293981481 00:42:20/24-Dec-2019    1955.4800     105.6647      38.4200      -999.25      -999.25      -999.25      -999.25     245.7981      32.0000       1.2893
 43823.0295138889 00:42:30/24-Dec-2019    1955.7200     111.4052      38.1800      -999.25      -999.25      -999.25      -999.25     245.8671      32.0000       1.2895
 43823.0296296296 00:42:40/24-Dec-2019    1955.6300     114.8699      38.2700      -999.25      -999.25      -999.25      -999.25     245.8671      32.0000       1.2895
 43823.0297453704 00:42:50/24-Dec-2019    1955.7700     115.8367      38.1300      -999.25     111.0000      -999.25      -999.25     245.8671      32.0000       1.2895
 43823.0298611111 00:43:00/24-Dec-2019    1955.6801     115.8367      38.2200      -999.25      -999.25       0.0000       0.0000     245.9360      32.0000       1.2899
 43823.0299768519 00:43:10/24-Dec-2019    1955.7000     114.8699      38.2000      -999.25      -999.25      -999.25      -999.25     246.0739      32.0000       1.2906
 43823.0300925926 00:43:20/24-Dec-2019    1955.7200     110.7114      38.1800      -999.25      -999.25      -999.25      -999.25     246.1428      32.0000       1.2909
 43823.0302083333 00:43:30/24-Dec-2019    1955.7000     108.8142      38.2000     153.0000      -999.25      -999.25      -999.25     246.1428      32.0000       1.2909
 43823.0303240741 00:43:40/24-Dec-2019    1955.8201     108.3551      38.0800      -999.25      -999.25      -999.25      -999.25     246.0739      32.0000       1.2905
 43823.0304398148 00:43:50/24-Dec-2019    1955.7300     107.9674      38.1700      -999.25      -999.25      -999.25      -999.25     246.0739      32.0000       1.2906
 43823.0305555556 00:44:00/24-Dec-2019    1955.8500     116.3698      38.0500      -999.25      -999.25      -999.25      -999.25     246.1428      32.0000       1.2908
 43823.0306712963 00:44:10/24-Dec-2019    1955.8600     118.6366      38.0400      -999.25     123.0000      -999.25      -999.25     245.9360      32.0000       1.2898
 43823.0307870370 00:44:20/24-Dec-2019    1955.8600     116.5470      38.0400      -999.25      -999.25       0.0000       0.0000     246.0739      32.0000       1.2905
 43823.0309027778 00:44:30/24-Dec-2019    1955.9099     111.0788      37.9900      -999.25      -999.25      -999.25      -999.25     246.0049      32.0000       1.2901
 43823.0310185185 00:44:40/24-Dec-2019    1955.9099     107.3737      37.9900      -999.25      -999.25      -999.25      -999.25     246.0049      32.0000       1.2901
 43823.0311342593 00:44:50/24-Dec-2019    1955.8400     100.7846      38.0600      -999.25      -999.25      -999.25      -999.25     246.0739      32.0000       1.2905
 43823.0312500000 00:45:00/24-Dec-2019    1955.9399      94.5452      37.9600     159.0000      -999.25      -999.25      -999.25     246.3497      32.0000       1.2919
 43823.0313657407 00:45:10/24-Dec-2019    1955.9399      94.6484      37.9600      -999.25      -999.25      -999.25      -999.25     246.2118      32.0000       1.2911
 43823.0314814815 00:45:20/24-Dec-2019    1955.9500      97.2505      37.9500      -999.25      -999.25      -999.25      -999.25     246.1428      32.0000       1.2908
 43823.0315972222 00:45:30/24-Dec-2019    1956.0699      97.2841      37.8300      -999.25      -999.25      -999.25      -999.25     246.2807      33.0000       1.2914
 43823.0317129630 00:45:40/24-Dec-2019    1955.9900      95.3205      37.9100      -999.25      84.0000      -999.25      -999.25     246.1428      33.0000       1.2908
 43823.0318287037 00:45:50/24-Dec-2019    1956.0000      93.3569      37.9000      -999.25      -999.25       0.0000       0.0000     246.3497      33.0000       1.2918
 43823.0319444444 00:46:00/24-Dec-2019    1956.0099      93.5697      37.8900      -999.25      -999.25      -999.25      -999.25     246.2807      33.0000       1.2915
 43823.0320601852 00:46:10/24-Dec-2019    1955.9200      96.7515      37.9800      -999.25      -999.25      -999.25      -999.25     246.0739      33.0000       1.2904
 43823.0321759259 00:46:20/24-Dec-2019    1956.0499     100.6394      37.8500     157.0000      -999.25      -999.25      -999.25     246.2118      33.0000       1.2911
 43823.0322916667 00:46:30/24-Dec-2019    1956.0599     105.2256      37.8400      -999.25      -999.25      -999.25      -999.25     246.3497      33.0000       1.2918
 43823.0324074074 00:46:40/24-Dec-2019    1956.0699     105.8825      37.8300      -999.25      -999.25      -999.25      -999.25     246.2807      33.0000       1.2914
 43823.0325231481 00:46:50/24-Dec-2019    1956.1699     102.2545      37.7300      -999.25      -999.25      -999.25      -999.25     246.1428      33.0000       1.2906
 43823.0326388889 00:47:00/24-Dec-2019    1956.0900     101.4098      37.8100      -999.25     150.0000      -999.25      -999.25     246.1428      33.0000       1.2907
 43823.0327546296 00:47:10/24-Dec-2019    1956.1400     101.3169      37.7600      -999.25      -999.25       0.0000       0.0000     246.2807      33.0000       1.2914
 43823.0328703704 00:47:20/24-Dec-2019    1956.2400     102.0192      37.6600      -999.25      -999.25      -999.25      -999.25     246.2807      33.0000       1.2913
 43823.0329861111 00:47:30/24-Dec-2019    1956.1199     106.5075      37.7800      -999.25      -999.25      -999.25      -999.25     246.3497      33.0000       1.2917
 43823.0331018518 00:47:40/24-Dec-2019    1956.3199     108.5548      37.5800     150.0000      -999.25      -999.25      -999.25     246.2118      33.0000       1.2909
 43823.0332175926 00:47:50/24-Dec-2019    1956.1400     104.6085      37.7600      -999.25      -999.25      -999.25      -999.25     246.2118      33.0000       1.2910
