~VERSION INFORMATION 
VERS  .    2.0                                     :CWLS Log ASCII Standard - VERSION 2.0
WRAP  .    NO                                      :One Line per Time step
PROD  .    Schlumberger Technology Corp.           :LAS Producer
PROG  .    Horizon LASWriter 9.2.113335.3100       :LAS Program name and version
SOURCE.    Run 13-TimeLogicalAcq                   :Run&Pass Information
CREA  .    01/21/2020                              :LAS Creation date {MM/DD/YYYY}
#--------------------------------------------------
~WELL INFORMATION 
#MNEM           .UNIT                      DATA            :DESCRIPTION
#----            ------          --------------            -----------------------------
STRT            .d               43844.3958333334          :START TIME(OLE Automation date)
STOP            .d               43845.1666666667          :STOP TIME(OLE Automation date)
STEP            .d                            0            :STEP TIME(10s in time)
NULL            .                       -999.25            :NULL VALUE
COMP            .                       Equinor            :COMPANY
WELL            .                        31/5-7            :WELL NAME
FLD             .                           Eos            :FIELD NAME
RIGN            .                 West Hercules            :Rig Name
RIGTYP          .                Semi-Submersible          :Rig Type
SON             .                     19SCA0085            :Service Order Number
SRVC            .                  Schlumberger            :SERVICE COMPANY
DATE            .                    01/13/2020            :LOG DATE(Composite Date for Composite LAP) (MM/DD/YYYY)
CLAB            .                       County:            :County Label
CNTY            .                                          :COUNTY
SLAB            .                                          :State/Province Label
STAT            .                                          :STATE or PROVINCE
PROV            .                                          :STATE or PROVINCE
CTRY            .                        Norway            :COUNTRY
CONT_REGION     .                        Europe            :Continent Region
SECT            .                                          :Section
TOWN            .                                          :Township
RANG            .                                          :Range
API             .                                          :API NUMBER
UWI             .                                          :UNIQUE WELL ID
LUL             .                Service Office            :Logging Unit Location
LUN             .                          A615            :Logging Unit Number
LOC             .                Norwegian North Sea       :FIELD LOCATION
FL1             .                Section: 8 1/2 in.        :Field Location Line 1
FL2             .                Job no.: 19SCA0085        :Field Location Line 2
LATI            .deg             60° 34' 35.14" N          :LATITUDE
LONG            .deg             3° 26' 36.13" E           :LONGITUDE
PDAT            .                           MSL            :Local Permanent Datum
LMF             .                            DF            :Logging Measured From
APD             .m                        31.00            :Elevation of Depth Reference (LMF) Above Permanent Datum
EPD             .m                         0.00            :Elevation of Permanent Datum (PDAT) above Mean Sea Level
EKB             .m                      -999.25            :Elevation of Kelly Bushing Above Permanent Datum
EDF             .m                        31.00            :Elevation of Drill Floor Above Permanent Datum
EGL             .m                      -307.00            :Elevation of Ground Level Above Permanent Datum
ECF             .m                      -999.25            :Elevation of Casing Flange above Permanent Datum
#--------------------------------------------------
~CURVE INFORMATION
#MNEM           .UNIT                  API CODE            :DESCRIPTION
#----            ------          --------------            -----------------------------
TIME_1900       .d                                         :                                                        Time Index(OLE Automation date)
TIME            .s                                         :                                (10s)                   Time(hh mm ss/dd-MMM-yyyy)
DEPTH           .m                                         :(RT)    (DnMWorkflow)                                   Depth Index
BLKP            .m                                         :(RT)    (DRILLING_SURFACE)                              Height of block above rig floor
GR              .gAPI                                      :(RT)    (ARC6)                                          Gamma Ray
CRPM            .c/min                                     :(RT)    (TELE675)                                       Collar Rotational Speed
STICK           .c/min                                     :(RT)    (TELE675)                                       Stick Slip Indicator
SHKRSK          .                                          :(RT)    (TELE675)                                       Shock Risk
SHKPK           .gn                                        :(RT)    (TELE675)                                       Shock Peak
DHAT            .degC                                      :(RM)    (ARC6)                                          Downhole Annulus Temperature
DHAP            .bar                                       :(RM)    (ARC6)                                          Downhole Annulus Pressure
ECD             .g/cm3                                     :(RM)    (ARC6)                                          Equivalent Circulating Density
#-------------------------------------------------------------
#       TIME_1900                 TIME        DEPTH         BLKP           GR         CRPM        STICK       SHKRSK        SHKPK         DHAT         DHAP          ECD 
#                                       (DnMWorkfl)  (DRILLING_)       (ARC6)    (TELE675)    (TELE675)    (TELE675)    (TELE675)       (ARC6)       (ARC6)       (ARC6) 
#                                              (RT)         (RT)         (RT)         (RT)         (RT)         (RT)         (RT)         (RM)         (RM)         (RM) 
#                                (10s)                                                                                                                                   
~ASCII
# ...
 43844.9069444444 21:46:00/14-Jan-2020   2888.64990     21.01000     40.68646      -999.25      -999.25      -999.25      -999.25     45.00000    344.94470      1.22144
 43844.9070601852 21:46:10/14-Jan-2020   2888.75000     20.82000     41.96060      -999.25      -999.25      -999.25      -999.25     45.00000    343.56570      1.21650
 43844.9071759259 21:46:20/14-Jan-2020   2888.93018     20.73000     43.74033      -999.25      -999.25      0.00000      0.00000     45.00000    347.35790      1.22986
 43844.9072916667 21:46:30/14-Jan-2020   2888.56006     21.10000     45.34584      -999.25      -999.25      -999.25      -999.25     45.00000    340.39420      1.20536
 43844.9074074074 21:46:40/14-Jan-2020   2888.75000     20.91000     45.78743      -999.25      -999.25      -999.25      -999.25     45.00000    339.70470      1.20281
 43844.9075231481 21:46:50/14-Jan-2020   2889.20996     20.45000     44.84723      -999.25      -999.25      -999.25      -999.25     44.00000    345.56520      1.22339
 43844.9076388889 21:47:00/14-Jan-2020   2889.12012     20.54000     42.69560      -999.25      -999.25      -999.25      -999.25     44.00000    343.49680      1.21611
 43844.9077546296 21:47:10/14-Jan-2020   2888.93018     20.73000     39.54306      -999.25      -999.25      0.00000      0.00000     44.00000    343.77260      1.21716
 43844.9078703704 21:47:20/14-Jan-2020   2889.12012     20.54000     36.39053      -999.25      -999.25      -999.25      -999.25     44.00000    343.56570      1.21636
 43844.9079861111 21:47:30/14-Jan-2020   2889.20996     20.45000     34.23890      -999.25      -999.25      -999.25      -999.25     44.00000    345.22050      1.22219
 43844.9081018518 21:47:40/14-Jan-2020   2888.64990     21.01000      -999.25      -999.25      -999.25      -999.25      -999.25     44.00000    342.32470      1.21216
 43844.9082175926 21:47:50/14-Jan-2020   2889.12012     20.54000      -999.25      0.00000      -999.25      -999.25      -999.25     44.00000    343.56570      1.21634
 43844.9083333333 21:48:00/14-Jan-2020   2889.12012     20.54000     36.36234      -999.25      0.00000      -999.25      -999.25     44.00000    344.39310      1.21928
 43844.9084490741 21:48:10/14-Jan-2020   2888.93018     20.73000     37.67572      -999.25      -999.25      -999.25      -999.25     44.00000    342.87630      1.21399
 43844.9085648148 21:48:20/14-Jan-2020   2889.20996     20.45000     38.63091      -999.25      -999.25      -999.25      -999.25     44.00000    345.35840      1.22266
 43844.9086805556 21:48:30/14-Jan-2020   2888.75000     20.91000     40.21455      -999.25      -999.25      -999.25      -999.25     44.00000    343.42790      1.21603
 43844.9087962963 21:48:40/14-Jan-2020   2889.12012     20.54000     42.21277      -999.25      -999.25      -999.25      -999.25     44.00000    343.91050      1.21758
 43844.9089120370 21:48:50/14-Jan-2020   2889.20996     20.45000     44.35570      -999.25      -999.25      -999.25      -999.25     44.00000    345.01370      1.22145
 43844.9090277778 21:49:00/14-Jan-2020   2888.75000     20.91000     46.35392      -999.25      -999.25      0.00000      0.00000     44.00000    343.35890      1.21578
 43844.9091435185 21:49:10/14-Jan-2020   2889.20996     20.45000     47.93756      -999.25      -999.25      -999.25      -999.25     44.00000    345.28950      1.22241
 43844.9092592593 21:49:20/14-Jan-2020   2888.93018     20.73000     48.89274      -999.25      -999.25      -999.25      -999.25     44.00000    341.91100      1.21058
 43844.9093750000 21:49:30/14-Jan-2020   2889.20996     20.45000     43.98580      -999.25      -999.25      -999.25      -999.25     44.00000    342.73840      1.21338
 43844.9094907407 21:49:40/14-Jan-2020   2889.30005     20.36000     41.39780      -999.25      -999.25      -999.25      -999.25     44.00000    342.73840      1.21335
 43844.9096064815 21:49:50/14-Jan-2020   2889.20996     20.45000     40.70459      -999.25      -999.25      0.00000     15.98915     44.00000    343.56570      1.21632
 43844.9097222222 21:50:00/14-Jan-2020   2889.12012     20.54000     40.96937      -999.25      -999.25      -999.25      -999.25     44.00000    342.73840      1.21343
 43844.9098379630 21:50:10/14-Jan-2020   2889.02002     20.64000     41.82623      -999.25      -999.25      -999.25      -999.25     44.00000    343.01420      1.21445
 43844.9099537037 21:50:20/14-Jan-2020   2889.02002     20.64000     43.63039      -999.25      -999.25      -999.25      -999.25     44.00000    346.73730      1.22763
 43844.9100694444 21:50:30/14-Jan-2020   2889.12012     20.64000     44.94880      -999.25      -999.25      -999.25      -999.25     44.00000    347.15100      1.22906
 43844.9101851852 21:50:40/14-Jan-2020   2888.75000     20.91000     46.33082      -999.25      -999.25      -999.25      -999.25     44.00000    345.77210      1.22432
 43844.9103009259 21:50:50/14-Jan-2020   2888.66992     20.99000     47.97363      -999.25      -999.25      0.00000      0.00000     44.00000    345.91000      1.22485
 43844.9104166667 21:51:00/14-Jan-2020   2888.78003     20.88000     49.35566      -999.25      -999.25      -999.25      -999.25     44.00000    346.32370      1.22626
 43844.9105324074 21:51:10/14-Jan-2020   2888.63013     21.02000     51.30418      -999.25      -999.25      -999.25      -999.25     44.00000    345.22050      1.22242
 43844.9106481481 21:51:20/14-Jan-2020   2888.38989     21.26000     53.29086      -999.25      -999.25      -999.25      -999.25     44.00000    346.04790      1.22545
 43844.9107638889 21:51:30/14-Jan-2020   2888.21021     21.44000     51.46021     93.00000      -999.25      -999.25      -999.25     44.00000    347.35790      1.23017
 43844.9108796296 21:51:40/14-Jan-2020   2887.51001     22.13000     57.38092      -999.25      9.00000      0.00000      0.00000     43.00000    339.01520      1.20091
 43844.9109953704 21:51:50/14-Jan-2020   2887.10010     22.46000     73.52795      -999.25      -999.25      -999.25      -999.25     43.00000    339.63570      1.20327
 43844.9111111111 21:52:00/14-Jan-2020   2887.39990     22.06000     90.41998      -999.25      -999.25      -999.25      -999.25     43.00000    340.80790      1.20728
 43844.9112268519 21:52:10/14-Jan-2020   2887.25024     22.41000    103.16950      -999.25      -999.25      -999.25      -999.25     43.00000    340.46310      1.20615
 43844.9113425926 21:52:20/14-Jan-2020   2886.80981     22.65000    106.09880     94.00000      -999.25      -999.25      -999.25     43.00000    341.29050      1.20924
 43844.9114583333 21:52:30/14-Jan-2020   2887.12012     22.44000    106.81570      -999.25     39.00000      -999.25      -999.25     43.00000    347.90950      1.23257
 43844.9115740741 21:52:40/14-Jan-2020   2886.76001     22.90000    106.81570      -999.25      -999.25      0.00000      0.00000     43.00000    346.59950      1.22812
 43844.9116898148 21:52:50/14-Jan-2020   2886.28003     23.38000    106.09880      -999.25      -999.25      -999.25      -999.25     43.00000    349.77110      1.23956
 43844.9118055556 21:53:00/14-Jan-2020   2885.69019     23.97000    106.76810      -999.25      -999.25      -999.25      -999.25     43.00000    345.42730      1.22442
 43844.9119212963 21:53:10/14-Jan-2020   2884.93994     24.72000    108.76420      -999.25      -999.25      -999.25      -999.25     43.00000    345.15160      1.22375
 43844.9120370370 21:53:20/14-Jan-2020   2884.87012     24.79000    106.61260     95.00000      -999.25      -999.25      -999.25     43.00000    344.87570      1.22279
 43844.9121527778 21:53:30/14-Jan-2020   2884.67993     24.98000    103.46000      -999.25     30.00000      0.00000      0.00000     43.00000    341.08360      1.20943
 43844.9122685185 21:53:40/14-Jan-2020   2884.67993     24.98000    100.30750      -999.25      -999.25      -999.25      -999.25     43.00000    344.60000      1.22190
 43844.9123842593 21:53:50/14-Jan-2020   2884.10986     25.55000     98.15587      -999.25      -999.25      -999.25      -999.25     43.00000    340.46310      1.20747
