~VERSION INFORMATION 
VERS  .    2.0                                     :CWLS Log ASCII Standard - VERSION 2.0
WRAP  .    NO                                      :One Line per Time step
PROD  .    Schlumberger Technology Corp.           :LAS Producer
PROG  .    Horizon LASWriter 9.2.113335.3100       :LAS Program name and version
SOURCE.    Run 5-TimeLogicalAcq                    :Run&Pass Information
CREA  .    12/20/2019                              :LAS Creation date {MM/DD/YYYY}
#--------------------------------------------------
~WELL INFORMATION 
#MNEM           .UNIT                      DATA            :DESCRIPTION
#----            ------          --------------            -----------------------------
STRT            .d               43815.4062500000          :START TIME(OLE Automation date)
STOP            .d               43816.7395833333          :STOP TIME(OLE Automation date)
STEP            .d                            0            :STEP TIME(10s in time)
NULL            .                       -999.25            :NULL VALUE
COMP            .                       Equinor            :COMPANY
WELL            .                        31/5-7            :WELL NAME
FLD             .                           Eos            :FIELD NAME
RIGN            .                 West Hercules            :Rig Name
RIGTYP          .                Semi-Submersible          :Rig Type
SON             .                     19SCA0085            :Service Order Number
SRVC            .                  Schlumberger            :SERVICE COMPANY
DATE            .                    12/16/2019            :LOG DATE(Composite Date for Composite LAP) (MM/DD/YYYY)
CLAB            .                       County:            :County Label
CNTY            .                                          :COUNTY
SLAB            .                                          :State/Province Label
STAT            .                                          :STATE or PROVINCE
PROV            .                                          :STATE or PROVINCE
CTRY            .                        Norway            :COUNTRY
CONT_REGION     .                        Europe            :Continent Region
SECT            .                                          :Section
TOWN            .                                          :Township
RANG            .                                          :Range
API             .                                          :API NUMBER
UWI             .                                          :UNIQUE WELL ID
LUL             .                Service Office            :Logging Unit Location
LUN             .                          A615            :Logging Unit Number
LOC             .                Norwegian North Sea       :FIELD LOCATION
FL1             .                Section: 12 1/4 in. pilot :Field Location Line 1
FL2             .                Job no.: 19SCA0085        :Field Location Line 2
LATI            .deg             60° 34' 35.14" N          :LATITUDE
LONG            .deg             3° 26' 36.13" E           :LONGITUDE
PDAT            .                           MSL            :Local Permanent Datum
LMF             .                            DF            :Logging Measured From
APD             .m                        31.00            :Elevation of Depth Reference (LMF) Above Permanent Datum
EPD             .m                         0.00            :Elevation of Permanent Datum (PDAT) above Mean Sea Level
EKB             .m                      -999.25            :Elevation of Kelly Bushing Above Permanent Datum
EDF             .m                        31.00            :Elevation of Drill Floor Above Permanent Datum
EGL             .m                      -307.00            :Elevation of Ground Level Above Permanent Datum
ECF             .m                      -999.25            :Elevation of Casing Flange above Permanent Datum
#--------------------------------------------------
~CURVE INFORMATION
#MNEM           .UNIT                  API CODE            :DESCRIPTION
#----            ------          --------------            -----------------------------
TIME_1900       .d                                         :                                                        Time Index(OLE Automation date)
TIME            .s                                         :                                (10s)                   Time(hh mm ss/dd-MMM-yyyy)
DEPTH           .m                                         :(RT)    (DnMWorkflow)                                   Depth Index
GR              .gAPI                                      :(RT)    (ARC9)                                          Gamma Ray
BLKP            .m                                         :(RT)    (DRILLING_SURFACE)                              Height of block above rig floor
STICK           .c/min                                     :(RT)    (TELE900)                                       Stick Slip Indicator
CRPM            .c/min                                     :(RT)    (TELE900)                                       Collar Rotational Speed
SHKRSK          .                                          :(RT)    (TELE900)                                       Shock Risk
SHKPK           .gn                                        :(RT)    (TELE900)                                       Shock Peak
ECD             .g/cm3                                     :(RM)    (ARC9)                                          Equivalent Circulating Density
DHAP            .bar                                       :(RM)    (ARC9)                                          Downhole Annulus Pressure
DHAT            .degC                                      :(RM)    (ARC9)                                          Downhole Annulus Temperature
#-------------------------------------------------------------
#       TIME_1900                 TIME        DEPTH           GR         BLKP        STICK         CRPM       SHKRSK        SHKPK          ECD         DHAP         DHAT 
#                                       (DnMWorkfl)       (ARC9)  (DRILLING_)    (TELE900)    (TELE900)    (TELE900)    (TELE900)       (ARC9)       (ARC9)       (ARC9) 
#                                              (RT)         (RT)         (RT)         (RT)         (RT)         (RT)         (RT)         (RM)         (RM)         (RM) 
#                                (10s)                                                                                                                                   
~ASCII
# ...
 43816.3951388889 09:29:00/17-Dec-2019    1677.6400      -999.25      43.2300      -999.25      -999.25      -999.25      -999.25       1.2807     209.2559      33.0000
 43816.3952546296 09:29:10/17-Dec-2019    1677.6500      -999.25      43.2200      -999.25      -999.25      -999.25      -999.25       1.2765     208.5664      32.0000
 43816.3953703704 09:29:20/17-Dec-2019    1677.6801      -999.25      43.1900      -999.25      -999.25      -999.25      -999.25       1.2824     209.5317      32.0000
 43816.3954861111 09:29:30/17-Dec-2019    1677.7001      -999.25      43.1700      -999.25      -999.25      -999.25      -999.25       1.2760     208.4975      32.0000
 43816.3956018519 09:29:40/17-Dec-2019    1677.7001      -999.25      43.1600      -999.25      -999.25      -999.25      -999.25       1.2807     209.2559      32.0000
 43816.3957175926 09:29:50/17-Dec-2019    1677.7001      -999.25      43.1600      -999.25      -999.25      -999.25      -999.25       1.2769     208.6354      32.0000
 43816.3958333333 09:30:00/17-Dec-2019    1677.7001      -999.25      43.1600      -999.25      -999.25      -999.25      -999.25       1.2760     208.4975      32.0000
 43816.3959490741 09:30:10/17-Dec-2019    1677.7001      -999.25      43.1600      -999.25      -999.25      -999.25      -999.25       1.2735     208.0838      32.0000
 43816.3960648148 09:30:20/17-Dec-2019    1677.7001      -999.25      43.1700      -999.25      -999.25      -999.25      -999.25       1.2815     209.3938      32.0000
 43816.3961805556 09:30:30/17-Dec-2019    1677.7001      -999.25      43.3800      -999.25      -999.25      -999.25      -999.25       1.2727     207.9459      32.0000
 43816.3962962963 09:30:40/17-Dec-2019    1677.7001      -999.25      43.5500      -999.25      -999.25      -999.25      -999.25       1.2777     208.7732      32.0000
 43816.3964120370 09:30:50/17-Dec-2019    1677.7001      -999.25      36.4500      -999.25      -999.25      -999.25      -999.25       1.2782     208.8422      32.0000
 43816.3965277778 09:31:00/17-Dec-2019    1677.7001      -999.25      23.2300      -999.25      -999.25      -999.25      -999.25       1.2777     208.7732      32.0000
 43816.3966435185 09:31:10/17-Dec-2019    1677.7001      -999.25      22.3700      -999.25      -999.25      -999.25      -999.25       1.2798     209.1180      32.0000
 43816.3967592593 09:31:20/17-Dec-2019    1677.7001      -999.25      22.3700      -999.25      -999.25      -999.25      -999.25       1.2731     208.0148      32.0000
 43816.3968750000 09:31:30/17-Dec-2019    1677.7001      -999.25      22.3700      -999.25      -999.25      -999.25      -999.25       1.2815     209.3938      32.0000
 43816.3969907407 09:31:40/17-Dec-2019    1677.7001      -999.25      22.3700      -999.25      -999.25      -999.25      -999.25       1.2744     208.2217      32.0000
 43816.3971064815 09:31:50/17-Dec-2019    1677.7001      -999.25      22.3700      -999.25      -999.25      -999.25      -999.25       1.2663     206.9117      32.0000
 43816.3972222222 09:32:00/17-Dec-2019    1677.7001      -999.25      22.3700      -999.25      -999.25      -999.25      -999.25       1.2701     207.5322      32.0000
 43816.3973379630 09:32:10/17-Dec-2019    1677.7001      -999.25      22.3700      -999.25      -999.25      -999.25      -999.25       1.2756     208.4285      32.0000
 43816.3974537037 09:32:20/17-Dec-2019    1677.7001      -999.25      16.1000      -999.25      -999.25      -999.25      -999.25       1.2798     209.1180      32.0000
 43816.3975694444 09:32:30/17-Dec-2019    1677.7001      -999.25       6.0400      -999.25      -999.25      -999.25      -999.25       1.2815     209.3938      32.0000
 43816.3976851852 09:32:40/17-Dec-2019    1677.7001      -999.25       4.9400      -999.25      -999.25      -999.25      -999.25       1.2676     207.1185      32.0000
 43816.3978009259 09:32:50/17-Dec-2019    1677.7001      -999.25       4.9400      -999.25      -999.25      -999.25      -999.25       1.2638     206.4980      32.0000
 43816.3979166667 09:33:00/17-Dec-2019    1677.7001      -999.25       4.8300      -999.25      -999.25      -999.25      -999.25       1.2760     208.4975      32.0000
 43816.3980324074 09:33:10/17-Dec-2019    1677.7001      -999.25       4.4900      -999.25      -999.25      -999.25      -999.25       1.2748     208.2906      32.0000
 43816.3981481481 09:33:20/17-Dec-2019    1677.7001      -999.25       4.4000      -999.25      -999.25      -999.25      -999.25       1.2727     207.9459      32.0000
 43816.3982638889 09:33:30/17-Dec-2019    1677.7001      -999.25       4.3200      -999.25      -999.25      -999.25      -999.25       1.2777     208.7732      32.0000
 43816.3983796296 09:33:40/17-Dec-2019    1677.7001      -999.25       4.2900      -999.25      -999.25      -999.25      -999.25       1.2798     209.1180      32.0000
 43816.3984953704 09:33:50/17-Dec-2019    1677.7001      -999.25       4.2600      -999.25      -999.25      -999.25      -999.25       1.2706     207.6011      32.0000
 43816.3986111111 09:34:00/17-Dec-2019    1677.7001      -999.25       4.2500      -999.25      -999.25      -999.25      -999.25       1.2693     207.3943      32.0000
 43816.3987268518 09:34:10/17-Dec-2019    1677.7001      -999.25       4.2600      -999.25      -999.25      -999.25      -999.25       1.2718     207.8080      32.0000
 43816.3988425926 09:34:20/17-Dec-2019    1677.3800      -999.25       4.3600      -999.25      -999.25      -999.25      -999.25       1.2668     206.9806      32.0000
 43816.3989583333 09:34:30/17-Dec-2019    1677.3500      -999.25       4.3900      -999.25      -999.25      -999.25      -999.25       1.2649     206.6359      32.0000
 43816.3990740741 09:34:40/17-Dec-2019    1677.3500      -999.25       4.3900      -999.25      -999.25      -999.25      -999.25       1.2826     209.5317      32.0000
 43816.3991898148 09:34:50/17-Dec-2019    1677.3500      -999.25       4.3900      -999.25      -999.25      -999.25      -999.25       1.2856     210.0143      32.0000
 43816.3993055556 09:35:00/17-Dec-2019    1677.3500      -999.25       4.3900      -999.25      -999.25      -999.25      -999.25       1.2721     207.8080      32.0000
 43816.3994212963 09:35:10/17-Dec-2019    1677.3500      -999.25       4.3900      -999.25      -999.25      -999.25      -999.25       1.2810     209.2559      32.0000
 43816.3995370370 09:35:20/17-Dec-2019    1677.3500      -999.25       4.3900      -999.25      -999.25      -999.25      -999.25       1.2822     209.4627      32.0000
 43816.3996527778 09:35:30/17-Dec-2019    1677.3500      -999.25       4.3900      -999.25      -999.25      -999.25      -999.25       1.2835     209.6696      32.0000
 43816.3997685185 09:35:40/17-Dec-2019    1677.3500      -999.25       4.3900      -999.25      -999.25      -999.25      -999.25       1.2877     210.3590      32.0000
 43816.3998842593 09:35:50/17-Dec-2019    1677.3500      -999.25       4.3900      -999.25      -999.25      -999.25      -999.25       1.2843     209.8075      32.0000
 43816.4000000000 09:36:00/17-Dec-2019    1677.2900      -999.25       4.4500      -999.25      -999.25      -999.25      -999.25       1.2801     209.1180      32.0000
 43816.4001157407 09:36:10/17-Dec-2019    1676.8899      -999.25       4.8500      -999.25      -999.25      -999.25      -999.25       1.2847     209.8075      32.0000
 43816.4002314815 09:36:20/17-Dec-2019    1676.5100      -999.25       5.2300      -999.25      -999.25      -999.25      -999.25       1.2803     209.0490      32.0000
 43816.4003472222 09:36:30/17-Dec-2019    1676.2201      -999.25       5.5200      -999.25      -999.25      -999.25      -999.25       1.2827     209.3938      32.0000
 43816.4004629630 09:36:40/17-Dec-2019    1675.8999      -999.25       5.8300      -999.25      -999.25      -999.25      -999.25       1.2879     210.2212      32.0000
 43816.4005787037 09:36:50/17-Dec-2019    1675.4800      -999.25       6.2400      -999.25      -999.25      -999.25      -999.25       1.2853     209.7385      32.0000
