~VERSION INFORMATION 
VERS  .    2.0                                     :CWLS Log ASCII Standard - VERSION 2.0
WRAP  .    NO                                      :One Line per Time step
PROD  .    Schlumberger Technology Corp.           :LAS Producer
PROG  .    Horizon LASWriter 9.2.113335.3100       :LAS Program name and version
SOURCE.    Run 9-TimeLogicalAcq                    :Run&Pass Information
CREA  .    01/21/2020                              :LAS Creation date {MM/DD/YYYY}
#--------------------------------------------------
~WELL INFORMATION 
#MNEM           .UNIT                      DATA            :DESCRIPTION
#----            ------          --------------            -----------------------------
STRT            .d               43828.3333333334          :START TIME(OLE Automation date)
STOP            .d               43829.1041666667          :STOP TIME(OLE Automation date)
STEP            .d                            0            :STEP TIME(10s in time)
NULL            .                       -999.25            :NULL VALUE
COMP            .                       Equinor            :COMPANY
WELL            .                        31/5-7            :WELL NAME
FLD             .                           Eos            :FIELD NAME
RIGN            .                 West Hercules            :Rig Name
RIGTYP          .                Semi-Submersible          :Rig Type
SON             .                     19SCA0085            :Service Order Number
SRVC            .                  Schlumberger            :SERVICE COMPANY
DATE            .                    12/29/2019            :LOG DATE(Composite Date for Composite LAP) (MM/DD/YYYY)
CLAB            .                       County:            :County Label
CNTY            .                                          :COUNTY
SLAB            .                                          :State/Province Label
STAT            .                                          :STATE or PROVINCE
PROV            .                                          :STATE or PROVINCE
CTRY            .                        Norway            :COUNTRY
CONT_REGION     .                        Europe            :Continent Region
SECT            .                                          :Section
TOWN            .                                          :Township
RANG            .                                          :Range
API             .                                          :API NUMBER
UWI             .                                          :UNIQUE WELL ID
LUL             .                Service Office            :Logging Unit Location
LUN             .                          A615            :Logging Unit Number
LOC             .                Norwegian North Sea       :FIELD LOCATION
FL1             .                Section: 8 1/2 in.        :Field Location Line 1
FL2             .                Job no.: 19SCA0085        :Field Location Line 2
LATI            .deg             60° 34' 35.14" N          :LATITUDE
LONG            .deg             3° 26' 36.13" E           :LONGITUDE
PDAT            .                           MSL            :Local Permanent Datum
LMF             .                            DF            :Logging Measured From
APD             .m                        31.00            :Elevation of Depth Reference (LMF) Above Permanent Datum
EPD             .m                         0.00            :Elevation of Permanent Datum (PDAT) above Mean Sea Level
EKB             .m                      -999.25            :Elevation of Kelly Bushing Above Permanent Datum
EDF             .m                        31.00            :Elevation of Drill Floor Above Permanent Datum
EGL             .m                      -307.00            :Elevation of Ground Level Above Permanent Datum
ECF             .m                      -999.25            :Elevation of Casing Flange above Permanent Datum
#--------------------------------------------------
~CURVE INFORMATION
#MNEM           .UNIT                  API CODE            :DESCRIPTION
#----            ------          --------------            -----------------------------
TIME_1900       .d                                         :                                                        Time Index(OLE Automation date)
TIME            .s                                         :                                (10s)                   Time(hh mm ss/dd-MMM-yyyy)
DEPTH           .m                                         :(RT)    (DnMWorkflow)                                   Depth Index
BLKP            .m                                         :(RT)    (DRILLING_SURFACE)                              Height of block above rig floor
GR              .gAPI                                      :(RT)    (ARC6)                                          Gamma Ray
CRPM            .c/min                                     :(RT)    (TELE675)                                       Collar Rotational Speed
STICK           .c/min                                     :(RT)    (TELE675)                                       Stick Slip Indicator
SHKRSK          .                                          :(RT)    (TELE675)                                       Shock Risk
SHKPK           .gn                                        :(RT)    (TELE675)                                       Shock Peak
DHAT            .degC                                      :(RM)    (ARC6)                                          Downhole Annulus Temperature
DHAP            .bar                                       :(RM)    (ARC6)                                          Downhole Annulus Pressure
ECD             .g/cm3                                     :(RM)    (ARC6)                                          Equivalent Circulating Density
#-------------------------------------------------------------
#       TIME_1900                 TIME        DEPTH         BLKP           GR         CRPM        STICK       SHKRSK        SHKPK         DHAT         DHAP          ECD 
#                                       (DnMWorkfl)  (DRILLING_)       (ARC6)    (TELE675)    (TELE675)    (TELE675)    (TELE675)       (ARC6)       (ARC6)       (ARC6) 
#                                              (RT)         (RT)         (RT)         (RT)         (RT)         (RT)         (RT)         (RM)         (RM)         (RM) 
#                                (10s)                                                                                                                                   
~ASCII
# ...
 43828.6944444444 16:40:00/29-Dec-2019   2584.60986     17.48000     69.17097    108.00000    306.00000      -999.25      -999.25     35.00000    304.12780      1.20404
 43828.6945601852 16:40:10/29-Dec-2019   2583.88989     18.20000     74.37647      -999.25      -999.25      0.00000      0.00000     35.00000    299.43930      1.18573
 43828.6946759259 16:40:20/29-Dec-2019   2583.43994     18.65000     78.75561      -999.25      -999.25      -999.25      -999.25     35.00000    299.78400      1.18740
 43828.6947916667 16:40:30/29-Dec-2019   2583.11011     18.98000     78.53016      -999.25      -999.25      -999.25      -999.25     35.00000    302.47300      1.19813
 43828.6949074074 16:40:40/29-Dec-2019   2582.83008     19.26000     74.50381      -999.25      -999.25      -999.25      -999.25     35.00000    301.64560      1.19501
 43828.6950231481 16:40:50/29-Dec-2019   2582.59009     19.50000     76.20824     97.00000      -999.25      -999.25      -999.25     35.00000    301.99040      1.19646
 43828.6951388889 16:41:00/29-Dec-2019   2582.47998     19.61000     78.70556      -999.25    381.00000      0.00000      0.00000     35.00000    300.81830      1.19187
 43828.6952546296 16:41:10/29-Dec-2019   2582.43994     19.65000     81.20288      -999.25      -999.25      -999.25      -999.25     35.00000    299.78400      1.18780
 43828.6953703704 16:41:20/29-Dec-2019   2582.07007     20.02000     82.90731      -999.25      -999.25      -999.25      -999.25     35.00000    299.64620      1.18739
 43828.6954861111 16:41:30/29-Dec-2019   2581.21021     20.88000     74.50643      -999.25      -999.25      -999.25      -999.25     35.00000    299.30140      1.18652
 43828.6956018518 16:41:40/29-Dec-2019   2580.14990     21.94000     71.77229     66.00000      -999.25      -999.25      -999.25     35.00000    300.68040      1.19237
 43828.6957175926 16:41:50/29-Dec-2019   2579.13989     22.95000     72.59937      -999.25    333.00000      -999.25      -999.25     35.00000    299.43930      1.18791
 43828.6958333333 16:42:00/29-Dec-2019   2578.36011     23.73000     72.50243      -999.25      -999.25      0.00000      0.00000     35.00000    299.78400      1.18969
 43828.6959490741 16:42:10/29-Dec-2019   2578.36011     23.73000     71.51221      -999.25      -999.25      -999.25      -999.25     35.00000    301.16300      1.19516
 43828.6960648148 16:42:20/29-Dec-2019   2578.36011     23.73000     68.95178      -999.25      -999.25      -999.25      -999.25     35.00000    299.50830      1.18859
 43828.6961805556 16:42:30/29-Dec-2019   2578.36011     23.73000     63.64217      -999.25      -999.25      -999.25      -999.25     35.00000    302.26620      1.19954
 43828.6962962963 16:42:40/29-Dec-2019   2578.36011     23.73000     60.23065     34.00000      -999.25      -999.25      -999.25     35.00000    301.64560      1.19711
 43828.6964120370 16:42:50/29-Dec-2019   2578.17993     23.91000     61.37230      -999.25     78.00000      0.00000      0.00000     35.00000    301.99040      1.19844
 43828.6965277778 16:43:00/29-Dec-2019   2578.26978     23.82000     68.30905      -999.25      -999.25      -999.25      -999.25     35.00000    300.68040      1.19328
 43828.6966435185 16:43:10/29-Dec-2019   2578.36011     23.73000     70.24766      -999.25      -999.25      -999.25      -999.25     35.00000    300.68040      1.19324
 43828.6967592593 16:43:20/29-Dec-2019   2578.36011     23.73000     69.15552      -999.25      -999.25      -999.25      -999.25     35.00000    301.09400      1.19488
 43828.6968750000 16:43:30/29-Dec-2019   2578.36011     23.73000     67.60467      -999.25      -999.25      -999.25      -999.25     35.00000    300.95620      1.19434
 43828.6969907407 16:43:40/29-Dec-2019   2578.36011     23.73000     66.59862      -999.25      -999.25      -999.25      -999.25     35.00000    299.71510      1.18941
 43828.6971064815 16:43:50/29-Dec-2019   2578.54004     23.55000     65.41331      -999.25      -999.25      -999.25      -999.25     35.00000    301.09400      1.19488
 43828.6972222222 16:44:00/29-Dec-2019   2578.36011     23.73000     64.29063      -999.25      -999.25      -999.25      -999.25     35.00000    298.54300      1.18476
 43828.6973379630 16:44:10/29-Dec-2019   2578.36011     23.73000     63.47782      -999.25      -999.25      -999.25      -999.25     35.00000    300.68040      1.19324
 43828.6974537037 16:44:20/29-Dec-2019   2578.54004     23.55000     63.18703      -999.25      -999.25      -999.25      -999.25     35.00000    301.16300      1.19512
 43828.6975694444 16:44:30/29-Dec-2019   2578.54004     23.55000     63.55957      -999.25      -999.25      -999.25      -999.25     35.00000    298.54300      1.18468
 43828.6976851852 16:44:40/29-Dec-2019   2578.54004     23.55000     64.64065      -999.25      -999.25      -999.25      -999.25     35.00000    301.09400      1.19480
 43828.6978009259 16:44:50/29-Dec-2019   2578.54004     23.55000     66.36863      -999.25      -999.25      -999.25      -999.25     35.00000    301.36980      1.19590
 43828.6979166667 16:45:00/29-Dec-2019   2578.54004     23.55000     68.58041      -999.25      -999.25      -999.25      -999.25     35.00000    298.88770      1.18605
 43828.6980324074 16:45:10/29-Dec-2019   2578.54004     23.55000     71.03245      -999.25      -999.25      -999.25      -999.25     35.00000    299.43930      1.18823
 43828.6981481481 16:45:20/29-Dec-2019   2578.54004     23.55000     73.43418      -999.25      -999.25      -999.25      -999.25     35.00000    299.78400      1.18960
 43828.6982638889 16:45:30/29-Dec-2019   2578.54004     23.55000     75.48922      -999.25      -999.25      0.00000      0.00000     35.00000    298.88770      1.18605
 43828.6983796296 16:45:40/29-Dec-2019   2578.54004     23.55000     76.93765      -999.25      -999.25      -999.25      -999.25     35.00000    298.95670      1.18632
 43828.6984953704 16:45:50/29-Dec-2019   2578.54004     23.55000     77.09383      -999.25      -999.25      -999.25      -999.25     35.00000    298.81880      1.18577
 43828.6986111111 16:46:00/29-Dec-2019   2578.54004     23.55000     75.89330      -999.25      -999.25      -999.25      -999.25     35.00000    299.09460      1.18687
 43828.6987268519 16:46:10/29-Dec-2019   2578.54004     23.55000     74.53576      -999.25      -999.25      -999.25      -999.25     35.00000    299.50830      1.18851
 43828.6988425926 16:46:20/29-Dec-2019   2578.54004     23.55000     74.11625      -999.25      -999.25      0.00000      0.00000     35.00000    299.85300      1.18988
 43828.6989583333 16:46:30/29-Dec-2019   2578.54004     23.55000     75.21453      -999.25      -999.25      -999.25      -999.25     35.00000    298.95670      1.18632
 43828.6990740741 16:46:40/29-Dec-2019   2578.54004     23.55000     78.63731      -999.25      -999.25      -999.25      -999.25     35.00000    299.37040      1.18796
 43828.6991898148 16:46:50/29-Dec-2019   2578.54004     23.55000     83.61803      -999.25      -999.25      -999.25      -999.25     35.00000    299.85300      1.18988
 43828.6993055556 16:47:00/29-Dec-2019   2578.54004     23.55000     80.20916      -999.25      -999.25      -999.25      -999.25     35.00000    299.92190      1.19015
 43828.6994212963 16:47:10/29-Dec-2019   2578.54004     23.55000     75.21453      -999.25      -999.25      0.00000      0.00000     35.00000    299.99090      1.19042
 43828.6995370370 16:47:20/29-Dec-2019   2578.54004     23.55000     70.21989      -999.25      -999.25      -999.25      -999.25     35.00000    297.99140      1.18249
 43828.6996527778 16:47:30/29-Dec-2019   2578.54004     23.55000     66.81102      -999.25      -999.25      -999.25      -999.25     35.00000    299.57720      1.18878
 43828.6997685185 16:47:40/29-Dec-2019   2578.85010     23.24000     66.44042      -999.25      -999.25      -999.25      -999.25     35.00000    302.12830      1.19880
 43828.6998842593 16:47:50/29-Dec-2019   2578.46997     23.62000      -999.25      -999.25      -999.25      -999.25      -999.25     35.00000    298.88770      1.18601
