~VERSION INFORMATION 
VERS  .    2.0                                     :CWLS Log ASCII Standard - VERSION 2.0
WRAP  .    NO                                      :One Line per Time step
PROD  .    Schlumberger Technology Corp.           :LAS Producer
PROG  .    Horizon LASWriter 9.2.113335.3100       :LAS Program name and version
SOURCE.    Run 7-TimeLogicalAcq                    :Run&Pass Information
CREA  .    12/27/2019                              :LAS Creation date {MM/DD/YYYY}
#--------------------------------------------------
~WELL INFORMATION 
#MNEM           .UNIT                      DATA            :DESCRIPTION
#----            ------          --------------            -----------------------------
STRT            .d               43818.4166666667          :START TIME(OLE Automation date)
STOP            .d               43819.7083333333          :STOP TIME(OLE Automation date)
STEP            .d                            0            :STEP TIME(10s in time)
NULL            .                       -999.25            :NULL VALUE
COMP            .                       Equinor            :COMPANY
WELL            .                        31/5-7            :WELL NAME
FLD             .                           Eos            :FIELD NAME
RIGN            .                 West Hercules            :Rig Name
RIGTYP          .                Semi-Submersible          :Rig Type
SON             .                     19SCA0085            :Service Order Number
SRVC            .                  Schlumberger            :SERVICE COMPANY
DATE            .                    12/19/2019            :LOG DATE(Composite Date for Composite LAP) (MM/DD/YYYY)
CLAB            .                       County:            :County Label
CNTY            .                                          :COUNTY
SLAB            .                                          :State/Province Label
STAT            .                                          :STATE or PROVINCE
PROV            .                                          :STATE or PROVINCE
CTRY            .                        Norway            :COUNTRY
CONT_REGION     .                        Europe            :Continent Region
SECT            .                                          :Section
TOWN            .                                          :Township
RANG            .                                          :Range
API             .                                          :API NUMBER
UWI             .                                          :UNIQUE WELL ID
LUL             .                Service Office            :Logging Unit Location
LUN             .                          A615            :Logging Unit Number
LOC             .                Norwegian North Sea       :FIELD LOCATION
FL1             .                Section: 12 1/4 x 17 1/5 in.:Field Location Line 1
FL2             .                Job no.: 19SCA0085        :Field Location Line 2
LATI            .deg             60° 34' 35.14" N          :LATITUDE
LONG            .deg             3° 26' 36.13" E           :LONGITUDE
PDAT            .                           MSL            :Local Permanent Datum
LMF             .                            DF            :Logging Measured From
APD             .m                        31.00            :Elevation of Depth Reference (LMF) Above Permanent Datum
EPD             .m                         0.00            :Elevation of Permanent Datum (PDAT) above Mean Sea Level
EKB             .m                      -999.25            :Elevation of Kelly Bushing Above Permanent Datum
EDF             .m                        31.00            :Elevation of Drill Floor Above Permanent Datum
EGL             .m                      -307.00            :Elevation of Ground Level Above Permanent Datum
ECF             .m                      -999.25            :Elevation of Casing Flange above Permanent Datum
#--------------------------------------------------
~CURVE INFORMATION
#MNEM           .UNIT                  API CODE            :DESCRIPTION
#----            ------          --------------            -----------------------------
TIME_1900       .d                                         :                                                        Time Index(OLE Automation date)
TIME            .s                                         :                                (10s)                   Time(hh mm ss/dd-MMM-yyyy)
DEPTH           .m                                         :(RT)    (DnMWorkflow)                                   Depth Index
BLKP            .m                                         :(RT)    (DRILLING_SURFACE)                              Height of block above rig floor
GR_CAL          .gAPI                                      :(RT)    (ARC9)                                          Calibrated Gamma Ray
STICK           .c/min                                     :(RT)    (TELE900)                                       Stick Slip Indicator
CRPM            .c/min                                     :(RT)    (TELE900)                                       Collar Rotational Speed
SHKRSK          .                                          :(RT)    (TELE900)                                       Shock Risk
SHKPK           .gn                                        :(RT)    (TELE900)                                       Shock Peak
DHAT            .degC                                      :(RM)    (ARC9)                                          Downhole Annulus Temperature
DHAP            .bar                                       :(RM)    (ARC9)                                          Downhole Annulus Pressure
ECD             .g/cm3                                     :(RM)    (ARC9)                                          Equivalent Circulating Density
#-------------------------------------------------------------
#       TIME_1900                 TIME        DEPTH         BLKP       GR_CAL        STICK         CRPM       SHKRSK        SHKPK         DHAT         DHAP          ECD 
#                                       (DnMWorkfl)  (DRILLING_)       (ARC9)    (TELE900)    (TELE900)    (TELE900)    (TELE900)       (ARC9)       (ARC9)       (ARC9) 
#                                              (RT)         (RT)         (RT)         (RT)         (RT)         (RT)         (RT)         (RM)         (RM)         (RM) 
#                                (10s)                                                                                                                                   
~ASCII
# ...
 43819.0444444444 01:04:00/20-Dec-2019   1584.95996     27.63000    155.24750      -999.25      -999.25      -999.25      -999.25     31.00000    199.25850      1.29310
 43819.0445601852 01:04:10/20-Dec-2019   1585.05005     27.54000    156.61540      -999.25      -999.25      -999.25      -999.25     31.00000    199.46530      1.29436
 43819.0446759259 01:04:20/20-Dec-2019   1584.95996     27.63000    157.52490      -999.25      -999.25      -999.25      -999.25     31.00000    199.18950      1.29267
 43819.0447916667 01:04:30/20-Dec-2019   1584.87000     27.72000    157.96650      -999.25      -999.25      -999.25      -999.25     31.00000    199.53430      1.29496
 43819.0449074074 01:04:40/20-Dec-2019   1585.13989     27.45000    158.00090      -999.25      -999.25      -999.25      -999.25     31.00000    199.46530      1.29431
 43819.0450231481 01:04:50/20-Dec-2019   1585.05005     27.54000    157.74380      -999.25      -999.25      -999.25      -999.25     31.00000    199.25850      1.29302
 43819.0451388889 01:05:00/20-Dec-2019   1585.13989     27.45000    157.34200      -999.25      -999.25      -999.25      -999.25     31.00000    199.39640      1.29387
 43819.0452546296 01:05:10/20-Dec-2019   1585.05005     27.54000    156.94560      -999.25      -999.25      0.00000      0.00000     31.00000    199.25850      1.29302
 43819.0453703704 01:05:20/20-Dec-2019   1585.05005     27.54000    156.67990      -999.25      -999.25      -999.25      -999.25     31.00000    198.84480      1.29034
 43819.0454861111 01:05:30/20-Dec-2019   1585.05005     27.54000    165.66160      -999.25      -999.25      -999.25      -999.25     31.00000    199.25850      1.29302
 43819.0456018519 01:05:40/20-Dec-2019   1585.05005     27.54000    166.87810      -999.25      -999.25      -999.25      -999.25     31.00000    199.18950      1.29257
 43819.0457175926 01:05:50/20-Dec-2019   1585.05005     27.54000    161.78040      -999.25      -999.25      0.00000      0.00000     31.00000    199.67220      1.29571
 43819.0458333333 01:06:00/20-Dec-2019   1585.54993     27.04000    152.12020      -999.25      -999.25      -999.25      -999.25     31.00000    199.81010      1.29617
 43819.0459490741 01:06:10/20-Dec-2019   1586.07996     26.51000    142.61490      -999.25      -999.25      -999.25      -999.25     31.00000    199.60320      1.29440
 43819.0460648148 01:06:20/20-Dec-2019   1586.66003     25.90000    137.91590      -999.25      -999.25      -999.25      -999.25     31.00000    199.53430      1.29348
 43819.0461805556 01:06:30/20-Dec-2019   1587.22998     25.36000    139.24400      -999.25      -999.25      -999.25      -999.25     31.00000    199.81010      1.29480
 43819.0462962963 01:06:40/20-Dec-2019   1587.82007     24.77000    144.69820      -999.25    218.00000      0.00000      0.00000     31.00000    199.81010      1.29431
 43819.0464120370 01:06:50/20-Dec-2019   1588.26990     24.32000    150.15240    153.00000      -999.25      -999.25      -999.25     31.00000    199.87900      1.29440
 43819.0465277778 01:07:00/20-Dec-2019   1588.39001     24.20000    153.05460      -999.25      -999.25      -999.25      -999.25     31.00000    200.22380      1.29653
 43819.0466435185 01:07:10/20-Dec-2019   1588.60010     23.99000    154.42860      -999.25      -999.25      -999.25      -999.25     31.00000    200.15480      1.29591
 43819.0467592593 01:07:20/20-Dec-2019   1588.89990     23.69000    155.91080      -999.25    165.00000      0.00000      0.00000     31.00000    200.01690      1.29479
 43819.0468750000 01:07:30/20-Dec-2019   1589.13000     23.46000    157.84550    297.00000      -999.25      -999.25      -999.25     30.00000    200.15480      1.29547
 43819.0469907407 01:07:40/20-Dec-2019   1589.33997     23.25000    159.32760      -999.25      -999.25      -999.25      -999.25     30.00000    199.87900      1.29351
 43819.0471064815 01:07:50/20-Dec-2019   1589.46997     23.12000    158.13480      -999.25      -999.25      -999.25      -999.25     30.00000    200.08590      1.29474
 43819.0472222222 01:08:00/20-Dec-2019   1589.67993     22.91000    156.75530      -999.25    196.00000      -999.25      -999.25     30.00000    199.74110      1.29234
 43819.0473379630 01:08:10/20-Dec-2019   1589.82996     22.76000    156.17100    381.00000      -999.25      0.00000      0.00000     30.00000    199.87900      1.29312
 43819.0474537037 01:08:20/20-Dec-2019   1589.97998     22.61000    156.75530      -999.25      -999.25      -999.25      -999.25     30.00000    200.01690      1.29388
 43819.0475694444 01:08:30/20-Dec-2019   1590.18994     22.40000    157.54260      -999.25      -999.25      -999.25      -999.25     30.00000    199.87900      1.29282
 43819.0476851852 01:08:40/20-Dec-2019   1590.28003     22.31000    156.64600      -999.25      -999.25      -999.25      -999.25     30.00000    200.29270      1.29542
 43819.0478009259 01:08:50/20-Dec-2019   1590.37000     22.22000    156.31240      -999.25    239.00000      0.00000      0.00000     30.00000    200.08590      1.29401
 43819.0479166667 01:09:00/20-Dec-2019   1590.79004     21.79000    156.91380    285.00000      -999.25      -999.25      -999.25     30.00000    200.22380      1.29456
 43819.0480324074 01:09:10/20-Dec-2019   1590.94006     21.64000    155.70190      -999.25      -999.25      -999.25      -999.25     30.00000    200.08590      1.29354
 43819.0481481481 01:09:20/20-Dec-2019   1591.06995     21.52000    151.08020      -999.25      -999.25      -999.25      -999.25     30.00000    200.08590      1.29344
 43819.0482638889 01:09:30/20-Dec-2019   1591.20007     21.38000    150.18500      -999.25    235.00000      0.00000      0.00000     31.00000    200.49960      1.29600
 43819.0483796296 01:09:40/20-Dec-2019   1591.47009     21.12000    150.18500    381.00000      -999.25      -999.25      -999.25     31.00000    200.63740      1.29667
 43819.0484953704 01:09:50/20-Dec-2019   1591.55994     21.03000    151.08020      -999.25      -999.25      -999.25      -999.25     31.00000    200.77530      1.29749
 43819.0486111111 01:10:00/20-Dec-2019   1591.75000     20.83000    153.98920      -999.25      -999.25      -999.25      -999.25     31.00000    200.49960      1.29555
 43819.0487268518 01:10:10/20-Dec-2019   1591.95996     20.63000    151.97050      -999.25      -999.25      -999.25      -999.25     31.00000    200.22380      1.29360
 43819.0488425926 01:10:20/20-Dec-2019   1592.15002     20.44000    144.69820      -999.25    200.00000      0.00000      0.00000     31.00000    200.43060      1.29478
 43819.0489583333 01:10:30/20-Dec-2019   1592.23987     20.26000    137.42590    357.00000      -999.25      -999.25      -999.25     31.00000    200.63740      1.29604
 43819.0490740741 01:10:40/20-Dec-2019   1592.46997     20.10000    133.55640      -999.25      -999.25      -999.25      -999.25     31.00000    200.49960      1.29496
 43819.0491898148 01:10:50/20-Dec-2019   1593.00000     19.58000    133.89380      -999.25      -999.25      -999.25      -999.25     31.00000    200.70640      1.29586
 43819.0493055556 01:11:00/20-Dec-2019   1593.16992     19.41000    136.85800      -999.25    211.00000      0.00000      0.00000     31.00000    200.84430      1.29661
 43819.0494212963 01:11:10/20-Dec-2019   1593.52002     19.06000    140.72750    381.00000      -999.25      -999.25      -999.25     31.00000    200.70640      1.29543
 43819.0495370370 01:11:20/20-Dec-2019   1593.78992     18.78000    143.69180      -999.25      -999.25      -999.25      -999.25     31.00000    200.56850      1.29432
 43819.0496527778 01:11:30/20-Dec-2019   1593.97009     18.61000    148.28480      -999.25      -999.25      -999.25      -999.25     31.00000    201.18900      1.29818
 43819.0497685185 01:11:40/20-Dec-2019   1594.33008     18.25000    148.33440      -999.25    209.00000      -999.25      -999.25     31.00000    200.56850      1.29388
 43819.0498842593 01:11:50/20-Dec-2019   1594.60010     17.98000    144.69820    375.00000      -999.25      0.00000      0.00000     31.00000    201.05110      1.29677
