~VERSION INFORMATION 
VERS  .    2.0                                     :CWLS Log ASCII Standard - VERSION 2.0
WRAP  .    NO                                      :One Line per Time step
PROD  .    Schlumberger Technology Corp.           :LAS Producer
PROG  .    Horizon LASWriter 9.2.113335.3100       :LAS Program name and version
SOURCE.    Run 12-TimeLogicalAcq                   :Run&Pass Information
CREA  .    01/21/2020                              :LAS Creation date {MM/DD/YYYY}
#--------------------------------------------------
~WELL INFORMATION 
#MNEM           .UNIT                      DATA            :DESCRIPTION
#----            ------          --------------            -----------------------------
STRT            .d               43837.2295138889          :START TIME(OLE Automation date)
STOP            .d               43837.6875000000          :STOP TIME(OLE Automation date)
STEP            .d                            0            :STEP TIME(10s in time)
NULL            .                       -999.25            :NULL VALUE
COMP            .                       Equinor            :COMPANY
WELL            .                        31/5-7            :WELL NAME
FLD             .                           Eos            :FIELD NAME
RIGN            .                 West Hercules            :Rig Name
RIGTYP          .                Semi-Submersible          :Rig Type
SON             .                     19SCA0085            :Service Order Number
SRVC            .                  Schlumberger            :SERVICE COMPANY
DATE            .                    01/07/2020            :LOG DATE(Composite Date for Composite LAP) (MM/DD/YYYY)
CLAB            .                       County:            :County Label
CNTY            .                                          :COUNTY
SLAB            .                                          :State/Province Label
STAT            .                                          :STATE or PROVINCE
PROV            .                                          :STATE or PROVINCE
CTRY            .                        Norway            :COUNTRY
CONT_REGION     .                        Europe            :Continent Region
SECT            .                                          :Section
TOWN            .                                          :Township
RANG            .                                          :Range
API             .                                          :API NUMBER
UWI             .                                          :UNIQUE WELL ID
LUL             .                Service Office            :Logging Unit Location
LUN             .                          A615            :Logging Unit Number
LOC             .                Norwegian North Sea       :FIELD LOCATION
FL1             .                Section: 8 1/2 in.        :Field Location Line 1
FL2             .                Job no.: 19SCA0085        :Field Location Line 2
LATI            .deg             60° 34' 35.14" N          :LATITUDE
LONG            .deg             3° 26' 36.13" E           :LONGITUDE
PDAT            .                           MSL            :Local Permanent Datum
LMF             .                            DF            :Logging Measured From
APD             .m                        31.00            :Elevation of Depth Reference (LMF) Above Permanent Datum
EPD             .m                         0.00            :Elevation of Permanent Datum (PDAT) above Mean Sea Level
EKB             .m                      -999.25            :Elevation of Kelly Bushing Above Permanent Datum
EDF             .m                        31.00            :Elevation of Drill Floor Above Permanent Datum
EGL             .m                      -307.00            :Elevation of Ground Level Above Permanent Datum
ECF             .m                      -999.25            :Elevation of Casing Flange above Permanent Datum
#--------------------------------------------------
~CURVE INFORMATION
#MNEM           .UNIT                  API CODE            :DESCRIPTION
#----            ------          --------------            -----------------------------
TIME_1900       .d                                         :                                                        Time Index(OLE Automation date)
TIME            .s                                         :                                (10s)                   Time(hh mm ss/dd-MMM-yyyy)
DEPTH           .m                                         :(RT)    (DnMWorkflow)                                   Depth Index
BLKP            .m                                         :(RT)    (DRILLING_SURFACE)                              Height of block above rig floor
GR              .gAPI                                      :(RT)    (ARC6)                                          Gamma Ray
CRPM            .c/min                                     :(RT)    (TELE675)                                       Collar Rotational Speed
STICK           .c/min                                     :(RT)    (TELE675)                                       Stick Slip Indicator
SHKRSK          .                                          :(RT)    (TELE675)                                       Shock Risk
SHKPK           .gn                                        :(RT)    (TELE675)                                       Shock Peak
DHAT            .degC                                      :(RM)    (ARC6)                                          Downhole Annulus Temperature
DHAP            .bar                                       :(RM)    (ARC6)                                          Downhole Annulus Pressure
ECD             .g/cm3                                     :(RM)    (ARC6)                                          Equivalent Circulating Density
#-------------------------------------------------------------
#       TIME_1900                 TIME        DEPTH         BLKP           GR         CRPM        STICK       SHKRSK        SHKPK         DHAT         DHAP          ECD 
#                                       (DnMWorkfl)  (DRILLING_)       (ARC6)    (TELE675)    (TELE675)    (TELE675)    (TELE675)       (ARC6)       (ARC6)       (ARC6) 
#                                              (RT)         (RT)         (RT)         (RT)         (RT)         (RT)         (RT)         (RM)         (RM)         (RM) 
#                                (10s)                                                                                                                                   
~ASCII
# ...
 43837.6128472222 14:42:30/07-Jan-2020   2300.19995     24.90000      -999.25      -999.25      -999.25      -999.25      -999.25     46.00000    260.89760      1.16106
 43837.6129629630 14:42:40/07-Jan-2020   2297.15015     28.02000      -999.25      -999.25      -999.25      -999.25      -999.25     46.00000    260.34600      1.16016
 43837.6130787037 14:42:50/07-Jan-2020   2293.75000     31.33000      -999.25      -999.25      -999.25      -999.25      -999.25     46.00000    259.58760      1.15850
 43837.6131944444 14:43:00/07-Jan-2020   2290.65991     34.50000      -999.25      -999.25      -999.25      -999.25      -999.25     47.00000    258.27760      1.15422
 43837.6133101852 14:43:10/07-Jan-2020   2287.15991     37.82000      -999.25      -999.25      -999.25      -999.25      -999.25     47.00000    258.00180      1.15475
 43837.6134259259 14:43:20/07-Jan-2020   2283.81006     41.34000      -999.25      -999.25      -999.25      -999.25      -999.25     47.00000    257.17450      1.15274
 43837.6135416667 14:43:30/07-Jan-2020   2282.80005     42.46000      -999.25      -999.25      -999.25      -999.25      -999.25     47.00000    260.41500      1.16779
 43837.6136574074 14:43:40/07-Jan-2020   2282.80005     42.46000      -999.25      -999.25      -999.25      -999.25      -999.25     47.00000    262.06970      1.17521
 43837.6137731481 14:43:50/07-Jan-2020   2282.90991     42.21000      -999.25      -999.25      -999.25      -999.25      -999.25     47.00000    259.24290      1.16248
 43837.6138888889 14:44:00/07-Jan-2020   2282.90991     42.21000      -999.25      -999.25      -999.25      -999.25      -999.25     47.00000    263.17290      1.18010
 43837.6140046296 14:44:10/07-Jan-2020   2282.90991     33.44000      -999.25      -999.25      -999.25      -999.25      -999.25     47.00000    259.24290      1.16248
 43837.6141203704 14:44:20/07-Jan-2020   2282.90991     16.18000      -999.25      -999.25      -999.25      -999.25      -999.25     47.00000    258.41550      1.15877
 43837.6142361111 14:44:30/07-Jan-2020   2282.90991      8.73000      -999.25      -999.25      -999.25      -999.25      -999.25     47.00000    265.10340      1.18876
 43837.6143518519 14:44:40/07-Jan-2020   2282.90991      7.32000      -999.25      -999.25      -999.25      -999.25      -999.25     47.00000    266.75820      1.19618
 43837.6144675926 14:44:50/07-Jan-2020   2282.90991      3.53000      -999.25      -999.25      -999.25      -999.25      -999.25     47.00000    265.10340      1.18876
 43837.6145833333 14:45:00/07-Jan-2020   2282.90991      3.53000      -999.25      -999.25      -999.25      -999.25      -999.25     47.00000    263.10390      1.17979
 43837.6146990741 14:45:10/07-Jan-2020   2282.90991      3.48000      -999.25      -999.25      -999.25      -999.25      -999.25     47.00000    263.44870      1.18134
 43837.6148148148 14:45:20/07-Jan-2020   2282.90991      3.53000      -999.25      -999.25      -999.25      -999.25      -999.25     47.00000    265.37920      1.18999
 43837.6149305556 14:45:30/07-Jan-2020   2282.51001      3.63000      -999.25      -999.25      -999.25      -999.25      -999.25     47.00000    262.55240      1.17752
 43837.6150462963 14:45:40/07-Jan-2020   2282.33008      3.81000      -999.25      -999.25      -999.25      -999.25      -999.25     47.00000    261.24240      1.17174
 43837.6151620370 14:45:50/07-Jan-2020   2279.37012      6.77000      -999.25      -999.25      -999.25      -999.25      -999.25     47.00000    260.55290      1.17017
 43837.6152777778 14:46:00/07-Jan-2020   2276.38013      9.76000      -999.25      -999.25      -999.25      -999.25      -999.25     47.00000    257.72600      1.15900
 43837.6153935185 14:46:10/07-Jan-2020   2273.66016     12.48000      -999.25      -999.25      -999.25      -999.25      -999.25     47.00000    257.51920      1.15946
 43837.6155092593 14:46:20/07-Jan-2020   2270.85010     15.29000      -999.25      -999.25      -999.25      -999.25      -999.25     47.00000    257.45020      1.16059
 43837.6156250000 14:46:30/07-Jan-2020   2268.32983     17.81000      -999.25      -999.25      -999.25      -999.25      -999.25     47.00000    258.55340      1.16686
 43837.6157407407 14:46:40/07-Jan-2020   2265.33008     20.81000      -999.25      -999.25      -999.25      -999.25      -999.25     47.00000    257.51920      1.16373
 43837.6158564815 14:46:50/07-Jan-2020   2262.25000     23.89000      -999.25      -999.25      -999.25      -999.25      -999.25     47.00000    255.03710      1.15410
 43837.6159722222 14:47:00/07-Jan-2020   2259.07007     27.07000      -999.25      -999.25      -999.25      -999.25      -999.25     47.00000    256.41600      1.16197
 43837.6160879630 14:47:10/07-Jan-2020   2256.09009     30.05000      -999.25      -999.25      -999.25      -999.25      -999.25     47.00000    254.96810      1.15695
 43837.6162037037 14:47:20/07-Jan-2020   2252.94019     33.20000      -999.25      -999.25      -999.25      -999.25      -999.25     47.00000    253.93390      1.15387
 43837.6163194444 14:47:30/07-Jan-2020   2250.13989     36.00000      -999.25      -999.25      -999.25      -999.25      -999.25     47.00000    257.38130      1.17100
 43837.6164351852 14:47:40/07-Jan-2020   2246.98999     39.15000      -999.25      -999.25      -999.25      -999.25      -999.25     47.00000    253.38230      1.15442
 43837.6165509259 14:47:50/07-Jan-2020   2243.98999     42.15000      -999.25      -999.25      -999.25      -999.25      -999.25     47.00000    257.38130      1.17422
 43837.6166666667 14:48:00/07-Jan-2020   2243.61011     42.53000      -999.25      -999.25      -999.25      -999.25      -999.25     47.00000    260.82870      1.19015
 43837.6167824074 14:48:10/07-Jan-2020   2243.61011     42.53000      -999.25      -999.25      -999.25      -999.25      -999.25     47.00000    260.20810      1.18732
 43837.6168981481 14:48:20/07-Jan-2020   2243.72998     42.41000      -999.25      -999.25      -999.25      -999.25      -999.25     47.00000    260.27710      1.18757
 43837.6170138889 14:48:30/07-Jan-2020   2243.58008     42.56000      -999.25      -999.25      -999.25      -999.25      -999.25     47.00000    254.55440      1.16154
 43837.6171296296 14:48:40/07-Jan-2020   2243.76001     42.19000      -999.25      -999.25      -999.25      -999.25      -999.25     47.00000    257.72600      1.17592
 43837.6172453704 14:48:50/07-Jan-2020   2243.76001     42.19000      -999.25      -999.25      -999.25      -999.25      -999.25     47.00000    261.10450      1.19133
 43837.6173611111 14:49:00/07-Jan-2020   2243.76001     39.03000      -999.25      -999.25      -999.25      -999.25      -999.25     47.00000    259.51870      1.18410
 43837.6174768518 14:49:10/07-Jan-2020   2243.76001     23.49000      -999.25      -999.25      -999.25      -999.25      -999.25     47.00000    257.65710      1.17560
 43837.6175925926 14:49:20/07-Jan-2020   2243.76001      9.60000      -999.25      -999.25      -999.25      -999.25      -999.25     47.00000    256.76080      1.17151
 43837.6177083333 14:49:30/07-Jan-2020   2243.76001      8.72000      -999.25      -999.25      -999.25      -999.25      -999.25     47.00000    259.65660      1.18473
 43837.6178240741 14:49:40/07-Jan-2020   2243.76001      4.58000      -999.25      -999.25      -999.25      -999.25      -999.25     47.00000    254.89920      1.16302
 43837.6179398148 14:49:50/07-Jan-2020   2243.76001      3.46000      -999.25      -999.25      -999.25      -999.25      -999.25     47.00000    257.24340      1.17372
 43837.6180555556 14:50:00/07-Jan-2020   2243.19995      3.75000      -999.25      -999.25      -999.25      -999.25      -999.25     47.00000    261.86290      1.19509
 43837.6181712963 14:50:10/07-Jan-2020   2242.87012      3.99000      -999.25      -999.25      -999.25      -999.25      -999.25     47.00000    259.38080      1.18393
 43837.6182870370 14:50:20/07-Jan-2020   2239.23999      7.45000      -999.25      -999.25      -999.25      -999.25      -999.25     47.00000    254.83020      1.16504
