~VERSION INFORMATION 
VERS  .    2.0                                     :CWLS Log ASCII Standard - VERSION 2.0
WRAP  .    NO                                      :One Line per Time step
PROD  .    Schlumberger Technology Corp.           :LAS Producer
PROG  .    Horizon LASWriter 9.2.113335.3100       :LAS Program name and version
SOURCE.    Run 9-TimeLogicalAcq                    :Run&Pass Information
CREA  .    01/21/2020                              :LAS Creation date {MM/DD/YYYY}
#--------------------------------------------------
~WELL INFORMATION 
#MNEM           .UNIT                      DATA            :DESCRIPTION
#----            ------          --------------            -----------------------------
STRT            .d               43828.3333333334          :START TIME(OLE Automation date)
STOP            .d               43829.1041666667          :STOP TIME(OLE Automation date)
STEP            .d                            0            :STEP TIME(10s in time)
NULL            .                       -999.25            :NULL VALUE
COMP            .                       Equinor            :COMPANY
WELL            .                        31/5-7            :WELL NAME
FLD             .                           Eos            :FIELD NAME
RIGN            .                 West Hercules            :Rig Name
RIGTYP          .                Semi-Submersible          :Rig Type
SON             .                     19SCA0085            :Service Order Number
SRVC            .                  Schlumberger            :SERVICE COMPANY
DATE            .                    12/29/2019            :LOG DATE(Composite Date for Composite LAP) (MM/DD/YYYY)
CLAB            .                       County:            :County Label
CNTY            .                                          :COUNTY
SLAB            .                                          :State/Province Label
STAT            .                                          :STATE or PROVINCE
PROV            .                                          :STATE or PROVINCE
CTRY            .                        Norway            :COUNTRY
CONT_REGION     .                        Europe            :Continent Region
SECT            .                                          :Section
TOWN            .                                          :Township
RANG            .                                          :Range
API             .                                          :API NUMBER
UWI             .                                          :UNIQUE WELL ID
LUL             .                Service Office            :Logging Unit Location
LUN             .                          A615            :Logging Unit Number
LOC             .                Norwegian North Sea       :FIELD LOCATION
FL1             .                Section: 8 1/2 in.        :Field Location Line 1
FL2             .                Job no.: 19SCA0085        :Field Location Line 2
LATI            .deg             60° 34' 35.14" N          :LATITUDE
LONG            .deg             3° 26' 36.13" E           :LONGITUDE
PDAT            .                           MSL            :Local Permanent Datum
LMF             .                            DF            :Logging Measured From
APD             .m                        31.00            :Elevation of Depth Reference (LMF) Above Permanent Datum
EPD             .m                         0.00            :Elevation of Permanent Datum (PDAT) above Mean Sea Level
EKB             .m                      -999.25            :Elevation of Kelly Bushing Above Permanent Datum
EDF             .m                        31.00            :Elevation of Drill Floor Above Permanent Datum
EGL             .m                      -307.00            :Elevation of Ground Level Above Permanent Datum
ECF             .m                      -999.25            :Elevation of Casing Flange above Permanent Datum
#--------------------------------------------------
~CURVE INFORMATION
#MNEM           .UNIT                  API CODE            :DESCRIPTION
#----            ------          --------------            -----------------------------
TIME_1900       .d                                         :                                                        Time Index(OLE Automation date)
TIME            .s                                         :                                (10s)                   Time(hh mm ss/dd-MMM-yyyy)
DEPTH           .m                                         :(RT)    (DnMWorkflow)                                   Depth Index
BLKP            .m                                         :(RT)    (DRILLING_SURFACE)                              Height of block above rig floor
GR              .gAPI                                      :(RT)    (ARC6)                                          Gamma Ray
CRPM            .c/min                                     :(RT)    (TELE675)                                       Collar Rotational Speed
STICK           .c/min                                     :(RT)    (TELE675)                                       Stick Slip Indicator
SHKRSK          .                                          :(RT)    (TELE675)                                       Shock Risk
SHKPK           .gn                                        :(RT)    (TELE675)                                       Shock Peak
DHAT            .degC                                      :(RM)    (ARC6)                                          Downhole Annulus Temperature
DHAP            .bar                                       :(RM)    (ARC6)                                          Downhole Annulus Pressure
ECD             .g/cm3                                     :(RM)    (ARC6)                                          Equivalent Circulating Density
#-------------------------------------------------------------
#       TIME_1900                 TIME        DEPTH         BLKP           GR         CRPM        STICK       SHKRSK        SHKPK         DHAT         DHAP          ECD 
#                                       (DnMWorkfl)  (DRILLING_)       (ARC6)    (TELE675)    (TELE675)    (TELE675)    (TELE675)       (ARC6)       (ARC6)       (ARC6) 
#                                              (RT)         (RT)         (RT)         (RT)         (RT)         (RT)         (RT)         (RM)         (RM)         (RM) 
#                                (10s)                                                                                                                                   
~ASCII
# ...
 43828.5111111111 12:16:00/29-Dec-2019   2553.52002     10.55000     49.15779     75.00000      -999.25      -999.25      -999.25     38.00000    330.94840      1.32618
 43828.5112268519 12:16:10/29-Dec-2019   2553.73999     10.33000     48.63725      -999.25     60.00000      0.00000      0.00000     38.00000    331.08630      1.32663
 43828.5113425926 12:16:20/29-Dec-2019   2553.57007     10.50000     48.42969      -999.25      -999.25      -999.25      -999.25     38.00000    331.01730      1.32643
 43828.5114583333 12:16:30/29-Dec-2019   2553.40991     10.65000     49.00257      -999.25      -999.25      -999.25      -999.25     38.00000    331.29310      1.32761
 43828.5115740741 12:16:40/29-Dec-2019   2553.65991     10.41000     49.85078      -999.25      -999.25      -999.25      -999.25     38.00000    331.01730      1.32638
 43828.5116898148 12:16:50/29-Dec-2019   2553.40991     10.57000     48.61483     81.00000      -999.25      -999.25      -999.25     38.00000    331.29310      1.32766
 43828.5118055556 12:17:00/29-Dec-2019   2553.54004     10.53000     47.93975      -999.25     93.00000      0.00000      0.00000     38.00000    330.53460      1.32451
 43828.5119212963 12:17:10/29-Dec-2019   2553.54004     10.53000     48.61483      -999.25      -999.25      -999.25      -999.25     38.00000    330.94840      1.32617
 43828.5120370370 12:17:20/29-Dec-2019   2553.35010     10.72000     49.85078      -999.25      -999.25      -999.25      -999.25     38.00000    331.08630      1.32672
 43828.5121527778 12:17:30/29-Dec-2019   2553.47998     10.59000     50.62775      -999.25      -999.25      -999.25      -999.25     38.00000    331.43100      1.32814
 43828.5122685185 12:17:40/29-Dec-2019   2553.76001     10.31000     49.54653      -999.25      -999.25      -999.25      -999.25     38.00000    330.81050      1.32559
 43828.5123842593 12:17:50/29-Dec-2019   2553.47998     10.59000     47.35696     72.00000      -999.25      -999.25      -999.25     38.00000    331.15520      1.32693
 43828.5125000000 12:18:00/29-Dec-2019   2553.41992     10.65000     44.75422      -999.25     66.00000      0.00000      0.00000     38.00000    330.81050      1.32568
 43828.5126157407 12:18:10/29-Dec-2019   2553.16992     10.99000     42.56465      -999.25      -999.25      -999.25      -999.25     38.00000    328.74200      1.31759
 43828.5127314815 12:18:20/29-Dec-2019   2552.39990     11.76000     40.62233      -999.25      -999.25      -999.25      -999.25     38.00000    329.01780      1.31898
 43828.5128472222 12:18:30/29-Dec-2019   2552.31982     11.75000     38.86511      -999.25      -999.25      -999.25      -999.25     38.00000    328.05250      1.31516
 43828.5129629630 12:18:40/29-Dec-2019   2552.12988     11.94000     40.56955     83.00000      -999.25      -999.25      -999.25     38.00000    328.81100      1.31834
 43828.5130787037 12:18:50/29-Dec-2019   2552.50000     11.64000     43.06686      -999.25    180.00000      0.00000      0.00000     38.00000    330.05200      1.32312
 43828.5131944444 12:19:00/29-Dec-2019   2552.82007     11.24000     45.56418      -999.25      -999.25      -999.25      -999.25     38.00000    332.80990      1.33398
 43828.5133101852 12:19:10/29-Dec-2019   2553.16992     10.86000     47.26861      -999.25      -999.25      -999.25      -999.25     38.00000    331.01730      1.32658
 43828.5134259259 12:19:20/29-Dec-2019   2553.33984     10.73000     47.63902      -999.25      -999.25      -999.25      -999.25     38.00000    331.63780      1.32897
 43828.5135416667 12:19:30/29-Dec-2019   2553.62988     10.51000     46.55780      -999.25      -999.25      -999.25      -999.25     38.00000    331.29310      1.32753
 43828.5136574074 12:19:40/29-Dec-2019   2553.68994     10.37000     44.36824     78.00000      -999.25      -999.25      -999.25     38.00000    331.49990      1.32836
 43828.5137731481 12:19:50/29-Dec-2019   2553.41992     10.65000     41.76549      -999.25    165.00000      0.00000      0.00000     38.00000    331.15520      1.32706
 43828.5138888889 12:20:00/29-Dec-2019   2553.60986     10.46000     39.57592      -999.25      -999.25      -999.25      -999.25     38.00000    331.56890      1.32862
 43828.5140046296 12:20:10/29-Dec-2019   2553.70020     10.37000     38.49470      -999.25      -999.25      -999.25      -999.25     38.00000    330.53460      1.32448
 43828.5141203704 12:20:20/29-Dec-2019   2553.60986     10.46000     37.76863      -999.25      -999.25      -999.25      -999.25     38.00000    331.29310      1.32752
 43828.5142361111 12:20:30/29-Dec-2019   2553.41992     10.65000     36.81088     73.00000      -999.25      -999.25      -999.25     38.00000    331.15520      1.32701
 43828.5143518519 12:20:40/29-Dec-2019   2553.55981     10.60000     36.31626      -999.25    168.00000      0.00000      0.00000     38.00000    331.36200      1.32791
 43828.5144675926 12:20:50/29-Dec-2019   2553.77002     10.39000     36.90176      -999.25      -999.25      -999.25      -999.25     38.00000    331.43100      1.32794
 43828.5145833333 12:21:00/29-Dec-2019   2553.52979     10.54000     37.92154      -999.25      -999.25      -999.25      -999.25     38.00000    331.01730      1.32646
 43828.5146990741 12:21:10/29-Dec-2019   2553.45996     10.61000     40.12102      -999.25      -999.25      -999.25      -999.25     38.00000    331.49990      1.32842
 43828.5148148148 12:21:20/29-Dec-2019   2553.57983     10.58000     40.29271     81.00000      -999.25      -999.25      -999.25     38.00000    331.70680      1.32915
 43828.5149305556 12:21:30/29-Dec-2019   2553.48999     10.58000     39.15689      -999.25    117.00000      -999.25      -999.25     38.00000    331.43100      1.32813
 43828.5150462963 12:21:40/29-Dec-2019   2553.67993     10.39000     39.15689      -999.25      -999.25      0.00000      0.00000     38.00000    331.77570      1.32941
 43828.5151620370 12:21:50/29-Dec-2019   2553.48999     10.58000     40.29271      -999.25      -999.25      -999.25      -999.25     38.00000    331.49990      1.32841
 43828.5152777778 12:22:00/29-Dec-2019   2553.48999     10.58000     42.77700      -999.25      -999.25      -999.25      -999.25     38.00000    331.22410      1.32730
 43828.5153935185 12:22:10/29-Dec-2019   2553.77002     10.30000     45.64360      -999.25      -999.25      -999.25      -999.25     38.00000    331.36200      1.32771
 43828.5155092593 12:22:20/29-Dec-2019   2553.48999     10.58000     42.23473     76.00000      -999.25      -999.25      -999.25     38.00000    331.08630      1.32675
 43828.5156250000 12:22:30/29-Dec-2019   2553.67993     10.39000     37.24010      -999.25     45.00000      0.00000      0.00000     38.00000    330.81050      1.32554
 43828.5157407407 12:22:40/29-Dec-2019   2553.67993     10.30000     32.24546      -999.25      -999.25      -999.25      -999.25     38.00000    331.49990      1.32831
 43828.5158564815 12:22:50/29-Dec-2019   2553.85986     10.21000     28.83660      -999.25      -999.25      -999.25      -999.25     38.00000    331.08630      1.32656
 43828.5159722222 12:23:00/29-Dec-2019   2553.65991     10.41000      -999.25      -999.25      -999.25      -999.25      -999.25     38.00000    330.74150      1.32530
 43828.5160879630 12:23:10/29-Dec-2019   2552.66016     11.47000      -999.25     94.00000      -999.25      -999.25      -999.25     38.00000    326.67360      1.30958
 43828.5162037037 12:23:20/29-Dec-2019   2552.33008     11.83000      -999.25      -999.25    186.00000      -999.25      -999.25     38.00000    328.60410      1.31735
 43828.5163194444 12:23:30/29-Dec-2019   2552.61011     11.46000      -999.25      -999.25      -999.25      -999.25      -999.25     38.00000    327.15620      1.31141
 43828.5164351852 12:23:40/29-Dec-2019   2552.42993     11.64000      -999.25      -999.25      -999.25      -999.25      -999.25     38.00000    326.74250      1.30989
 43828.5165509259 12:23:50/29-Dec-2019   2552.42993     11.64000      -999.25      -999.25      -999.25      -999.25      -999.25     38.00000    326.12200      1.30740
