~VERSION INFORMATION 
VERS  .    2.0                                     :CWLS Log ASCII Standard - VERSION 2.0
WRAP  .    NO                                      :One Line per Time step
PROD  .    Schlumberger Technology Corp.           :LAS Producer
PROG  .    Horizon LASWriter 9.0.106845.3100       :LAS Program name and version
SOURCE.    Run 1-TimeLogicalAcq                    :Run&Pass Information
CREA  .    12/03/2019                              :LAS Creation date {MM/DD/YYYY}
#--------------------------------------------------
~WELL INFORMATION 
#MNEM           .UNIT                      DATA            :DESCRIPTION
#----            ------          --------------            -----------------------------
STRT            .d               43801.7395833334          :START TIME(OLE Automation date)
STOP            .d               43802.2048611111          :STOP TIME(OLE Automation date)
STEP            .d                            0            :STEP TIME(10s in time)
NULL            .                       -999.25            :NULL VALUE
COMP            .                       Equinor            :COMPANY
WELL            .                        31/5-7            :WELL NAME
FLD             .                           Eos            :FIELD NAME
RIGN            .                 West Hercules            :Rig Name
RIGTYP          .                Semi-Submersible          :Rig Type
SON             .                     19SCA0085            :Service Order Number
SRVC            .                  Schlumberger            :SERVICE COMPANY
DATE            .                    12/02/2019            :LOG DATE(Composite Date for Composite LAP) (MM/DD/YYYY)
CLAB            .                       County:            :County Label
CNTY            .                                          :COUNTY
SLAB            .                                          :State/Province Label
STAT            .                                          :STATE or PROVINCE
PROV            .                                          :STATE or PROVINCE
CTRY            .                        Norway            :COUNTRY
CONT_REGION     .                        Europe            :Continent Region
SECT            .                                          :Section
TOWN            .                                          :Township
RANG            .                                          :Range
API             .                                          :API NUMBER
UWI             .                                          :UNIQUE WELL ID
LUL             .                Service Office            :Logging Unit Location
LUN             .                          A615            :Logging Unit Number
LOC             .                Norwegian North Sea       :FIELD LOCATION
FL1             .                Section: 36 in.           :Field Location Line 1
FL2             .                Job no.: 19SCA0085        :Field Location Line 2
LATI            .deg             60° 34' 35.14" N          :LATITUDE
LONG            .deg             3° 26' 36.13" E           :LONGITUDE
PDAT            .                           MSL            :Local Permanent Datum
LMF             .                            DF            :Logging Measured From
APD             .m                        31.00            :Elevation of Depth Reference (LMF) Above Permanent Datum
EPD             .m                         0.00            :Elevation of Permanent Datum (PDAT) above Mean Sea Level
EKB             .m                      -999.25            :Elevation of Kelly Bushing Above Permanent Datum
EDF             .m                        31.00            :Elevation of Drill Floor Above Permanent Datum
EGL             .m                      -307.00            :Elevation of Ground Level Above Permanent Datum
ECF             .m                      -999.25            :Elevation of Casing Flange above Permanent Datum
#--------------------------------------------------
~CURVE INFORMATION
#MNEM           .UNIT                  API CODE            :DESCRIPTION
#----            ------          --------------            -----------------------------
TIME_1900       .d                                         :                                                        Time Index(OLE Automation date)
TIME            .s                                         :                                (10s)                   Time(hh mm ss/dd-MMM-yyyy)
DEPTH           .m                                         :(RT)    (DnMWorkflow)                                   Depth Index
GR              .gAPI                                      :(RT)    (TELE900)                                       Gamma Ray
BLKP            .m                                         :(RT)    (DRILLING_SURFACE)                              Height of block above rig floor
CRPM            .c/min                                     :(RT)    (TELE900)                                       Collar Rotational Speed
STICK           .c/min                                     :(RT)    (TELE900)                                       Stick Slip Indicator
SHKPK           .gn                                        :(RT)    (TELE900)                                       Shock Peak
SHKRSK          .                                          :(RT)    (TELE900)                                       Shock Risk
TEMP_DNI        .degC                                      :(RM)    (TELE900)                                       Direction and Inclination Sensor Temperature
#-------------------------------------------------------------
#       TIME_1900                 TIME        DEPTH           GR         BLKP         CRPM        STICK        SHKPK       SHKRSK     TEMP_DNI 
#                                       (DnMWorkfl)    (TELE900)  (DRILLING_)    (TELE900)    (TELE900)    (TELE900)    (TELE900)    (TELE900) 
#                                              (RT)         (RT)         (RT)         (RT)         (RT)         (RT)         (RT)         (RM) 
#                                (10s)                                                                                                         
~ASCII
# ...
 43802.0312500000 00:45:00/03-Dec-2019     394.1000      34.5700       8.0500      72.0000      -999.25       0.0000       0.0000      -999.25
 43802.0313657407 00:45:10/03-Dec-2019     394.1400      27.1051       8.0000      -999.25      45.0000      -999.25      -999.25      -999.25
 43802.0314814815 00:45:20/03-Dec-2019     394.1000      27.1051       7.9600      -999.25      -999.25      -999.25      -999.25      -999.25
 43802.0315972222 00:45:30/03-Dec-2019     393.8600      34.5700       8.2900      -999.25      -999.25      -999.25      -999.25      -999.25
 43802.0317129630 00:45:40/03-Dec-2019     394.2700      34.5700       7.9700      74.0000      -999.25       0.0000       0.0000      -999.25
 43802.0318287037 00:45:50/03-Dec-2019     394.5900      30.4273       7.5600      -999.25      42.0000      -999.25      -999.25      -999.25
 43802.0319444444 00:46:00/03-Dec-2019     394.3600      23.5535       7.7900      -999.25      -999.25      -999.25      -999.25      15.6867
 43802.0320601852 00:46:10/03-Dec-2019     394.2200      23.4478       7.9300      -999.25      -999.25      -999.25      -999.25      -999.25
 43802.0321759259 00:46:20/03-Dec-2019     394.2600      29.4341       7.8900      -999.25      -999.25      -999.25      -999.25      -999.25
 43802.0322916667 00:46:30/03-Dec-2019     394.3000      23.4478       7.8500      71.0000      -999.25       0.0000       0.0000      -999.25
 43802.0324074074 00:46:40/03-Dec-2019     394.3400      25.2655       7.8000      -999.25      78.0000      -999.25      -999.25      -999.25
 43802.0325231481 00:46:50/03-Dec-2019     394.3900      29.0077       7.7600      -999.25      -999.25      -999.25      -999.25      -999.25
 43802.0326388889 00:47:00/03-Dec-2019     394.4300      24.8650       7.8100      -999.25      -999.25      -999.25      -999.25      -999.25
 43802.0327546296 00:47:10/03-Dec-2019     394.8400      24.8650       7.3100      72.0000      -999.25       0.0000       0.0000      -999.25
 43802.0328703704 00:47:20/03-Dec-2019     394.6100      32.3299       7.4500      -999.25      54.0000      -999.25      -999.25      -999.25
 43802.0329861111 00:47:30/03-Dec-2019     394.3700      30.9220       7.7800      -999.25      -999.25      -999.25      -999.25      -999.25
 43802.0331018518 00:47:40/03-Dec-2019     394.8700      38.3869       7.2700      -999.25      -999.25      -999.25      -999.25      -999.25
 43802.0332175926 00:47:50/03-Dec-2019     394.6400      40.2305       7.5100      73.0000      -999.25      -999.25      -999.25      -999.25
 43802.0333333333 00:48:00/03-Dec-2019     394.5000      34.2442       7.7400      -999.25      72.0000       0.0000       0.0000      15.6867
 43802.0334490741 00:48:10/03-Dec-2019     394.8200      33.6962       7.3300      -999.25      -999.25      -999.25      -999.25      -999.25
 43802.0335648148 00:48:20/03-Dec-2019     395.0500      32.6065       7.1000      -999.25      -999.25      -999.25      -999.25      -999.25
 43802.0336805556 00:48:30/03-Dec-2019     395.0000      26.6202       7.1500      -999.25      -999.25      -999.25      -999.25      -999.25
 43802.0337962963 00:48:40/03-Dec-2019     394.9500      28.4639       7.1100      73.0000      -999.25       0.0000       0.0000      -999.25
 43802.0339120370 00:48:50/03-Dec-2019     394.9000      31.8927       7.2500      -999.25      63.0000      -999.25      -999.25      -999.25
 43802.0340277778 00:49:00/03-Dec-2019     394.9400      31.1411       7.1100      -999.25      -999.25      -999.25      -999.25      -999.25
 43802.0341435185 00:49:10/03-Dec-2019     394.6100      34.5700       7.5400      -999.25      -999.25      -999.25      -999.25      -999.25
 43802.0342592593 00:49:20/03-Dec-2019     394.8400      34.5700       7.4000      76.0000      -999.25       0.0000       0.0000      -999.25
 43802.0343750000 00:49:30/03-Dec-2019     395.5300      30.4273       6.6200      -999.25      96.0000      -999.25      -999.25      -999.25
 43802.0344907407 00:49:40/03-Dec-2019     395.4800      29.5833       6.6700      -999.25      -999.25      -999.25      -999.25      -999.25
 43802.0346064815 00:49:50/03-Dec-2019     395.1500      29.4131       7.0000      -999.25      -999.25      -999.25      -999.25      -999.25
 43802.0347222222 00:50:00/03-Dec-2019     395.2000      24.0007       6.9500      -999.25      -999.25      -999.25      -999.25      15.6867
 43802.0348379630 00:50:10/03-Dec-2019     395.2300      28.1664       6.9200      73.0000      -999.25       0.0000       0.0000      -999.25
 43802.0349537037 00:50:20/03-Dec-2019     395.2600      31.5850       6.8900      -999.25      87.0000      -999.25      -999.25      -999.25
 43802.0350694444 00:50:30/03-Dec-2019     395.2900      32.6065       6.8600      -999.25      -999.25      -999.25      -999.25      -999.25
 43802.0351851852 00:50:40/03-Dec-2019     395.3200      28.4639       6.8300      -999.25      -999.25      -999.25      -999.25      -999.25
 43802.0353009259 00:50:50/03-Dec-2019     395.2500      28.4639       6.9000      70.0000      -999.25       0.0000       0.0000      -999.25
 43802.0354166667 00:51:00/03-Dec-2019     395.3800      33.1546       6.7700      -999.25      51.0000      -999.25      -999.25      -999.25
 43802.0355324074 00:51:10/03-Dec-2019     395.7700      33.6962       6.3800      -999.25      -999.25      -999.25      -999.25      -999.25
 43802.0356481481 00:51:20/03-Dec-2019     395.5300      38.3869       6.6200      -999.25      -999.25      -999.25      -999.25      -999.25
 43802.0357638889 00:51:30/03-Dec-2019     395.0900      40.2305       7.0600      71.0000      -999.25      -999.25      -999.25      -999.25
 43802.0358796296 00:51:40/03-Dec-2019     395.6800      34.2442       6.4700      -999.25      69.0000       0.0000       0.0000      -999.25
 43802.0359953704 00:51:50/03-Dec-2019     395.8000      30.9220       6.3500      -999.25      -999.25      -999.25      -999.25      -999.25
 43802.0361111111 00:52:00/03-Dec-2019     395.0900      34.2442       7.0600      -999.25      -999.25      -999.25      -999.25      15.6867
 43802.0362268519 00:52:10/03-Dec-2019     395.7700      40.2305       6.3800      -999.25      -999.25      -999.25      -999.25      -999.25
 43802.0363425926 00:52:20/03-Dec-2019     396.0700      38.3869       6.0800      71.0000      -999.25       0.0000       0.0000      -999.25
 43802.0364583333 00:52:30/03-Dec-2019     395.6400      33.6962       6.3200      -999.25      72.0000      -999.25      -999.25      -999.25
 43802.0365740741 00:52:40/03-Dec-2019     395.6700      33.1546       6.4800      -999.25      -999.25      -999.25      -999.25      -999.25
 43802.0366898148 00:52:50/03-Dec-2019     395.7000      28.4639       6.4500      -999.25      -999.25      -999.25      -999.25      -999.25
 43802.0368055556 00:53:00/03-Dec-2019     395.8200      28.4639       6.3300      72.0000      -999.25       0.0000       0.0000      -999.25
 43802.0369212963 00:53:10/03-Dec-2019     395.8400      32.6065       6.3100      -999.25     132.0000      -999.25      -999.25      -999.25
 43802.0370370370 00:53:20/03-Dec-2019     395.7800      35.9287       6.3700      -999.25      -999.25      -999.25      -999.25      -999.25
 43802.0371527778 00:53:30/03-Dec-2019     395.8000      32.6065       6.3500      -999.25      -999.25      -999.25      -999.25      -999.25
 43802.0372685185 00:53:40/03-Dec-2019     396.1100      26.6202       6.0400      -999.25      -999.25      -999.25      -999.25      -999.25
 43802.0373842593 00:53:50/03-Dec-2019     396.3100      32.6065       5.8400      73.0000      -999.25       0.0000       0.0000      -999.25
 43802.0375000000 00:54:00/03-Dec-2019     395.7900      35.9287       6.3600      -999.25      87.0000      -999.25      -999.25      15.6867
 43802.0376157407 00:54:10/03-Dec-2019     395.9100      42.5324       6.2400      -999.25      -999.25      -999.25      -999.25      -999.25
