~VERSION INFORMATION 
VERS  .    2.0                                     :CWLS Log ASCII Standard - VERSION 2.0
WRAP  .    NO                                      :One Line per Time step
PROD  .    Schlumberger Technology Corp.           :LAS Producer
PROG  .    Horizon LASWriter 9.0.106845.3100       :LAS Program name and version
SOURCE.    Run 1-TimeLogicalAcq                    :Run&Pass Information
CREA  .    12/03/2019                              :LAS Creation date {MM/DD/YYYY}
#--------------------------------------------------
~WELL INFORMATION 
#MNEM           .UNIT                      DATA            :DESCRIPTION
#----            ------          --------------            -----------------------------
STRT            .d               43801.7395833334          :START TIME(OLE Automation date)
STOP            .d               43802.2048611111          :STOP TIME(OLE Automation date)
STEP            .d                            0            :STEP TIME(10s in time)
NULL            .                       -999.25            :NULL VALUE
COMP            .                       Equinor            :COMPANY
WELL            .                        31/5-7            :WELL NAME
FLD             .                           Eos            :FIELD NAME
RIGN            .                 West Hercules            :Rig Name
RIGTYP          .                Semi-Submersible          :Rig Type
SON             .                     19SCA0085            :Service Order Number
SRVC            .                  Schlumberger            :SERVICE COMPANY
DATE            .                    12/02/2019            :LOG DATE(Composite Date for Composite LAP) (MM/DD/YYYY)
CLAB            .                       County:            :County Label
CNTY            .                                          :COUNTY
SLAB            .                                          :State/Province Label
STAT            .                                          :STATE or PROVINCE
PROV            .                                          :STATE or PROVINCE
CTRY            .                        Norway            :COUNTRY
CONT_REGION     .                        Europe            :Continent Region
SECT            .                                          :Section
TOWN            .                                          :Township
RANG            .                                          :Range
API             .                                          :API NUMBER
UWI             .                                          :UNIQUE WELL ID
LUL             .                Service Office            :Logging Unit Location
LUN             .                          A615            :Logging Unit Number
LOC             .                Norwegian North Sea       :FIELD LOCATION
FL1             .                Section: 36 in.           :Field Location Line 1
FL2             .                Job no.: 19SCA0085        :Field Location Line 2
LATI            .deg             60° 34' 35.14" N          :LATITUDE
LONG            .deg             3° 26' 36.13" E           :LONGITUDE
PDAT            .                           MSL            :Local Permanent Datum
LMF             .                            DF            :Logging Measured From
APD             .m                        31.00            :Elevation of Depth Reference (LMF) Above Permanent Datum
EPD             .m                         0.00            :Elevation of Permanent Datum (PDAT) above Mean Sea Level
EKB             .m                      -999.25            :Elevation of Kelly Bushing Above Permanent Datum
EDF             .m                        31.00            :Elevation of Drill Floor Above Permanent Datum
EGL             .m                      -307.00            :Elevation of Ground Level Above Permanent Datum
ECF             .m                      -999.25            :Elevation of Casing Flange above Permanent Datum
#--------------------------------------------------
~CURVE INFORMATION
#MNEM           .UNIT                  API CODE            :DESCRIPTION
#----            ------          --------------            -----------------------------
TIME_1900       .d                                         :                                                        Time Index(OLE Automation date)
TIME            .s                                         :                                (10s)                   Time(hh mm ss/dd-MMM-yyyy)
DEPTH           .m                                         :(RT)    (DnMWorkflow)                                   Depth Index
GR              .gAPI                                      :(RT)    (TELE900)                                       Gamma Ray
BLKP            .m                                         :(RT)    (DRILLING_SURFACE)                              Height of block above rig floor
CRPM            .c/min                                     :(RT)    (TELE900)                                       Collar Rotational Speed
STICK           .c/min                                     :(RT)    (TELE900)                                       Stick Slip Indicator
SHKPK           .gn                                        :(RT)    (TELE900)                                       Shock Peak
SHKRSK          .                                          :(RT)    (TELE900)                                       Shock Risk
TEMP_DNI        .degC                                      :(RM)    (TELE900)                                       Direction and Inclination Sensor Temperature
#-------------------------------------------------------------
#       TIME_1900                 TIME        DEPTH           GR         BLKP         CRPM        STICK        SHKPK       SHKRSK     TEMP_DNI 
#                                       (DnMWorkfl)    (TELE900)  (DRILLING_)    (TELE900)    (TELE900)    (TELE900)    (TELE900)    (TELE900) 
#                                              (RT)         (RT)         (RT)         (RT)         (RT)         (RT)         (RT)         (RM) 
#                                (10s)                                                                                                         
~ASCII
# ...
 43801.9793981481 23:30:20/02-Dec-2019     378.4500      52.8458      23.7000      -999.25      -999.25      -999.25      -999.25      -999.25
 43801.9795138889 23:30:30/02-Dec-2019     378.4900      59.6610      23.6600      -999.25      -999.25      -999.25      -999.25      -999.25
 43801.9796296296 23:30:40/02-Dec-2019     378.5400      76.6578      23.6100      71.0000      -999.25       0.0000       0.0000      -999.25
 43801.9797453704 23:30:50/02-Dec-2019     378.5800      78.4301      23.5700      -999.25      60.0000      -999.25      -999.25      -999.25
 43801.9798611111 23:31:00/02-Dec-2019     378.4400      72.4160      23.7100      -999.25      -999.25      -999.25      -999.25      -999.25
 43801.9799768519 23:31:10/02-Dec-2019     378.5800      71.2124      23.5700      -999.25      -999.25      -999.25      -999.25      -999.25
 43801.9800925926 23:31:20/02-Dec-2019     378.9000      73.0561      23.2500      71.0000      -999.25       0.0000       0.0000      -999.25
 43801.9802083333 23:31:30/02-Dec-2019     378.9400      67.0698      23.2100      -999.25      84.0000      -999.25      -999.25      -999.25
 43801.9803240741 23:31:40/02-Dec-2019     378.9900      72.2903      23.1600      -999.25      -999.25      -999.25      -999.25      -999.25
 43801.9804398148 23:31:50/02-Dec-2019     379.1200      70.6682      23.0300      -999.25      -999.25      -999.25      -999.25      -999.25
 43801.9805555556 23:32:00/02-Dec-2019     379.0800      68.8245      23.0700      -999.25      -999.25      -999.25      -999.25      14.9023
 43801.9806712963 23:32:10/02-Dec-2019     379.2100      74.8108      22.9400      72.0000      84.0000       0.0000       0.0000      -999.25
 43801.9807870370 23:32:20/02-Dec-2019     379.2600      84.9094      22.8900      -999.25      -999.25      -999.25      -999.25      -999.25
 43801.9809027778 23:32:30/02-Dec-2019     379.3000      86.5888      22.8500      -999.25      -999.25      -999.25      -999.25      -999.25
 43801.9810185185 23:32:40/02-Dec-2019     379.1600      80.6024      22.9900      -999.25      -999.25      -999.25      -999.25      -999.25
 43801.9811342593 23:32:50/02-Dec-2019     379.4800      82.4461      22.5800      72.0000      -999.25       0.0000       0.0000      -999.25
 43801.9812500000 23:33:00/02-Dec-2019     379.6200      83.9287      22.5400      -999.25      96.0000      -999.25      -999.25      -999.25
 43801.9813657407 23:33:10/02-Dec-2019     379.6600      81.0716      22.5800      -999.25      -999.25      -999.25      -999.25      -999.25
 43801.9814814815 23:33:20/02-Dec-2019     379.5200      82.5542      22.6300      -999.25      -999.25      -999.25      -999.25      -999.25
 43801.9815972222 23:33:30/02-Dec-2019     379.7500      82.5542      22.4000      73.0000      -999.25       0.0000       0.0000      -999.25
 43801.9817129630 23:33:40/02-Dec-2019     379.7000      78.4115      22.4500      -999.25      87.0000      -999.25      -999.25      -999.25
 43801.9818287037 23:33:50/02-Dec-2019     379.7500      79.0538      22.4100      -999.25      -999.25      -999.25      -999.25      -999.25
 43801.9819444444 23:34:00/02-Dec-2019     379.8800      82.8359      22.2700      -999.25      -999.25      -999.25      -999.25      14.9023
 43801.9820601852 23:34:10/02-Dec-2019     380.1100      98.1495      22.0400      -999.25      -999.25      -999.25      -999.25      -999.25
 43801.9821759259 23:34:20/02-Dec-2019     379.8300     113.4631      22.4100      75.0000      87.0000       0.0000       0.0000      -999.25
 43801.9822916667 23:34:30/02-Dec-2019     379.9000     117.2453      22.0600      -999.25      -999.25      -999.25      -999.25      -999.25
 43801.9824074074 23:34:40/02-Dec-2019     379.9000     119.8505      22.2500      -999.25      -999.25      -999.25      -999.25      -999.25
 43801.9825231481 23:34:50/02-Dec-2019     379.1200     115.7079      23.0300      -999.25      -999.25      -999.25      -999.25      -999.25
 43801.9826388889 23:35:00/02-Dec-2019     378.6700     115.7079      23.4800      72.0000      -999.25       0.0000       0.0000      -999.25
 43801.9827546296 23:35:10/02-Dec-2019     378.3500     109.6377      23.8000      -999.25     120.0000      -999.25      -999.25      -999.25
 43801.9828703704 23:35:20/02-Dec-2019     378.3500      94.6224      23.8000      -999.25      -999.25      -999.25      -999.25      -999.25
 43801.9829861111 23:35:30/02-Dec-2019     378.3500      88.5522      23.8000      -999.25      -999.25      -999.25      -999.25      -999.25
 43801.9831018519 23:35:40/02-Dec-2019     378.3500      90.3959      23.8000       0.0000      -999.25      -999.25      -999.25      -999.25
 43801.9832175926 23:35:50/02-Dec-2019     378.3500      84.4095      23.8000      -999.25      84.0000      -999.25      -999.25      -999.25
 43801.9833333333 23:36:00/02-Dec-2019     378.3500      81.0874      23.8000      -999.25      -999.25      -999.25      -999.25      15.6867
 43801.9834490741 23:36:10/02-Dec-2019     378.3500      -999.25      23.8000      -999.25      -999.25      -999.25      -999.25      -999.25
 43801.9835648148 23:36:20/02-Dec-2019     378.3500      -999.25      23.8000      -999.25      -999.25      -999.25      -999.25      -999.25
 43801.9836805556 23:36:30/02-Dec-2019     378.3500      81.7984      23.8000      -999.25      -999.25      -999.25      -999.25      -999.25
 43801.9837962963 23:36:40/02-Dec-2019     378.3500      81.9549      23.8000      -999.25      -999.25      -999.25      -999.25      -999.25
 43801.9839120370 23:36:50/02-Dec-2019     378.3500      80.0067      23.8000      -999.25      -999.25      -999.25      -999.25      -999.25
 43801.9840277778 23:37:00/02-Dec-2019     378.3500      78.4958      23.8000      -999.25      -999.25      -999.25      -999.25      -999.25
 43801.9841435185 23:37:10/02-Dec-2019     378.3500      74.5537      23.8000      -999.25      -999.25      -999.25      -999.25      -999.25
 43801.9842592593 23:37:20/02-Dec-2019     378.3500      69.6606      23.8000      -999.25      -999.25      -999.25      -999.25      -999.25
 43801.9843750000 23:37:30/02-Dec-2019     378.3500      66.9792      23.8000      -999.25      -999.25      -999.25      -999.25      -999.25
 43801.9844907407 23:37:40/02-Dec-2019     378.3500      61.4184      23.8000      -999.25      -999.25      -999.25      -999.25      -999.25
 43801.9846064815 23:37:50/02-Dec-2019     378.3500      55.9708      23.8000      -999.25      -999.25       0.0000       0.0000      -999.25
 43801.9847222222 23:38:00/02-Dec-2019     378.3500      53.4287      23.8000      -999.25      -999.25      -999.25      -999.25      15.6867
 43801.9848379630 23:38:10/02-Dec-2019     378.3500      48.9657      23.8000      -999.25      -999.25      -999.25      -999.25      -999.25
 43801.9849537037 23:38:20/02-Dec-2019     378.3500      45.6247      23.8000      -999.25      -999.25      -999.25      -999.25      -999.25
 43801.9850694444 23:38:30/02-Dec-2019     378.3500      44.4638      23.8000      -999.25      -999.25      -999.25      -999.25      -999.25
 43801.9851851852 23:38:40/02-Dec-2019     378.3500      45.0312      23.8000      -999.25      -999.25       0.0000       0.0000      -999.25
 43801.9853009259 23:38:50/02-Dec-2019     378.3500      45.4959      23.8000      -999.25      -999.25      -999.25      -999.25      -999.25
 43801.9854166667 23:39:00/02-Dec-2019     378.3500      41.7481      23.8000      -999.25      -999.25      -999.25      -999.25      -999.25
 43801.9855324074 23:39:10/02-Dec-2019     378.3500      39.0980      23.8000      -999.25      -999.25      -999.25      -999.25      -999.25
 43801.9856481481 23:39:20/02-Dec-2019     378.3500      45.4959      23.8000      -999.25      -999.25       0.0000       0.0000      -999.25
 43801.9857638889 23:39:30/02-Dec-2019     378.3500      48.2587      23.8000      -999.25      -999.25      -999.25      -999.25      -999.25
