~VERSION INFORMATION 
VERS  .    2.0                                     :CWLS Log ASCII Standard - VERSION 2.0
WRAP  .    NO                                      :One Line per Time step
PROD  .    Schlumberger Technology Corp.           :LAS Producer
PROG  .    Horizon LASWriter 9.2.113335.3100       :LAS Program name and version
SOURCE.    Run 13-TimeLogicalAcq                   :Run&Pass Information
CREA  .    01/21/2020                              :LAS Creation date {MM/DD/YYYY}
#--------------------------------------------------
~WELL INFORMATION 
#MNEM           .UNIT                      DATA            :DESCRIPTION
#----            ------          --------------            -----------------------------
STRT            .d               43844.3958333334          :START TIME(OLE Automation date)
STOP            .d               43845.1666666667          :STOP TIME(OLE Automation date)
STEP            .d                            0            :STEP TIME(10s in time)
NULL            .                       -999.25            :NULL VALUE
COMP            .                       Equinor            :COMPANY
WELL            .                        31/5-7            :WELL NAME
FLD             .                           Eos            :FIELD NAME
RIGN            .                 West Hercules            :Rig Name
RIGTYP          .                Semi-Submersible          :Rig Type
SON             .                     19SCA0085            :Service Order Number
SRVC            .                  Schlumberger            :SERVICE COMPANY
DATE            .                    01/13/2020            :LOG DATE(Composite Date for Composite LAP) (MM/DD/YYYY)
CLAB            .                       County:            :County Label
CNTY            .                                          :COUNTY
SLAB            .                                          :State/Province Label
STAT            .                                          :STATE or PROVINCE
PROV            .                                          :STATE or PROVINCE
CTRY            .                        Norway            :COUNTRY
CONT_REGION     .                        Europe            :Continent Region
SECT            .                                          :Section
TOWN            .                                          :Township
RANG            .                                          :Range
API             .                                          :API NUMBER
UWI             .                                          :UNIQUE WELL ID
LUL             .                Service Office            :Logging Unit Location
LUN             .                          A615            :Logging Unit Number
LOC             .                Norwegian North Sea       :FIELD LOCATION
FL1             .                Section: 8 1/2 in.        :Field Location Line 1
FL2             .                Job no.: 19SCA0085        :Field Location Line 2
LATI            .deg             60° 34' 35.14" N          :LATITUDE
LONG            .deg             3° 26' 36.13" E           :LONGITUDE
PDAT            .                           MSL            :Local Permanent Datum
LMF             .                            DF            :Logging Measured From
APD             .m                        31.00            :Elevation of Depth Reference (LMF) Above Permanent Datum
EPD             .m                         0.00            :Elevation of Permanent Datum (PDAT) above Mean Sea Level
EKB             .m                      -999.25            :Elevation of Kelly Bushing Above Permanent Datum
EDF             .m                        31.00            :Elevation of Drill Floor Above Permanent Datum
EGL             .m                      -307.00            :Elevation of Ground Level Above Permanent Datum
ECF             .m                      -999.25            :Elevation of Casing Flange above Permanent Datum
#--------------------------------------------------
~CURVE INFORMATION
#MNEM           .UNIT                  API CODE            :DESCRIPTION
#----            ------          --------------            -----------------------------
TIME_1900       .d                                         :                                                        Time Index(OLE Automation date)
TIME            .s                                         :                                (10s)                   Time(hh mm ss/dd-MMM-yyyy)
DEPTH           .m                                         :(RT)    (DnMWorkflow)                                   Depth Index
BLKP            .m                                         :(RT)    (DRILLING_SURFACE)                              Height of block above rig floor
GR              .gAPI                                      :(RT)    (ARC6)                                          Gamma Ray
CRPM            .c/min                                     :(RT)    (TELE675)                                       Collar Rotational Speed
STICK           .c/min                                     :(RT)    (TELE675)                                       Stick Slip Indicator
SHKRSK          .                                          :(RT)    (TELE675)                                       Shock Risk
SHKPK           .gn                                        :(RT)    (TELE675)                                       Shock Peak
DHAT            .degC                                      :(RM)    (ARC6)                                          Downhole Annulus Temperature
DHAP            .bar                                       :(RM)    (ARC6)                                          Downhole Annulus Pressure
ECD             .g/cm3                                     :(RM)    (ARC6)                                          Equivalent Circulating Density
#-------------------------------------------------------------
#       TIME_1900                 TIME        DEPTH         BLKP           GR         CRPM        STICK       SHKRSK        SHKPK         DHAT         DHAP          ECD 
#                                       (DnMWorkfl)  (DRILLING_)       (ARC6)    (TELE675)    (TELE675)    (TELE675)    (TELE675)       (ARC6)       (ARC6)       (ARC6) 
#                                              (RT)         (RT)         (RT)         (RT)         (RT)         (RT)         (RT)         (RM)         (RM)         (RM) 
#                                (10s)                                                                                                                                   
~ASCII
# ...
 43845.0125000000 00:18:00/15-Jan-2020   2865.89990     43.76000      -999.25      -999.25      -999.25      -999.25      -999.25     50.00000    336.74000      1.20188
 43845.0126157407 00:18:10/15-Jan-2020   2865.89990     43.76000      -999.25      -999.25      -999.25      -999.25      -999.25     50.00000    341.35940      1.21836
 43845.0127314815 00:18:20/15-Jan-2020   2865.89990     43.76000      -999.25      -999.25      -999.25      -999.25      -999.25     50.00000    340.73890      1.21615
 43845.0128472222 00:18:30/15-Jan-2020   2865.89990     43.76000      -999.25      -999.25      -999.25      -999.25      -999.25     50.00000    338.87730      1.20951
 43845.0129629630 00:18:40/15-Jan-2020   2865.89990     43.76000      -999.25      -999.25      -999.25      -999.25      -999.25     50.00000    334.74050      1.19474
 43845.0130787037 00:18:50/15-Jan-2020   2865.89990     43.76000      -999.25      -999.25      -999.25      -999.25      -999.25     50.00000    331.43100      1.18293
 43845.0131944444 00:19:00/15-Jan-2020   2865.89990     43.76000      -999.25      -999.25      -999.25      -999.25      -999.25     51.00000    322.26100      1.15020
 43845.0133101852 00:19:10/15-Jan-2020   2865.90991     43.75000      -999.25      -999.25      -999.25      -999.25      -999.25     51.00000    322.46780      1.15093
 43845.0134259259 00:19:20/15-Jan-2020   2865.94995     43.71000      -999.25      -999.25      -999.25      -999.25      -999.25     51.00000    329.43150      1.17577
 43845.0135416667 00:19:30/15-Jan-2020   2865.98999     43.68000      -999.25      -999.25      -999.25      -999.25      -999.25     51.00000    328.05250      1.17083
 43845.0136574074 00:19:40/15-Jan-2020   2865.98999     43.68000      -999.25      -999.25      -999.25      -999.25      -999.25     51.00000    336.25730      1.20012
 43845.0137731481 00:19:50/15-Jan-2020   2865.98999     43.68000      -999.25      -999.25      -999.25      -999.25      -999.25     51.00000    324.81200      1.15927
 43845.0138888889 00:20:00/15-Jan-2020   2865.98999     43.68000      -999.25      -999.25      -999.25      -999.25      -999.25     51.00000    333.01680      1.18855
 43845.0140046296 00:20:10/15-Jan-2020   2865.98999     43.68000      -999.25      -999.25      -999.25      -999.25      -999.25     51.00000    337.15360      1.20332
 43845.0141203704 00:20:20/15-Jan-2020   2865.98999     43.68000      -999.25      -999.25      -999.25      -999.25      -999.25     51.00000    327.91460      1.17034
 43845.0142361111 00:20:30/15-Jan-2020   2865.98999     43.68000      -999.25      -999.25      -999.25      -999.25      -999.25     51.00000    335.01630      1.19569
 43845.0143518519 00:20:40/15-Jan-2020   2865.98999     43.68000      -999.25      -999.25      -999.25      -999.25      -999.25     51.00000    332.94780      1.18830
 43845.0144675926 00:20:50/15-Jan-2020   2865.98999     43.68000      -999.25      -999.25      -999.25      -999.25      -999.25     51.00000    337.77410      1.20553
 43845.0145833333 00:21:00/15-Jan-2020   2865.98999     43.68000      -999.25      -999.25      -999.25      -999.25      -999.25     51.00000    336.60210      1.20135
 43845.0146990741 00:21:10/15-Jan-2020   2865.98999     43.68000      -999.25      -999.25      -999.25      -999.25      -999.25     51.00000    333.15470      1.18904
 43845.0148148148 00:21:20/15-Jan-2020   2865.98999     43.68000      -999.25      -999.25      -999.25      -999.25      -999.25     51.00000    330.18990      1.17846
 43845.0149305556 00:21:30/15-Jan-2020   2865.98999     43.68000      -999.25      -999.25      -999.25      -999.25      -999.25     51.00000    323.01940      1.15287
 43845.0150462963 00:21:40/15-Jan-2020   2865.98999     43.68000      -999.25      -999.25      -999.25      -999.25      -999.25     51.00000    332.46520      1.18658
 43845.0151620370 00:21:50/15-Jan-2020   2865.98999     43.68000      -999.25      -999.25      -999.25      -999.25      -999.25     51.00000    341.15260      1.21759
 43845.0152777778 00:22:00/15-Jan-2020   2865.98999     43.68000      -999.25      -999.25      -999.25      -999.25      -999.25     51.00000    323.98460      1.15631
 43845.0153935185 00:22:10/15-Jan-2020   2865.98999     43.69000      -999.25      -999.25      -999.25      -999.25      -999.25     51.00000    334.60260      1.19421
 43845.0155092593 00:22:20/15-Jan-2020   2865.98999     43.77000      -999.25      -999.25      -999.25      -999.25      -999.25     51.00000    328.74200      1.17329
 43845.0156250000 00:22:30/15-Jan-2020   2865.98999     44.03000      -999.25      -999.25      -999.25      -999.25      -999.25     51.00000    328.12150      1.17108
 43845.0157407407 00:22:40/15-Jan-2020   2865.98999     44.03000      -999.25      -999.25      -999.25      -999.25      -999.25     51.00000    326.53570      1.16542
 43845.0158564815 00:22:50/15-Jan-2020   2865.98999     44.03000      -999.25      -999.25      -999.25      -999.25      -999.25     51.00000    322.39880      1.15065
 43845.0159722222 00:23:00/15-Jan-2020   2865.98999     44.03000      -999.25      -999.25      -999.25      -999.25      -999.25     51.00000    323.84680      1.15582
 43845.0160879630 00:23:10/15-Jan-2020   2865.98999     34.76000      -999.25      -999.25      -999.25      -999.25      -999.25     51.00000    329.43150      1.17575
 43845.0162037037 00:23:20/15-Jan-2020   2865.98999     18.34000      -999.25      -999.25      -999.25      -999.25      -999.25     51.00000    339.42890      1.21144
 43845.0163194444 00:23:30/15-Jan-2020   2865.98999      5.63000      -999.25      -999.25      -999.25      -999.25      -999.25     51.00000    330.74150      1.18043
 43845.0164351852 00:23:40/15-Jan-2020   2865.98999      5.00000      -999.25      -999.25      -999.25      -999.25      -999.25     51.00000    323.84680      1.15582
 43845.0165509259 00:23:50/15-Jan-2020   2865.98999      5.00000      -999.25      -999.25      -999.25      -999.25      -999.25     51.00000    323.43310      1.15435
 43845.0166666667 00:24:00/15-Jan-2020   2865.98999      5.00000      -999.25      -999.25      -999.25      -999.25      -999.25     51.00000    318.26200      1.13589
 43845.0167824074 00:24:10/15-Jan-2020   2865.98999      5.00000      -999.25      -999.25      -999.25      -999.25      -999.25     52.00000    323.36410      1.15410
 43845.0168981481 00:24:20/15-Jan-2020   2865.98999      5.00000      -999.25      -999.25      -999.25      -999.25      -999.25     52.00000    327.50100      1.16886
 43845.0170138889 00:24:30/15-Jan-2020   2865.98999      4.97000      -999.25      -999.25      -999.25      -999.25      -999.25     52.00000    327.77680      1.16985
 43845.0171296296 00:24:40/15-Jan-2020   2865.98999      4.86000      -999.25      -999.25      -999.25      -999.25      -999.25     52.00000    319.64100      1.14081
 43845.0172453704 00:24:50/15-Jan-2020   2865.98999      4.86000      -999.25      -999.25      -999.25      -999.25      -999.25     52.00000    321.70940      1.14819
 43845.0173611111 00:25:00/15-Jan-2020   2865.98999      4.87000      -999.25      -999.25      -999.25      -999.25      -999.25     52.00000    318.60670      1.13712
 43845.0174768518 00:25:10/15-Jan-2020   2865.98999      4.87000      -999.25      -999.25      -999.25      -999.25      -999.25     52.00000    317.43460      1.13294
 43845.0175925926 00:25:20/15-Jan-2020   2865.98999      4.84000      -999.25      -999.25      -999.25      -999.25      -999.25     52.00000    320.60620      1.14426
 43845.0177083333 00:25:30/15-Jan-2020   2865.98999      4.79000      -999.25      -999.25      -999.25      -999.25      -999.25     52.00000    326.32890      1.16468
 43845.0178240741 00:25:40/15-Jan-2020   2865.98999      4.74000      -999.25      -999.25      -999.25      -999.25      -999.25     52.00000    326.60460      1.16567
 43845.0179398148 00:25:50/15-Jan-2020   2865.98999      4.72000      -999.25      -999.25      -999.25      -999.25      -999.25     52.00000    336.25730      1.20012
