~VERSION INFORMATION 
VERS  .    2.0                                     :CWLS Log ASCII Standard - VERSION 2.0
WRAP  .    NO                                      :One Line per Time step
PROD  .    Schlumberger Technology Corp.           :LAS Producer
PROG  .    Horizon LASWriter 9.2.113335.3100       :LAS Program name and version
SOURCE.    Run 8-TimeLogicalAcq                    :Run&Pass Information
CREA  .    12/30/2019                              :LAS Creation date {MM/DD/YYYY}
#--------------------------------------------------
~WELL INFORMATION 
#MNEM           .UNIT                      DATA            :DESCRIPTION
#----            ------          --------------            -----------------------------
STRT            .d               43822.4166666667          :START TIME(OLE Automation date)
STOP            .d               43824.6875000000          :STOP TIME(OLE Automation date)
STEP            .d                            0            :STEP TIME(10s in time)
NULL            .                       -999.25            :NULL VALUE
COMP            .                       Equinor            :COMPANY
WELL            .                        31/5-7            :WELL NAME
FLD             .                           Eos            :FIELD NAME
RIGN            .                 West Hercules            :Rig Name
RIGTYP          .                Semi-Submersible          :Rig Type
SON             .                     19SCA0085            :Service Order Number
SRVC            .                  Schlumberger            :SERVICE COMPANY
DATE            .                    12/23/2019            :LOG DATE(Composite Date for Composite LAP) (MM/DD/YYYY)
CLAB            .                       County:            :County Label
CNTY            .                                          :COUNTY
SLAB            .                                          :State/Province Label
STAT            .                                          :STATE or PROVINCE
PROV            .                                          :STATE or PROVINCE
CTRY            .                        Norway            :COUNTRY
CONT_REGION     .                        Europe            :Continent Region
SECT            .                                          :Section
TOWN            .                                          :Township
RANG            .                                          :Range
API             .                                          :API NUMBER
UWI             .                                          :UNIQUE WELL ID
LUL             .                Service Office            :Logging Unit Location
LUN             .                          A615            :Logging Unit Number
LOC             .                Norwegian North Sea       :FIELD LOCATION
FL1             .                Section: 12 1/4 in.       :Field Location Line 1
FL2             .                Job no.: 19SCA0085        :Field Location Line 2
LATI            .deg             60° 34' 35.14" N          :LATITUDE
LONG            .deg             3° 26' 36.13" E           :LONGITUDE
PDAT            .                           MSL            :Local Permanent Datum
LMF             .                            DF            :Logging Measured From
APD             .m                        31.00            :Elevation of Depth Reference (LMF) Above Permanent Datum
EPD             .m                         0.00            :Elevation of Permanent Datum (PDAT) above Mean Sea Level
EKB             .m                      -999.25            :Elevation of Kelly Bushing Above Permanent Datum
EDF             .m                        31.00            :Elevation of Drill Floor Above Permanent Datum
EGL             .m                      -307.00            :Elevation of Ground Level Above Permanent Datum
ECF             .m                      -999.25            :Elevation of Casing Flange above Permanent Datum
#--------------------------------------------------
~CURVE INFORMATION
#MNEM           .UNIT                  API CODE            :DESCRIPTION
#----            ------          --------------            -----------------------------
TIME_1900       .d                                         :                                                        Time Index(OLE Automation date)
TIME            .s                                         :                                (10s)                   Time(hh mm ss/dd-MMM-yyyy)
DEPTH           .m                                         :(RT)    (DnMWorkflow)                                   Depth Index
GR              .gAPI                                      :(RT)    (ARC9)                                          Gamma Ray
BLKP            .m                                         :(RT)    (DRILLING_SURFACE)                              Height of block above rig floor
CRPM            .c/min                                     :(RT)    (TELE900)                                       Collar Rotational Speed
STICK           .c/min                                     :(RT)    (TELE900)                                       Stick Slip Indicator
SHKPK           .gn                                        :(RT)    (TELE900)                                       Shock Peak
SHKRSK          .                                          :(RT)    (TELE900)                                       Shock Risk
DHAP            .bar                                       :(RM)    (ARC9)                                          Downhole Annulus Pressure
DHAT            .degC                                      :(RM)    (ARC9)                                          Downhole Annulus Temperature
ECD             .g/cm3                                     :(RM)    (ARC9)                                          Equivalent Circulating Density
#-------------------------------------------------------------
#       TIME_1900                 TIME        DEPTH           GR         BLKP         CRPM        STICK        SHKPK       SHKRSK         DHAP         DHAT          ECD 
#                                       (DnMWorkfl)       (ARC9)  (DRILLING_)    (TELE900)    (TELE900)    (TELE900)    (TELE900)       (ARC9)       (ARC9)       (ARC9) 
#                                              (RT)         (RT)         (RT)         (RT)         (RT)         (RT)         (RT)         (RM)         (RM)         (RM) 
#                                (10s)                                                                                                                                   
~ASCII
# ...
 43824.2722222222 06:32:00/25-Dec-2019    2573.0200     102.8538      35.5100      -999.25      -999.25      -999.25      -999.25     324.6052      43.0000       1.2922
 43824.2723379630 06:32:10/25-Dec-2019    2572.8599      97.5509      35.6700      -999.25      -999.25      -999.25      -999.25     324.2604      43.0000       1.2909
 43824.2724537037 06:32:20/25-Dec-2019    2572.7002      93.5951      35.8200     101.0000      -999.25      -999.25      -999.25     324.7431      43.0000       1.2929
 43824.2725694444 06:32:30/25-Dec-2019    2572.5400      95.6473      35.9800      -999.25      -999.25      -999.25      -999.25     324.7431      43.0000       1.2930
 43824.2726851852 06:32:40/25-Dec-2019    2572.3799      93.1809      36.1400      -999.25      -999.25      -999.25      -999.25     324.3294      43.0000       1.2914
 43824.2728009259 06:32:50/25-Dec-2019    2572.2200      85.5825      36.3100      -999.25      -999.25      -999.25      -999.25     324.3294      43.0000       1.2915
 43824.2729166667 06:33:00/25-Dec-2019    2572.0598      75.1790      36.4700      -999.25      12.0000      -999.25      -999.25     324.1225      43.0000       1.2907
 43824.2730324074 06:33:10/25-Dec-2019    2571.8999      69.8363      36.6300      -999.25      -999.25       0.0000       0.0000     324.4673      43.0000       1.2922
 43824.2731481481 06:33:20/25-Dec-2019    2571.7400      69.0562      36.7900      -999.25      -999.25      -999.25      -999.25     325.0878      43.0000       1.2948
 43824.2732638889 06:33:30/25-Dec-2019    2571.5801      74.3863      36.9500      -999.25      -999.25      -999.25      -999.25     324.2604      43.0000       1.2915
 43824.2733796296 06:33:40/25-Dec-2019    2571.4199      88.2339      37.1100     102.0000      -999.25      -999.25      -999.25     324.0536      43.0000       1.2908
 43824.2734953704 06:33:50/25-Dec-2019    2571.2500      91.8153      37.2700      -999.25      -999.25      -999.25      -999.25     324.7431      43.0000       1.2936
 43824.2736111111 06:34:00/25-Dec-2019    2571.0999      86.1220      37.4300      -999.25      -999.25      -999.25      -999.25     324.8810      43.0000       1.2943
 43824.2737268518 06:34:10/25-Dec-2019    2570.9402      78.9560      37.5900      -999.25      -999.25      -999.25      -999.25     324.3294      43.0000       1.2921
 43824.2738425926 06:34:20/25-Dec-2019    2570.7800      78.1680      37.7500      -999.25       9.0000      -999.25      -999.25     323.8468      43.0000       1.2903
 43824.2739583333 06:34:30/25-Dec-2019    2570.6201      77.7491      37.9100      -999.25      -999.25       0.0000       0.0000     324.3983      43.0000       1.2926
 43824.2740740741 06:34:40/25-Dec-2019    2570.4600      77.8952      38.0700      -999.25      -999.25      -999.25      -999.25     324.1915      43.0000       1.2918
 43824.2741898148 06:34:50/25-Dec-2019    2570.3000      82.0818      38.2300      -999.25      -999.25      -999.25      -999.25     324.1915      43.0000       1.2919
 43824.2743055556 06:35:00/25-Dec-2019    2570.1399      84.6610      38.3900     102.0000      -999.25      -999.25      -999.25     324.3983      43.0000       1.2928
 43824.2744212963 06:35:10/25-Dec-2019    2569.9797      85.0753      38.5500      -999.25      -999.25      -999.25      -999.25     324.1225      43.0000       1.2918
 43824.2745370370 06:35:20/25-Dec-2019    2569.8201      84.0751      38.7100      -999.25      -999.25      -999.25      -999.25     323.9157      43.0000       1.2911
 43824.2746527778 06:35:30/25-Dec-2019    2569.6599      76.1353      38.8700      -999.25      -999.25      -999.25      -999.25     324.1915      43.0000       1.2922
 43824.2747685185 06:35:40/25-Dec-2019    2569.5000      69.0494      39.0200      -999.25       9.0000      -999.25      -999.25     324.0536      43.0000       1.2918
 43824.2748842593 06:35:50/25-Dec-2019    2569.3398      64.8602      39.1800      -999.25      -999.25       0.0000       0.0000     323.4331      43.0000       1.2894
 43824.2750000000 06:36:00/25-Dec-2019    2569.1799      65.5278      39.3500      -999.25      -999.25      -999.25      -999.25     323.7778      43.0000       1.2908
 43824.2751157407 06:36:10/25-Dec-2019    2569.0198      68.5306      39.5100      -999.25      -999.25      -999.25      -999.25     323.7778      43.0000       1.2909
 43824.2752314815 06:36:20/25-Dec-2019    2568.8601      71.8252      39.6700      -999.25      -999.25      -999.25      -999.25     323.7088      43.0000       1.2907
 43824.2753472222 06:36:30/25-Dec-2019    2568.7000      76.4224      39.8300     106.0000      -999.25      -999.25      -999.25     323.7088      43.0000       1.2908
 43824.2754629630 06:36:40/25-Dec-2019    2568.5400      80.3197      39.9900      -999.25      -999.25      -999.25      -999.25     323.3641      43.0000       1.2895
 43824.2755787037 06:36:50/25-Dec-2019    2568.3799      79.5944      40.1500      -999.25      -999.25      -999.25      -999.25     323.3641      43.0000       1.2896
 43824.2756944444 06:37:00/25-Dec-2019    2568.2202      78.1082      40.3100      -999.25      21.0000      -999.25      -999.25     323.8468      43.0000       1.2916
 43824.2758101852 06:37:10/25-Dec-2019    2568.0601      77.4756      40.4600      -999.25      -999.25      -999.25      -999.25     324.2604      43.0000       1.2933
 43824.2759259259 06:37:20/25-Dec-2019    2567.9001      78.1082      40.6300      -999.25      -999.25       0.0000       0.0000     323.7778      43.0000       1.2915
 43824.2760416667 06:37:30/25-Dec-2019    2567.7400      80.6055      40.7800      -999.25      -999.25      -999.25      -999.25     323.5020      43.0000       1.2905
 43824.2761574074 06:37:40/25-Dec-2019    2567.5801      86.1700      40.9400      -999.25      -999.25      -999.25      -999.25     323.7088      43.0000       1.2914
 43824.2762731481 06:37:50/25-Dec-2019    2567.4199      92.0160      41.1000     102.0000      -999.25      -999.25      -999.25     323.9846      43.0000       1.2925
 43824.2763888889 06:38:00/25-Dec-2019    2567.2598      98.9118      41.2600      -999.25      -999.25      -999.25      -999.25     323.4331      43.0000       1.2904
 43824.2765046296 06:38:10/25-Dec-2019    2567.1001     102.8180      41.4200      -999.25      -999.25      -999.25      -999.25     323.5710      43.0000       1.2910
 43824.2766203704 06:38:20/25-Dec-2019    2566.9399      91.6813      41.5800      -999.25      -999.25      -999.25      -999.25     323.7088      43.0000       1.2917
 43824.2767361111 06:38:30/25-Dec-2019    2566.7800      81.5598      41.7400      -999.25       6.0000      -999.25      -999.25     323.6399      43.0000       1.2915
 43824.2768518519 06:38:40/25-Dec-2019    2566.6199      91.6813      41.9000      -999.25      -999.25       0.0000       0.0000     323.4331      43.0000       1.2907
 43824.2769675926 06:38:50/25-Dec-2019    2566.4600     106.0321      42.0600      -999.25      -999.25      -999.25      -999.25     323.5710      43.0000       1.2914
 43824.2770833333 06:39:00/25-Dec-2019    2566.2998     113.1251      42.2200      -999.25      -999.25      -999.25      -999.25     323.2952      43.0000       1.2904
 43824.2771990741 06:39:10/25-Dec-2019    2566.1401     105.2270      42.3800     102.0000      -999.25      -999.25      -999.25     323.7778      43.0000       1.2924
 43824.2773148148 06:39:20/25-Dec-2019    2565.9800     102.2869      42.5400      -999.25      -999.25      -999.25      -999.25     322.9504      43.0000       1.2891
 43824.2774305556 06:39:30/25-Dec-2019    2565.8201     103.0144      42.7000      -999.25      -999.25      -999.25      -999.25     323.9846      43.0000       1.2933
 43824.2775462963 06:39:40/25-Dec-2019    2565.6599      98.9940      42.8600      -999.25      -999.25      -999.25      -999.25     323.7088      43.0000       1.2923
 43824.2776620370 06:39:50/25-Dec-2019    2565.5000      88.0314      43.0200      -999.25       6.0000      -999.25      -999.25     323.2262      43.0000       1.2905
