~VERSION INFORMATION 
VERS  .    2.0                                     :CWLS Log ASCII Standard - VERSION 2.0
WRAP  .    NO                                      :One Line per Time step
PROD  .    Schlumberger Technology Corp.           :LAS Producer
PROG  .    Horizon LASWriter 9.2.113335.3100       :LAS Program name and version
SOURCE.    Run 5-TimeLogicalAcq                    :Run&Pass Information
CREA  .    12/20/2019                              :LAS Creation date {MM/DD/YYYY}
#--------------------------------------------------
~WELL INFORMATION 
#MNEM           .UNIT                      DATA            :DESCRIPTION
#----            ------          --------------            -----------------------------
STRT            .d               43815.4062500000          :START TIME(OLE Automation date)
STOP            .d               43816.7395833333          :STOP TIME(OLE Automation date)
STEP            .d                            0            :STEP TIME(10s in time)
NULL            .                       -999.25            :NULL VALUE
COMP            .                       Equinor            :COMPANY
WELL            .                        31/5-7            :WELL NAME
FLD             .                           Eos            :FIELD NAME
RIGN            .                 West Hercules            :Rig Name
RIGTYP          .                Semi-Submersible          :Rig Type
SON             .                     19SCA0085            :Service Order Number
SRVC            .                  Schlumberger            :SERVICE COMPANY
DATE            .                    12/16/2019            :LOG DATE(Composite Date for Composite LAP) (MM/DD/YYYY)
CLAB            .                       County:            :County Label
CNTY            .                                          :COUNTY
SLAB            .                                          :State/Province Label
STAT            .                                          :STATE or PROVINCE
PROV            .                                          :STATE or PROVINCE
CTRY            .                        Norway            :COUNTRY
CONT_REGION     .                        Europe            :Continent Region
SECT            .                                          :Section
TOWN            .                                          :Township
RANG            .                                          :Range
API             .                                          :API NUMBER
UWI             .                                          :UNIQUE WELL ID
LUL             .                Service Office            :Logging Unit Location
LUN             .                          A615            :Logging Unit Number
LOC             .                Norwegian North Sea       :FIELD LOCATION
FL1             .                Section: 12 1/4 in. pilot :Field Location Line 1
FL2             .                Job no.: 19SCA0085        :Field Location Line 2
LATI            .deg             60° 34' 35.14" N          :LATITUDE
LONG            .deg             3° 26' 36.13" E           :LONGITUDE
PDAT            .                           MSL            :Local Permanent Datum
LMF             .                            DF            :Logging Measured From
APD             .m                        31.00            :Elevation of Depth Reference (LMF) Above Permanent Datum
EPD             .m                         0.00            :Elevation of Permanent Datum (PDAT) above Mean Sea Level
EKB             .m                      -999.25            :Elevation of Kelly Bushing Above Permanent Datum
EDF             .m                        31.00            :Elevation of Drill Floor Above Permanent Datum
EGL             .m                      -307.00            :Elevation of Ground Level Above Permanent Datum
ECF             .m                      -999.25            :Elevation of Casing Flange above Permanent Datum
#--------------------------------------------------
~CURVE INFORMATION
#MNEM           .UNIT                  API CODE            :DESCRIPTION
#----            ------          --------------            -----------------------------
TIME_1900       .d                                         :                                                        Time Index(OLE Automation date)
TIME            .s                                         :                                (10s)                   Time(hh mm ss/dd-MMM-yyyy)
DEPTH           .m                                         :(RT)    (DnMWorkflow)                                   Depth Index
GR              .gAPI                                      :(RT)    (ARC9)                                          Gamma Ray
BLKP            .m                                         :(RT)    (DRILLING_SURFACE)                              Height of block above rig floor
STICK           .c/min                                     :(RT)    (TELE900)                                       Stick Slip Indicator
CRPM            .c/min                                     :(RT)    (TELE900)                                       Collar Rotational Speed
SHKRSK          .                                          :(RT)    (TELE900)                                       Shock Risk
SHKPK           .gn                                        :(RT)    (TELE900)                                       Shock Peak
ECD             .g/cm3                                     :(RM)    (ARC9)                                          Equivalent Circulating Density
DHAP            .bar                                       :(RM)    (ARC9)                                          Downhole Annulus Pressure
DHAT            .degC                                      :(RM)    (ARC9)                                          Downhole Annulus Temperature
#-------------------------------------------------------------
#       TIME_1900                 TIME        DEPTH           GR         BLKP        STICK         CRPM       SHKRSK        SHKPK          ECD         DHAP         DHAT 
#                                       (DnMWorkfl)       (ARC9)  (DRILLING_)    (TELE900)    (TELE900)    (TELE900)    (TELE900)       (ARC9)       (ARC9)       (ARC9) 
#                                              (RT)         (RT)         (RT)         (RT)         (RT)         (RT)         (RT)         (RM)         (RM)         (RM) 
#                                (10s)                                                                                                                                   
~ASCII
# ...
 43816.6506944444 15:37:00/17-Dec-2019     856.8500       0.0000       4.5200      -999.25      -999.25      -999.25      -999.25       1.3133     108.8682      26.0000
 43816.6508101852 15:37:10/17-Dec-2019     856.8500       0.0000       4.5200      -999.25      -999.25      -999.25      -999.25       1.3125     108.7993      26.0000
 43816.6509259259 15:37:20/17-Dec-2019     856.8500       0.0000       4.5200      -999.25      -999.25      -999.25      -999.25       1.3149     109.0061      26.0000
 43816.6510416667 15:37:30/17-Dec-2019     856.8500       0.0000       4.5200      -999.25      -999.25       0.0000       0.0000       1.3133     108.8682      26.0000
 43816.6511574074 15:37:40/17-Dec-2019     856.8500       0.0000       4.5200      -999.25      -999.25      -999.25      -999.25       1.3149     109.0061      26.0000
 43816.6512731481 15:37:50/17-Dec-2019     856.8500       0.0000       4.5200      -999.25      -999.25      -999.25      -999.25       1.3125     108.7993      26.0000
 43816.6513888889 15:38:00/17-Dec-2019     856.8500       0.0000       4.5200      -999.25      -999.25      -999.25      -999.25       1.3149     109.0061      26.0000
 43816.6515046296 15:38:10/17-Dec-2019     856.8500       0.0000       4.5200      -999.25      -999.25      -999.25      -999.25       1.3141     108.9372      26.0000
 43816.6516203704 15:38:20/17-Dec-2019     856.8500       0.0000       4.5200      -999.25      -999.25      -999.25      -999.25       1.3125     108.7993      26.0000
 43816.6517361111 15:38:30/17-Dec-2019     856.8500       0.0000       4.5200      -999.25      -999.25      -999.25      -999.25       1.3116     108.7303      26.0000
 43816.6518518519 15:38:40/17-Dec-2019     856.8500       0.0000       4.5200      -999.25      -999.25      -999.25      -999.25       1.3125     108.7993      26.0000
 43816.6519675926 15:38:50/17-Dec-2019     856.8500       0.0000       4.5200      -999.25      -999.25       0.0000       0.0000       1.3125     108.7993      26.0000
 43816.6520833333 15:39:00/17-Dec-2019     856.8500       0.0000       4.5200      -999.25      -999.25      -999.25      -999.25       1.3125     108.7993      26.0000
 43816.6521990741 15:39:10/17-Dec-2019     856.8500       0.0000       4.5200      -999.25      -999.25      -999.25      -999.25       1.3133     108.8682      26.0000
 43816.6523148148 15:39:20/17-Dec-2019     856.8500       0.0000       4.5200      -999.25      -999.25      -999.25      -999.25       1.3116     108.7303      26.0000
 43816.6524305556 15:39:30/17-Dec-2019     856.8500       0.0000       4.5200      -999.25      -999.25      -999.25      -999.25       1.3125     108.7993      26.0000
 43816.6525462963 15:39:40/17-Dec-2019     856.8500       0.0000       4.5200      -999.25      -999.25      -999.25      -999.25       1.3125     108.7993      26.0000
 43816.6526620370 15:39:50/17-Dec-2019     856.8500       0.0000       4.5200      -999.25      -999.25      -999.25      -999.25       1.3125     108.7993      26.0000
 43816.6527777778 15:40:00/17-Dec-2019     856.8500       0.0000       4.5200      -999.25      -999.25      -999.25      -999.25       1.3133     108.8682      26.0000
 43816.6528935185 15:40:10/17-Dec-2019     856.8500       0.0000       4.5200      -999.25      -999.25      -999.25      -999.25       1.3133     108.8682      26.0000
 43816.6530092593 15:40:20/17-Dec-2019     856.8500       0.0000       4.5200      -999.25      -999.25       0.0000       0.0000       1.3116     108.7303      26.0000
 43816.6531250000 15:40:30/17-Dec-2019     856.8500       0.0000       4.5200      -999.25      -999.25      -999.25      -999.25       1.3125     108.7993      26.0000
 43816.6532407407 15:40:40/17-Dec-2019     856.8500       0.0000       4.5200      -999.25      -999.25      -999.25      -999.25       1.3125     108.7993      26.0000
 43816.6533564815 15:40:50/17-Dec-2019     856.8500       0.0000       4.5200      -999.25      -999.25      -999.25      -999.25       1.3116     108.7303      26.0000
 43816.6534722222 15:41:00/17-Dec-2019     856.8500       0.0000       4.5200      -999.25      -999.25      -999.25      -999.25       1.3125     108.7993      26.0000
 43816.6535879630 15:41:10/17-Dec-2019     856.8500       2.7790       4.5200      -999.25      -999.25      -999.25      -999.25       1.3125     108.7993      26.0000
 43816.6537037037 15:41:20/17-Dec-2019     856.8500       0.0000       4.5200      -999.25      -999.25      -999.25      -999.25       1.3125     108.7993      26.0000
 43816.6538194444 15:41:30/17-Dec-2019     856.8500       0.0000       4.5200      -999.25      -999.25      -999.25      -999.25       1.3116     108.7303      26.0000
 43816.6539351852 15:41:40/17-Dec-2019     856.8500       0.0000       4.5200      -999.25      -999.25      -999.25      -999.25       1.3141     108.9372      26.0000
 43816.6540509259 15:41:50/17-Dec-2019     856.8500       0.0000       4.5200      -999.25      -999.25       0.0000       0.0000       1.3141     108.9372      26.0000
 43816.6541666667 15:42:00/17-Dec-2019     856.8500       0.0000       4.5200      -999.25      -999.25      -999.25      -999.25       1.3133     108.8682      26.0000
 43816.6542824074 15:42:10/17-Dec-2019     856.8500       0.0000       4.5200      -999.25      -999.25      -999.25      -999.25       1.3133     108.8682      26.0000
 43816.6543981481 15:42:20/17-Dec-2019     856.8500       0.0000       4.5200      -999.25      -999.25      -999.25      -999.25       1.3133     108.8682      26.0000
 43816.6545138889 15:42:30/17-Dec-2019     856.8500       1.8307       4.5200      -999.25      -999.25      -999.25      -999.25       1.3125     108.7993      26.0000
 43816.6546296296 15:42:40/17-Dec-2019     856.8500       0.0000       4.5200      -999.25      -999.25      -999.25      -999.25       1.3133     108.8682      26.0000
 43816.6547453704 15:42:50/17-Dec-2019     856.8500       0.0000       4.5200      -999.25      -999.25      -999.25      -999.25       1.3125     108.7993      26.0000
 43816.6548611111 15:43:00/17-Dec-2019     856.8500       0.0000       4.5200      -999.25      -999.25      -999.25      -999.25       1.3133     108.8682      26.0000
 43816.6549768519 15:43:10/17-Dec-2019     856.8500       0.0000       4.5200      -999.25      -999.25      -999.25      -999.25       1.3133     108.8682      26.0000
 43816.6550925926 15:43:20/17-Dec-2019     856.8500       0.0000       4.5200      -999.25      -999.25       0.0000       0.0000       1.3133     108.8682      26.0000
 43816.6552083333 15:43:30/17-Dec-2019     856.8500       0.0000       4.5200      -999.25      -999.25      -999.25      -999.25       1.3116     108.7303      26.0000
 43816.6553240741 15:43:40/17-Dec-2019     856.8500       0.0000       4.5200      -999.25      -999.25      -999.25      -999.25       1.3133     108.8682      26.0000
 43816.6554398148 15:43:50/17-Dec-2019     856.8500       0.0000       4.5200      -999.25      -999.25      -999.25      -999.25       1.3125     108.7993      26.0000
 43816.6555555556 15:44:00/17-Dec-2019     856.8500       0.0000       4.5200      -999.25      -999.25      -999.25      -999.25       1.3125     108.7993      26.0000
 43816.6556712963 15:44:10/17-Dec-2019     856.8500       0.0000       4.5200      -999.25      -999.25      -999.25      -999.25       1.3125     108.7993      26.0000
 43816.6557870370 15:44:20/17-Dec-2019     856.8500       0.0000       4.5200      -999.25      -999.25      -999.25      -999.25       1.3149     109.0061      26.0000
 43816.6559027778 15:44:30/17-Dec-2019     856.8500      14.0804       4.5200      -999.25      -999.25      -999.25      -999.25       1.3116     108.7303      26.0000
 43816.6560185185 15:44:40/17-Dec-2019     856.8500      31.4738       4.5200      -999.25      -999.25       0.0000       0.0000       1.3116     108.7303      26.0000
 43816.6561342593 15:44:50/17-Dec-2019     856.8500      32.5082       4.5200      -999.25      -999.25      -999.25      -999.25       1.3116     108.7303      26.0000
