~VERSION INFORMATION 
VERS  .    2.0                                     :CWLS Log ASCII Standard - VERSION 2.0
WRAP  .    NO                                      :One Line per Time step
PROD  .    Schlumberger Technology Corp.           :LAS Producer
PROG  .    Horizon LASWriter 9.2.113335.3100       :LAS Program name and version
SOURCE.    Run 3-TimeLogicalAcq                    :Run&Pass Information
CREA  .    12/12/2019                              :LAS Creation date {MM/DD/YYYY}
#--------------------------------------------------
~WELL INFORMATION 
#MNEM           .UNIT                      DATA            :DESCRIPTION
#----            ------          --------------            -----------------------------
STRT            .d               43804.6875000000          :START TIME(OLE Automation date)
STOP            .d               43805.8541666667          :STOP TIME(OLE Automation date)
STEP            .d                            0            :STEP TIME(10s in time)
NULL            .                       -999.25            :NULL VALUE
COMP            .                       Equinor            :COMPANY
WELL            .                        31/5-7            :WELL NAME
FLD             .                           Eos            :FIELD NAME
RIGN            .                 West Hercules            :Rig Name
RIGTYP          .                Semi-Submersible          :Rig Type
SON             .                     19SCA0085            :Service Order Number
SRVC            .                  Schlumberger            :SERVICE COMPANY
DATE            .                    12/05/2019            :LOG DATE(Composite Date for Composite LAP) (MM/DD/YYYY)
CLAB            .                       County:            :County Label
CNTY            .                                          :COUNTY
SLAB            .                                          :State/Province Label
STAT            .                                          :STATE or PROVINCE
PROV            .                                          :STATE or PROVINCE
CTRY            .                        Norway            :COUNTRY
CONT_REGION     .                        Europe            :Continent Region
SECT            .                                          :Section
TOWN            .                                          :Township
RANG            .                                          :Range
API             .                                          :API NUMBER
UWI             .                                          :UNIQUE WELL ID
LUL             .                Service Office            :Logging Unit Location
LUN             .                          A615            :Logging Unit Number
LOC             .                Norwegian North Sea       :FIELD LOCATION
FL1             .                Section: 26 in.           :Field Location Line 1
FL2             .                Job no.: 19SCA0085        :Field Location Line 2
LATI            .deg             60° 34' 35.14" N          :LATITUDE
LONG            .deg             3° 26' 36.13" E           :LONGITUDE
PDAT            .                           MSL            :Local Permanent Datum
LMF             .                            DF            :Logging Measured From
APD             .m                        31.00            :Elevation of Depth Reference (LMF) Above Permanent Datum
EPD             .m                         0.00            :Elevation of Permanent Datum (PDAT) above Mean Sea Level
EKB             .m                      -999.25            :Elevation of Kelly Bushing Above Permanent Datum
EDF             .m                        31.00            :Elevation of Drill Floor Above Permanent Datum
EGL             .m                      -307.00            :Elevation of Ground Level Above Permanent Datum
ECF             .m                      -999.25            :Elevation of Casing Flange above Permanent Datum
#--------------------------------------------------
~CURVE INFORMATION
#MNEM           .UNIT                  API CODE            :DESCRIPTION
#----            ------          --------------            -----------------------------
TIME_1900       .d                                         :                                                        Time Index(OLE Automation date)
TIME            .s                                         :                                (10s)                   Time(hh mm ss/dd-MMM-yyyy)
DEPTH           .m                                         :(RT)    (DnMWorkflow)                                   Depth Index
GR_CAL          .gAPI                                      :(RT)    (ARC9)                                          Calibrated Gamma Ray
BLKP            .m                                         :(RT)    (DRILLING_SURFACE)                              Height of block above rig floor
CRPM            .c/min                                     :(RT)    (TELE900)                                       Collar Rotational Speed
STICK           .c/min                                     :(RT)    (TELE900)                                       Stick Slip Indicator
SHKPK           .gn                                        :(RT)    (TELE900)                                       Shock Peak
SHKRSK          .                                          :(RT)    (TELE900)                                       Shock Risk
DHAP            .bar                                       :(RM)    (ARC9)                                          Downhole Annulus Pressure
DHAT            .degC                                      :(RM)    (ARC9)                                          Downhole Annulus Temperature
ECD             .g/cm3                                     :(RM)    (ARC9)                                          Equivalent Circulating Density
#-------------------------------------------------------------
#       TIME_1900                 TIME        DEPTH       GR_CAL         BLKP         CRPM        STICK        SHKPK       SHKRSK         DHAP         DHAT          ECD 
#                                       (DnMWorkfl)       (ARC9)  (DRILLING_)    (TELE900)    (TELE900)    (TELE900)    (TELE900)       (ARC9)       (ARC9)       (ARC9) 
#                                              (RT)         (RT)         (RT)         (RT)         (RT)         (RT)         (RT)         (RM)         (RM)         (RM) 
#                                (10s)                                                                                                                                   
~ASCII
# ...
 43805.3041666667 07:18:00/06-Dec-2019     710.3400      84.7815      26.3900      82.0000      -999.25       0.0000       0.0000      70.9471      14.0000       1.1011
 43805.3042824074 07:18:10/06-Dec-2019     710.2401      76.9900      26.4900      -999.25      45.0000      -999.25      -999.25      71.0160      14.0000       1.1025
 43805.3043981481 07:18:20/06-Dec-2019     710.8200      70.9389      25.9100      -999.25      -999.25      -999.25      -999.25      71.0160      14.0000       1.1015
 43805.3045138889 07:18:30/06-Dec-2019     710.7300      75.8595      26.0000      -999.25      -999.25      -999.25      -999.25      71.0160      14.0000       1.1016
 43805.3046296296 07:18:40/06-Dec-2019     710.7300      80.9225      26.0000      79.0000      -999.25       0.0000       0.0000      71.0160      14.0000       1.1016
 43805.3047453704 07:18:50/06-Dec-2019     711.2300      82.8573      25.5000      -999.25      42.0000      -999.25      -999.25      71.0160      14.0000       1.1009
 43805.3048611111 07:19:00/06-Dec-2019     711.0800      80.7585      25.6500      -999.25      -999.25      -999.25      -999.25      71.0850      14.0000       1.1021
 43805.3049768518 07:19:10/06-Dec-2019     711.5100      81.0619      25.2200      -999.25      -999.25      -999.25      -999.25      71.0850      14.0000       1.1014
 43805.3050925926 07:19:20/06-Dec-2019     711.3700      85.1783      25.3600      -999.25      -999.25      -999.25      -999.25      71.0850      14.0000       1.1016
 43805.3052083333 07:19:30/06-Dec-2019     710.6400      89.3336      26.0900      81.0000      -999.25       0.0000       0.0000      71.1539      14.0000       1.1039
 43805.3053240741 07:19:40/06-Dec-2019     711.6900      88.8144      25.0400      -999.25      36.0000      -999.25      -999.25      71.2228      14.0000       1.1033
 43805.3054398148 07:19:50/06-Dec-2019     711.1700      86.6328      25.5600      -999.25      -999.25      -999.25      -999.25      71.3607      14.0000       1.1060
 43805.3055555556 07:20:00/06-Dec-2019     710.6100      87.0944      26.1200      -999.25      -999.25      -999.25      -999.25      71.3607      14.0000       1.1072
 43805.3056712963 07:20:10/06-Dec-2019     711.7400      86.5466      25.0800      82.0000      -999.25       0.0000       0.0000      71.4297      14.0000       1.1064
 43805.3057870370 07:20:20/06-Dec-2019     711.2700      86.1597      25.4600      -999.25      27.0000      -999.25      -999.25      71.3607      14.0000       1.1061
 43805.3059027778 07:20:30/06-Dec-2019     711.5600      86.1146      25.1700      -999.25      -999.25      -999.25      -999.25      71.4297      14.0000       1.1068
 43805.3060185185 07:20:40/06-Dec-2019     712.1100      87.5572      24.6200      -999.25      -999.25      -999.25      -999.25      71.3607      14.0000       1.1047
 43805.3061342593 07:20:50/06-Dec-2019     711.8900      86.5181      24.8400      77.0000      -999.25      -999.25      -999.25      71.3607      14.0000       1.1050
 43805.3062500000 07:21:00/06-Dec-2019     712.0800      85.9990      24.6500      -999.25      45.0000       0.0000       0.0000      71.4297      14.0000       1.1058
 43805.3063657407 07:21:10/06-Dec-2019     711.9800      90.1543      24.7500      -999.25      -999.25      -999.25      -999.25      71.4297      14.0000       1.1060
 43805.3064814815 07:21:20/06-Dec-2019     712.0000      89.1016      24.7200      -999.25      -999.25      -999.25      -999.25      71.4297      14.0000       1.1059
 43805.3065972222 07:21:30/06-Dec-2019     712.5400      80.1779      24.1800      -999.25      -999.25      -999.25      -999.25      71.4297      14.0000       1.1050
 43805.3067129630 07:21:40/06-Dec-2019     712.3200      71.8672      24.2200      85.0000      -999.25       0.0000       0.0000      71.4986      14.0000       1.1064
 43805.3068287037 07:21:50/06-Dec-2019     711.9200      72.9056      24.7100      -999.25      51.0000      -999.25      -999.25      71.5676      14.0000       1.1082
 43805.3069444444 07:22:00/06-Dec-2019     712.2100      77.5100      24.6200      -999.25      -999.25      -999.25      -999.25      71.4297      14.0000       1.1056
 43805.3070601852 07:22:10/06-Dec-2019     712.7600      80.7585      24.0500      -999.25      -999.25      -999.25      -999.25      71.4986      14.0000       1.1057
 43805.3071759259 07:22:20/06-Dec-2019     712.8400      82.8573      23.7900      82.0000      -999.25       0.0000       0.0000      71.4297      14.0000       1.1045
 43805.3072916667 07:22:30/06-Dec-2019     711.9800      80.9225      24.5600      -999.25      39.0000      -999.25      -999.25      71.3607      14.0000       1.1048
 43805.3074074074 07:22:40/06-Dec-2019     712.8100      75.8595      24.0100      -999.25      -999.25      -999.25      -999.25      71.3607      14.0000       1.1035
 43805.3075231481 07:22:50/06-Dec-2019     712.8600      78.4952      23.7700      -999.25      -999.25      -999.25      -999.25      71.2918      14.0000       1.1023
 43805.3076388889 07:23:00/06-Dec-2019     712.6000      82.0324      24.1200      -999.25      -999.25      -999.25      -999.25      71.3607      14.0000       1.1038
 43805.3077546296 07:23:10/06-Dec-2019     712.8800      82.5516      23.8400      82.0000      -999.25       0.0000       0.0000      71.3607      14.0000       1.1034
 43805.3078703704 07:23:20/06-Dec-2019     712.6600      78.3963      24.0700      -999.25      42.0000      -999.25      -999.25      71.3607      14.0000       1.1037
 43805.3079861111 07:23:30/06-Dec-2019     713.6400      76.1878      23.1700      -999.25      -999.25      -999.25      -999.25      71.2918      14.0000       1.1011
 43805.3081018519 07:23:40/06-Dec-2019     712.8500      79.3148      23.7800      -999.25      -999.25      -999.25      -999.25      71.3607      14.0000       1.1034
 43805.3082175926 07:23:50/06-Dec-2019     713.1400      82.2790      23.6800      82.0000      -999.25       0.0000       0.0000      71.2918      14.0000       1.1019
 43805.3083333333 07:24:00/06-Dec-2019     713.7700      86.1485      22.7500      -999.25      51.0000      -999.25      -999.25      71.2918      14.0000       1.1007
 43805.3084490741 07:24:10/06-Dec-2019     712.6300      89.1128      24.0000      -999.25      -999.25      -999.25      -999.25      71.2918      14.0000       1.1027
 43805.3085648148 07:24:20/06-Dec-2019     713.4800      87.1526      23.3400      -999.25      -999.25      -999.25      -999.25      71.3607      14.0000       1.1024
 43805.3086805556 07:24:30/06-Dec-2019     713.8200      87.5442      22.7900      79.0000      -999.25      -999.25      -999.25      71.2918      14.0000       1.1007
 43805.3087962963 07:24:40/06-Dec-2019     713.3900      91.1803      23.3400      -999.25      27.0000       0.0000       0.0000      71.2918      14.0000       1.1015
 43805.3089120370 07:24:50/06-Dec-2019     714.1400      94.8165      22.5800      -999.25      -999.25      -999.25      -999.25      71.2918      14.0000       1.1002
 43805.3090277778 07:25:00/06-Dec-2019     713.7100      89.4906      22.8200      -999.25      -999.25      -999.25      -999.25      71.3607      14.0000       1.1019
 43805.3091435185 07:25:10/06-Dec-2019     714.0000      82.8682      22.8200      -999.25      -999.25      -999.25      -999.25      71.3607      14.0000       1.1015
 43805.3092592593 07:25:20/06-Dec-2019     714.4000      76.8948      22.2400      85.0000      -999.25       0.0000       0.0000      71.3607      14.0000       1.1008
 43805.3093750000 07:25:30/06-Dec-2019     714.0000      75.5959      22.7300      -999.25      27.0000      -999.25      -999.25      71.3607      14.0000       1.1015
 43805.3094907407 07:25:40/06-Dec-2019     714.7600      77.1046      22.0500      -999.25      -999.25      -999.25      -999.25      71.3607      14.0000       1.1003
 43805.3096064815 07:25:50/06-Dec-2019     714.8500      80.1920      21.7800      -999.25      -999.25      -999.25      -999.25      71.2918      14.0000       1.0990
