~VERSION INFORMATION 
VERS  .    2.0                                     :CWLS Log ASCII Standard - VERSION 2.0
WRAP  .    NO                                      :One Line per Time step
PROD  .    Schlumberger Technology Corp.           :LAS Producer
PROG  .    Horizon LASWriter 9.2.113335.3100       :LAS Program name and version
SOURCE.    Run 7-TimeLogicalAcq                    :Run&Pass Information
CREA  .    12/27/2019                              :LAS Creation date {MM/DD/YYYY}
#--------------------------------------------------
~WELL INFORMATION 
#MNEM           .UNIT                      DATA            :DESCRIPTION
#----            ------          --------------            -----------------------------
STRT            .d               43818.4166666667          :START TIME(OLE Automation date)
STOP            .d               43819.7083333333          :STOP TIME(OLE Automation date)
STEP            .d                            0            :STEP TIME(10s in time)
NULL            .                       -999.25            :NULL VALUE
COMP            .                       Equinor            :COMPANY
WELL            .                        31/5-7            :WELL NAME
FLD             .                           Eos            :FIELD NAME
RIGN            .                 West Hercules            :Rig Name
RIGTYP          .                Semi-Submersible          :Rig Type
SON             .                     19SCA0085            :Service Order Number
SRVC            .                  Schlumberger            :SERVICE COMPANY
DATE            .                    12/19/2019            :LOG DATE(Composite Date for Composite LAP) (MM/DD/YYYY)
CLAB            .                       County:            :County Label
CNTY            .                                          :COUNTY
SLAB            .                                          :State/Province Label
STAT            .                                          :STATE or PROVINCE
PROV            .                                          :STATE or PROVINCE
CTRY            .                        Norway            :COUNTRY
CONT_REGION     .                        Europe            :Continent Region
SECT            .                                          :Section
TOWN            .                                          :Township
RANG            .                                          :Range
API             .                                          :API NUMBER
UWI             .                                          :UNIQUE WELL ID
LUL             .                Service Office            :Logging Unit Location
LUN             .                          A615            :Logging Unit Number
LOC             .                Norwegian North Sea       :FIELD LOCATION
FL1             .                Section: 12 1/4 x 17 1/5 in.:Field Location Line 1
FL2             .                Job no.: 19SCA0085        :Field Location Line 2
LATI            .deg             60° 34' 35.14" N          :LATITUDE
LONG            .deg             3° 26' 36.13" E           :LONGITUDE
PDAT            .                           MSL            :Local Permanent Datum
LMF             .                            DF            :Logging Measured From
APD             .m                        31.00            :Elevation of Depth Reference (LMF) Above Permanent Datum
EPD             .m                         0.00            :Elevation of Permanent Datum (PDAT) above Mean Sea Level
EKB             .m                      -999.25            :Elevation of Kelly Bushing Above Permanent Datum
EDF             .m                        31.00            :Elevation of Drill Floor Above Permanent Datum
EGL             .m                      -307.00            :Elevation of Ground Level Above Permanent Datum
ECF             .m                      -999.25            :Elevation of Casing Flange above Permanent Datum
#--------------------------------------------------
~CURVE INFORMATION
#MNEM           .UNIT                  API CODE            :DESCRIPTION
#----            ------          --------------            -----------------------------
TIME_1900       .d                                         :                                                        Time Index(OLE Automation date)
TIME            .s                                         :                                (10s)                   Time(hh mm ss/dd-MMM-yyyy)
DEPTH           .m                                         :(RT)    (DnMWorkflow)                                   Depth Index
BLKP            .m                                         :(RT)    (DRILLING_SURFACE)                              Height of block above rig floor
GR_CAL          .gAPI                                      :(RT)    (ARC9)                                          Calibrated Gamma Ray
STICK           .c/min                                     :(RT)    (TELE900)                                       Stick Slip Indicator
CRPM            .c/min                                     :(RT)    (TELE900)                                       Collar Rotational Speed
SHKRSK          .                                          :(RT)    (TELE900)                                       Shock Risk
SHKPK           .gn                                        :(RT)    (TELE900)                                       Shock Peak
DHAT            .degC                                      :(RM)    (ARC9)                                          Downhole Annulus Temperature
DHAP            .bar                                       :(RM)    (ARC9)                                          Downhole Annulus Pressure
ECD             .g/cm3                                     :(RM)    (ARC9)                                          Equivalent Circulating Density
#-------------------------------------------------------------
#       TIME_1900                 TIME        DEPTH         BLKP       GR_CAL        STICK         CRPM       SHKRSK        SHKPK         DHAT         DHAP          ECD 
#                                       (DnMWorkfl)  (DRILLING_)       (ARC9)    (TELE900)    (TELE900)    (TELE900)    (TELE900)       (ARC9)       (ARC9)       (ARC9) 
#                                              (RT)         (RT)         (RT)         (RT)         (RT)         (RT)         (RT)         (RM)         (RM)         (RM) 
#                                (10s)                                                                                                                                   
~ASCII
# ...
 43819.3722222222 08:56:00/20-Dec-2019   1905.55005     14.43000    173.74870      -999.25      -999.25      -999.25      -999.25     37.00000    243.17810      1.31070
 43819.3723379630 08:56:10/20-Dec-2019   1905.64990     14.33000    175.05530      -999.25      -999.25      -999.25      -999.25     37.00000    243.24700      1.31100
 43819.3724537037 08:56:20/20-Dec-2019   1905.56006     14.42000    175.24990      -999.25      -999.25      -999.25      -999.25     37.00000    243.31600      1.31143
 43819.3725694444 08:56:30/20-Dec-2019   1905.50012     14.48000    176.54870      -999.25    217.00000      0.00000      0.00000     37.00000    243.17810      1.31075
 43819.3726851852 08:56:40/20-Dec-2019   1905.42993     14.55000    182.52220    258.00000      -999.25      -999.25      -999.25     37.00000    243.24700      1.31115
 43819.3728009259 08:56:50/20-Dec-2019   1905.38000     14.60000    184.95030      -999.25      -999.25      -999.25      -999.25     37.00000    243.59180      1.31305
 43819.3729166667 08:57:00/20-Dec-2019   1905.31006     14.67000    182.21860      -999.25      -999.25      -999.25      -999.25     37.00000    243.31600      1.31161
 43819.3730324074 08:57:10/20-Dec-2019   1905.31006     14.67000    187.28160      -999.25    217.00000      0.00000      0.00000     37.00000    243.52280      1.31272
 43819.3731481481 08:57:20/20-Dec-2019   1905.31006     14.67000    189.21640    126.00000      -999.25      -999.25      -999.25     37.00000    243.04020      1.31012
 43819.3732638889 08:57:30/20-Dec-2019   1905.31006     14.67000    187.11760      -999.25      -999.25      -999.25      -999.25     37.00000    242.83340      1.30901
 43819.3733796296 08:57:40/20-Dec-2019   1905.31006     14.67000    183.68170      -999.25      -999.25      -999.25      -999.25     37.00000    242.90230      1.30938
 43819.3734953704 08:57:50/20-Dec-2019   1905.31006     14.67000    175.44890      -999.25      -999.25      -999.25      -999.25     37.00000    242.55760      1.30752
 43819.3736111111 08:58:00/20-Dec-2019   1905.31006     14.67000    167.13820     12.00000    216.00000      0.00000      0.00000     37.00000    242.48860      1.30715
 43819.3737268519 08:58:10/20-Dec-2019   1905.31006     14.67000    168.17660      -999.25      -999.25      -999.25      -999.25     37.00000    242.97130      1.30975
 43819.3738425926 08:58:20/20-Dec-2019   1905.31006     14.67000    174.20810      -999.25      -999.25      -999.25      -999.25     37.00000    242.76440      1.30863
 43819.3739583333 08:58:30/20-Dec-2019   1905.31006     14.67000    186.85540      -999.25      -999.25      -999.25      -999.25     37.00000    242.83340      1.30901
 43819.3740740741 08:58:40/20-Dec-2019   1905.31006     14.67000    195.25070      -999.25    217.00000      0.00000      0.00000     37.00000    242.76440      1.30863
 43819.3741898148 08:58:50/20-Dec-2019   1905.31006     14.67000    187.51160     12.00000      -999.25      -999.25      -999.25     37.00000    242.69540      1.30826
 43819.3743055556 08:59:00/20-Dec-2019   1905.31006     14.67000    167.25950      -999.25      -999.25      -999.25      -999.25     37.00000    242.83340      1.30901
 43819.3744212963 08:59:10/20-Dec-2019   1905.31006     14.67000    157.21840      -999.25      -999.25      -999.25      -999.25     37.00000    242.97130      1.30975
 43819.3745370370 08:59:20/20-Dec-2019   1905.31006     14.67000    158.08380      -999.25    217.00000      -999.25      -999.25     37.00000    243.04020      1.31012
 43819.3746527778 08:59:30/20-Dec-2019   1905.31006     14.67000    163.88810     84.00000      -999.25      0.00000      0.00000     37.00000    242.69540      1.30826
 43819.3747685185 08:59:40/20-Dec-2019   1905.31006     14.67000    171.91530      -999.25      -999.25      -999.25      -999.25     37.00000    242.35070      1.30640
 43819.3748842593 08:59:50/20-Dec-2019   1905.43994     14.54000    179.52060      -999.25      -999.25      -999.25      -999.25     37.00000    242.35070      1.30633
 43819.3750000000 09:00:00/20-Dec-2019   1905.68005     14.70000    184.02670      -999.25      -999.25      -999.25      -999.25     37.00000    242.35070      1.30615
 43819.3751157407 09:00:10/20-Dec-2019   1905.53003     14.85000    189.48100      -999.25    217.00000      0.00000      0.00000     37.00000    242.62650      1.30774
 43819.3752314815 09:00:20/20-Dec-2019   1905.38989     14.99000    194.93520    102.00000      -999.25      -999.25      -999.25     37.00000    242.69540      1.30820
 43819.3753472222 09:00:30/20-Dec-2019   1905.25000     15.13000    199.71300      -999.25      -999.25      -999.25      -999.25     37.00000    242.55760      1.30756
 43819.3754629630 09:00:40/20-Dec-2019   1905.09009     15.29000    205.90050      -999.25      -999.25      -999.25      -999.25     37.00000    242.41970      1.30692
 43819.3755787037 09:00:50/20-Dec-2019   1904.94006     15.44000    203.80170      -999.25    217.00000      0.00000      0.00000     37.00000    242.48860      1.30740
 43819.3756944444 09:01:00/20-Dec-2019   1904.94006     15.44000    205.73650     39.00000      -999.25      -999.25      -999.25     37.00000    242.07490      1.30517
 43819.3758101852 09:01:10/20-Dec-2019   1904.98999     15.39000    210.79950      -999.25      -999.25      -999.25      -999.25     37.00000    242.28180      1.30627
 43819.3759259259 09:01:20/20-Dec-2019   1905.05005     15.33000    212.58970      -999.25      -999.25      -999.25      -999.25     37.00000    242.76440      1.30881
 43819.3760416667 09:01:30/20-Dec-2019   1905.16003     15.22000    221.06930      -999.25      -999.25      -999.25      -999.25     37.00000    242.97130      1.30985
 43819.3761574074 09:01:40/20-Dec-2019   1905.16003     15.22000    226.26310     12.00000    217.00000      0.00000      0.00000     37.00000    243.24700      1.31134
 43819.3762731481 09:01:50/20-Dec-2019   1905.14001     15.23000    217.43320      -999.25      -999.25      -999.25      -999.25     37.00000    243.10910      1.31061
 43819.3763888889 09:02:00/20-Dec-2019   1905.03003     15.35000    206.46410      -999.25      -999.25      -999.25      -999.25     37.00000    243.04020      1.31032
 43819.3765046296 09:02:10/20-Dec-2019   1904.91992     15.45000    200.21510      -999.25      -999.25      -999.25      -999.25     37.00000    242.48860      1.30742
 43819.3766203704 09:02:20/20-Dec-2019   1904.79993     15.56000    199.31990      -999.25    217.00000      0.00000      0.00000     37.00000    242.28180      1.30638
 43819.3767361111 09:02:30/20-Dec-2019   1904.69995     15.68000    199.31990      9.00000      -999.25      -999.25      -999.25     37.00000    242.28180      1.30645
 43819.3768518518 09:02:40/20-Dec-2019   1904.57007     15.80000    200.21510      -999.25      -999.25      -999.25      -999.25     37.00000    242.21280      1.30617
 43819.3769675926 09:02:50/20-Dec-2019   1904.44995     15.93000    203.00440      -999.25      -999.25      -999.25      -999.25     37.00000    242.62650      1.30849
 43819.3770833333 09:03:00/20-Dec-2019   1904.31995     16.05000    208.68410      -999.25    217.00000      -999.25      -999.25     37.00000    242.41970      1.30746
 43819.3771990741 09:03:10/20-Dec-2019   1904.20007     16.17000    206.74930      9.00000      -999.25      0.00000      0.00000     37.00000    242.28180      1.30680
 43819.3773148148 09:03:20/20-Dec-2019   1904.07996     16.29000    198.10540      -999.25      -999.25      -999.25      -999.25     37.00000    242.62650      1.30874
 43819.3774305556 09:03:30/20-Dec-2019   1903.96997     16.41000    190.79340      -999.25      -999.25      -999.25      -999.25     37.00000    242.62650      1.30882
 43819.3775462963 09:03:40/20-Dec-2019   1903.84998     16.53000    189.60380      -999.25      -999.25      -999.25      -999.25     37.00000    242.00600      1.30555
 43819.3776620370 09:03:50/20-Dec-2019   1903.73010     16.64000    190.18810      -999.25    217.00000      0.00000      0.00000     36.00000    242.14390      1.30638
