~VERSION INFORMATION 
VERS  .    2.0                                     :CWLS Log ASCII Standard - VERSION 2.0
WRAP  .    NO                                      :One Line per Time step
PROD  .    Schlumberger Technology Corp.           :LAS Producer
PROG  .    Horizon LASWriter 9.2.113335.3100       :LAS Program name and version
SOURCE.    Run 9-TimeLogicalAcq                    :Run&Pass Information
CREA  .    01/21/2020                              :LAS Creation date {MM/DD/YYYY}
#--------------------------------------------------
~WELL INFORMATION 
#MNEM           .UNIT                      DATA            :DESCRIPTION
#----            ------          --------------            -----------------------------
STRT            .d               43828.3333333334          :START TIME(OLE Automation date)
STOP            .d               43829.1041666667          :STOP TIME(OLE Automation date)
STEP            .d                            0            :STEP TIME(10s in time)
NULL            .                       -999.25            :NULL VALUE
COMP            .                       Equinor            :COMPANY
WELL            .                        31/5-7            :WELL NAME
FLD             .                           Eos            :FIELD NAME
RIGN            .                 West Hercules            :Rig Name
RIGTYP          .                Semi-Submersible          :Rig Type
SON             .                     19SCA0085            :Service Order Number
SRVC            .                  Schlumberger            :SERVICE COMPANY
DATE            .                    12/29/2019            :LOG DATE(Composite Date for Composite LAP) (MM/DD/YYYY)
CLAB            .                       County:            :County Label
CNTY            .                                          :COUNTY
SLAB            .                                          :State/Province Label
STAT            .                                          :STATE or PROVINCE
PROV            .                                          :STATE or PROVINCE
CTRY            .                        Norway            :COUNTRY
CONT_REGION     .                        Europe            :Continent Region
SECT            .                                          :Section
TOWN            .                                          :Township
RANG            .                                          :Range
API             .                                          :API NUMBER
UWI             .                                          :UNIQUE WELL ID
LUL             .                Service Office            :Logging Unit Location
LUN             .                          A615            :Logging Unit Number
LOC             .                Norwegian North Sea       :FIELD LOCATION
FL1             .                Section: 8 1/2 in.        :Field Location Line 1
FL2             .                Job no.: 19SCA0085        :Field Location Line 2
LATI            .deg             60° 34' 35.14" N          :LATITUDE
LONG            .deg             3° 26' 36.13" E           :LONGITUDE
PDAT            .                           MSL            :Local Permanent Datum
LMF             .                            DF            :Logging Measured From
APD             .m                        31.00            :Elevation of Depth Reference (LMF) Above Permanent Datum
EPD             .m                         0.00            :Elevation of Permanent Datum (PDAT) above Mean Sea Level
EKB             .m                      -999.25            :Elevation of Kelly Bushing Above Permanent Datum
EDF             .m                        31.00            :Elevation of Drill Floor Above Permanent Datum
EGL             .m                      -307.00            :Elevation of Ground Level Above Permanent Datum
ECF             .m                      -999.25            :Elevation of Casing Flange above Permanent Datum
#--------------------------------------------------
~CURVE INFORMATION
#MNEM           .UNIT                  API CODE            :DESCRIPTION
#----            ------          --------------            -----------------------------
TIME_1900       .d                                         :                                                        Time Index(OLE Automation date)
TIME            .s                                         :                                (10s)                   Time(hh mm ss/dd-MMM-yyyy)
DEPTH           .m                                         :(RT)    (DnMWorkflow)                                   Depth Index
BLKP            .m                                         :(RT)    (DRILLING_SURFACE)                              Height of block above rig floor
GR              .gAPI                                      :(RT)    (ARC6)                                          Gamma Ray
CRPM            .c/min                                     :(RT)    (TELE675)                                       Collar Rotational Speed
STICK           .c/min                                     :(RT)    (TELE675)                                       Stick Slip Indicator
SHKRSK          .                                          :(RT)    (TELE675)                                       Shock Risk
SHKPK           .gn                                        :(RT)    (TELE675)                                       Shock Peak
DHAT            .degC                                      :(RM)    (ARC6)                                          Downhole Annulus Temperature
DHAP            .bar                                       :(RM)    (ARC6)                                          Downhole Annulus Pressure
ECD             .g/cm3                                     :(RM)    (ARC6)                                          Equivalent Circulating Density
#-------------------------------------------------------------
#       TIME_1900                 TIME        DEPTH         BLKP           GR         CRPM        STICK       SHKRSK        SHKPK         DHAT         DHAP          ECD 
#                                       (DnMWorkfl)  (DRILLING_)       (ARC6)    (TELE675)    (TELE675)    (TELE675)    (TELE675)       (ARC6)       (ARC6)       (ARC6) 
#                                              (RT)         (RT)         (RT)         (RT)         (RT)         (RT)         (RT)         (RM)         (RM)         (RM) 
#                                (10s)                                                                                                                                   
~ASCII
# ...
 43828.6500000000 15:36:00/29-Dec-2019   2584.97021     17.52000     74.37647      -999.25      -999.25      0.00000      0.00000     36.00000    302.40410      1.19700
 43828.6501157407 15:36:10/29-Dec-2019   2585.07983     17.41000     78.75561      -999.25      -999.25      -999.25      -999.25     36.00000    302.40410      1.19696
 43828.6502314815 15:36:20/29-Dec-2019   2584.89990     17.59000     78.11951      -999.25      -999.25      -999.25      -999.25     36.00000    304.33460      1.20470
 43828.6503472222 15:36:30/29-Dec-2019   2584.37012     18.12000     72.54822      -999.25      -999.25      -999.25      -999.25     36.00000    303.23140      1.20050
 43828.6504629630 15:36:40/29-Dec-2019   2583.83008     18.66000     72.31496     95.00000      -999.25      -999.25      -999.25     36.00000    301.99040      1.19585
 43828.6505787037 15:36:50/29-Dec-2019   2583.17993     19.31000     71.87429      -999.25    297.00000      0.00000      0.00000     36.00000    302.74880      1.19921
 43828.6506944444 15:37:00/29-Dec-2019   2582.01001     20.48000     71.31603      -999.25      -999.25      -999.25      -999.25     36.00000    301.43880      1.19460
 43828.6508101852 15:37:10/29-Dec-2019   2581.13989     21.35000     70.86752      -999.25      -999.25      -999.25      -999.25     36.00000    301.57670      1.19550
 43828.6509259259 15:37:20/29-Dec-2019   2581.23999     21.25000     64.18140      -999.25      -999.25      -999.25      -999.25     36.00000    300.68040      1.19190
 43828.6510416667 15:37:30/29-Dec-2019   2581.43018     21.06000     65.88583     91.00000      -999.25      -999.25      -999.25     36.00000    301.99040      1.19702
 43828.6511574074 15:37:40/29-Dec-2019   2582.10010     20.39000     68.38316      -999.25    222.00000      -999.25      -999.25     36.00000    304.33460      1.20602
 43828.6512731481 15:37:50/29-Dec-2019   2583.14014     19.35000     70.88046      -999.25      -999.25      0.00000      0.00000     36.00000    302.67980      1.19889
 43828.6513888889 15:38:00/29-Dec-2019   2583.90015     18.59000     72.58490      -999.25      -999.25      -999.25      -999.25     36.00000    303.16250      1.20053
 43828.6515046296 15:38:10/29-Dec-2019   2584.28003     18.21000     74.90641      -999.25      -999.25      -999.25      -999.25     36.00000    301.99040      1.19567
 43828.6516203704 15:38:20/29-Dec-2019   2584.67993     17.81000     78.04810      -999.25      -999.25      -999.25      -999.25     36.00000    301.71460      1.19443
 43828.6517361111 15:38:30/29-Dec-2019   2585.04004     17.43000     80.40180     98.00000      -999.25      -999.25      -999.25     36.00000    302.88670      1.19890
 43828.6518518519 15:38:40/29-Dec-2019   2585.12988     17.35000     77.79906      -999.25    309.00000      0.00000      0.00000     36.00000    302.05930      1.19556
 43828.6519675926 15:38:50/29-Dec-2019   2584.76001     17.73000     71.06622      -999.25      -999.25      -999.25      -999.25     36.00000    303.36930      1.20096
 43828.6520833333 15:39:00/29-Dec-2019   2584.92017     17.57000     70.06049      -999.25      -999.25      -999.25      -999.25     36.00000    302.61090      1.19784
 43828.6521990741 15:39:10/29-Dec-2019   2585.04004     17.45000     77.94933      -999.25      -999.25      -999.25      -999.25     36.00000    303.50720      1.20137
 43828.6523148148 15:39:20/29-Dec-2019   2584.77002     17.72000     79.18528     99.00000      -999.25      -999.25      -999.25     36.00000    302.67980      1.19815
 43828.6524305556 15:39:30/29-Dec-2019   2585.22021     17.27000     79.86035      -999.25    105.00000      0.00000      0.00000     36.00000    302.81770      1.19852
 43828.6525462963 15:39:40/29-Dec-2019   2584.94995     17.54000     79.18528      -999.25      -999.25      -999.25      -999.25     36.00000    303.43830      1.20111
 43828.6526620370 15:39:50/29-Dec-2019   2585.04980     17.61000     77.94933      -999.25      -999.25      -999.25      -999.25     36.00000    303.78300      1.20255
 43828.6527777778 15:40:00/29-Dec-2019   2585.34985     17.14000     75.26002      -999.25      -999.25      -999.25      -999.25     36.00000    303.43830      1.20093
 43828.6528935185 15:40:10/29-Dec-2019   2585.12012     17.37000     78.09850      -999.25      -999.25      -999.25      -999.25     36.00000    303.09350      1.19962
 43828.6530092593 15:40:20/29-Dec-2019   2585.20996     17.28000     84.83135     98.00000      -999.25      -999.25      -999.25     36.00000    302.26620      1.19640
 43828.6531250000 15:40:30/29-Dec-2019   2584.89990     17.73000     87.43410      -999.25    381.00000      0.00000      0.00000     36.00000    300.47350      1.18937
 43828.6532407407 15:40:40/29-Dec-2019   2583.41992     19.11000     85.08040      -999.25      -999.25      -999.25      -999.25     36.00000    299.78400      1.18744
 43828.6533564815 15:40:50/29-Dec-2019   2582.23999     20.33000     80.80891      -999.25      -999.25      -999.25      -999.25     36.00000    300.26670      1.18975
 43828.6534722222 15:41:00/29-Dec-2019   2581.41016     21.10000     75.97076      -999.25      -999.25      -999.25      -999.25     36.00000    301.43880      1.19480
 43828.6535879630 15:41:10/29-Dec-2019   2580.78003     21.71000     74.73480     62.00000      -999.25      -999.25      -999.25     36.00000    301.09400      1.19376
 43828.6537037037 15:41:20/29-Dec-2019   2580.78003     21.71000     74.05973      -999.25    381.00000      0.00000      0.00000     36.00000    301.30090      1.19458
 43828.6538194444 15:41:30/29-Dec-2019   2580.81982     21.61000     74.73480      -999.25      -999.25      -999.25      -999.25     36.00000    301.57670      1.19562
 43828.6539351852 15:41:40/29-Dec-2019   2581.63989     20.82000     75.97076      -999.25      -999.25      -999.25      -999.25     36.00000    301.85250      1.19637
 43828.6540509259 15:41:50/29-Dec-2019   2582.90991     19.58000     77.34854      -999.25      -999.25      -999.25      -999.25     36.00000    301.64560      1.19500
 43828.6541666667 15:42:00/29-Dec-2019   2583.86011     18.63000     78.75588      -999.25      -999.25      -999.25      -999.25     36.00000    302.40410      1.19747
 43828.6542824074 15:42:10/29-Dec-2019   2584.77979     17.71000     80.94546    124.00000      -999.25      -999.25      -999.25     36.00000    301.57670      1.19382
 43828.6543981481 15:42:20/29-Dec-2019   2585.17993     17.31000     83.54820      -999.25    336.00000      0.00000      0.00000     36.00000    302.40410      1.19694
 43828.6545138889 15:42:30/29-Dec-2019   2585.22021     17.27000     85.73777      -999.25      -999.25      -999.25      -999.25     36.00000    302.88670      1.19880
 43828.6546296296 15:42:40/29-Dec-2019   2584.97021     17.52000     85.53249      -999.25      -999.25      -999.25      -999.25     36.00000    303.23140      1.20033
 43828.6547453704 15:42:50/29-Dec-2019   2584.19995     18.29000     82.90731      -999.25      -999.25      -999.25      -999.25     36.00000    302.12830      1.19626
 43828.6548611111 15:43:00/29-Dec-2019   2583.29004     19.20000     81.20288     77.00000      -999.25      -999.25      -999.25     36.00000    302.54200      1.19828
 43828.6549768519 15:43:10/29-Dec-2019   2582.04004     20.45000     78.70556      -999.25    381.00000      0.00000      0.00000     36.00000    301.23200      1.19376
 43828.6550925926 15:43:20/29-Dec-2019   2581.18994     21.30000     76.20824      -999.25      -999.25      -999.25      -999.25     36.00000    301.99040      1.19708
 43828.6552083333 15:43:30/29-Dec-2019   2580.22021     22.27000     74.50381      -999.25      -999.25      -999.25      -999.25     36.00000    301.43880      1.19533
 43828.6553240741 15:43:40/29-Dec-2019   2579.07007     23.42000     74.51620      -999.25      -999.25      -999.25      -999.25     36.00000    300.12880      1.19077
 43828.6554398148 15:43:50/29-Dec-2019   2578.00000     24.49000     74.58163      -999.25      -999.25      -999.25      -999.25     36.00000    301.71460      1.19751
