~VERSION INFORMATION 
VERS  .    2.0                                     :CWLS Log ASCII Standard - VERSION 2.0
WRAP  .    NO                                      :One Line per Time step
PROD  .    Schlumberger Technology Corp.           :LAS Producer
PROG  .    Horizon LASWriter 9.2.113335.3100       :LAS Program name and version
SOURCE.    Run 7-TimeLogicalAcq                    :Run&Pass Information
CREA  .    12/27/2019                              :LAS Creation date {MM/DD/YYYY}
#--------------------------------------------------
~WELL INFORMATION 
#MNEM           .UNIT                      DATA            :DESCRIPTION
#----            ------          --------------            -----------------------------
STRT            .d               43818.4166666667          :START TIME(OLE Automation date)
STOP            .d               43819.7083333333          :STOP TIME(OLE Automation date)
STEP            .d                            0            :STEP TIME(10s in time)
NULL            .                       -999.25            :NULL VALUE
COMP            .                       Equinor            :COMPANY
WELL            .                        31/5-7            :WELL NAME
FLD             .                           Eos            :FIELD NAME
RIGN            .                 West Hercules            :Rig Name
RIGTYP          .                Semi-Submersible          :Rig Type
SON             .                     19SCA0085            :Service Order Number
SRVC            .                  Schlumberger            :SERVICE COMPANY
DATE            .                    12/19/2019            :LOG DATE(Composite Date for Composite LAP) (MM/DD/YYYY)
CLAB            .                       County:            :County Label
CNTY            .                                          :COUNTY
SLAB            .                                          :State/Province Label
STAT            .                                          :STATE or PROVINCE
PROV            .                                          :STATE or PROVINCE
CTRY            .                        Norway            :COUNTRY
CONT_REGION     .                        Europe            :Continent Region
SECT            .                                          :Section
TOWN            .                                          :Township
RANG            .                                          :Range
API             .                                          :API NUMBER
UWI             .                                          :UNIQUE WELL ID
LUL             .                Service Office            :Logging Unit Location
LUN             .                          A615            :Logging Unit Number
LOC             .                Norwegian North Sea       :FIELD LOCATION
FL1             .                Section: 12 1/4 x 17 1/5 in.:Field Location Line 1
FL2             .                Job no.: 19SCA0085        :Field Location Line 2
LATI            .deg             60° 34' 35.14" N          :LATITUDE
LONG            .deg             3° 26' 36.13" E           :LONGITUDE
PDAT            .                           MSL            :Local Permanent Datum
LMF             .                            DF            :Logging Measured From
APD             .m                        31.00            :Elevation of Depth Reference (LMF) Above Permanent Datum
EPD             .m                         0.00            :Elevation of Permanent Datum (PDAT) above Mean Sea Level
EKB             .m                      -999.25            :Elevation of Kelly Bushing Above Permanent Datum
EDF             .m                        31.00            :Elevation of Drill Floor Above Permanent Datum
EGL             .m                      -307.00            :Elevation of Ground Level Above Permanent Datum
ECF             .m                      -999.25            :Elevation of Casing Flange above Permanent Datum
#--------------------------------------------------
~CURVE INFORMATION
#MNEM           .UNIT                  API CODE            :DESCRIPTION
#----            ------          --------------            -----------------------------
TIME_1900       .d                                         :                                                        Time Index(OLE Automation date)
TIME            .s                                         :                                (10s)                   Time(hh mm ss/dd-MMM-yyyy)
DEPTH           .m                                         :(RT)    (DnMWorkflow)                                   Depth Index
BLKP            .m                                         :(RT)    (DRILLING_SURFACE)                              Height of block above rig floor
GR_CAL          .gAPI                                      :(RT)    (ARC9)                                          Calibrated Gamma Ray
STICK           .c/min                                     :(RT)    (TELE900)                                       Stick Slip Indicator
CRPM            .c/min                                     :(RT)    (TELE900)                                       Collar Rotational Speed
SHKRSK          .                                          :(RT)    (TELE900)                                       Shock Risk
SHKPK           .gn                                        :(RT)    (TELE900)                                       Shock Peak
DHAT            .degC                                      :(RM)    (ARC9)                                          Downhole Annulus Temperature
DHAP            .bar                                       :(RM)    (ARC9)                                          Downhole Annulus Pressure
ECD             .g/cm3                                     :(RM)    (ARC9)                                          Equivalent Circulating Density
#-------------------------------------------------------------
#       TIME_1900                 TIME        DEPTH         BLKP       GR_CAL        STICK         CRPM       SHKRSK        SHKPK         DHAT         DHAP          ECD 
#                                       (DnMWorkfl)  (DRILLING_)       (ARC9)    (TELE900)    (TELE900)    (TELE900)    (TELE900)       (ARC9)       (ARC9)       (ARC9) 
#                                              (RT)         (RT)         (RT)         (RT)         (RT)         (RT)         (RT)         (RM)         (RM)         (RM) 
#                                (10s)                                                                                                                                   
~ASCII
# ...
 43819.1222222222 02:56:00/20-Dec-2019   1686.22998      3.30000    147.61130      -999.25      -999.25      -999.25      -999.25     34.00000    213.73750      1.30308
 43819.1223379630 02:56:10/20-Dec-2019   1686.22998      3.29000    148.82550      -999.25      -999.25      -999.25      -999.25     34.00000    213.59960      1.30223
 43819.1224537037 02:56:20/20-Dec-2019   1686.32996      3.20000    147.52660      -999.25    220.00000      0.00000      0.00000     34.00000    213.80640      1.30342
 43819.1225694444 02:56:30/20-Dec-2019   1686.32996      3.20000    141.55320    111.00000      -999.25      -999.25      -999.25     34.00000    213.25480      1.30006
 43819.1226851852 02:56:40/20-Dec-2019   1686.42993      3.10000    138.86490      -999.25      -999.25      -999.25      -999.25     34.00000    213.53060      1.30166
 43819.1228009259 02:56:50/20-Dec-2019   1686.43994      3.09000    143.83330      -999.25      -999.25      -999.25      -999.25     34.00000    213.25480      1.29997
 43819.1229166667 02:57:00/20-Dec-2019   1686.45007      3.08000    148.89640      -999.25    218.00000      0.00000      0.00000     34.00000    213.59960      1.30206
 43819.1230324074 02:57:10/20-Dec-2019   1686.48999      3.03000    150.83110    159.00000      -999.25      -999.25      -999.25     34.00000    213.80640      1.30329
 43819.1231481481 02:57:20/20-Dec-2019   1686.58997      2.93000    148.73230      -999.25      -999.25      -999.25      -999.25     34.00000    213.53060      1.30153
 43819.1232638889 02:57:30/20-Dec-2019   1686.71008      2.81000    147.82460      -999.25      -999.25      -999.25      -999.25     34.00000    213.39270      1.30060
 43819.1233796296 02:57:40/20-Dec-2019   1686.79004      2.74000    150.00630      -999.25    212.00000      -999.25      -999.25     34.00000    213.39270      1.30054
 43819.1234953704 02:57:50/20-Dec-2019   1686.79004      2.74000    150.52550    183.00000      -999.25      0.00000      0.00000     34.00000    213.39270      1.30054
 43819.1236111111 02:58:00/20-Dec-2019   1686.98999      2.54000    146.37010      -999.25      -999.25      -999.25      -999.25     34.00000    213.32380      1.29996
 43819.1237268519 02:58:10/20-Dec-2019   1687.03003      2.50000    141.80970      -999.25      -999.25      -999.25      -999.25     33.00000    213.25480      1.29951
 43819.1238425926 02:58:20/20-Dec-2019   1687.13000      2.40000    140.83450      -999.25      -999.25      -999.25      -999.25     33.00000    213.73750      1.30238
 43819.1239583333 02:58:30/20-Dec-2019   1687.14001      2.39000    145.89750      -999.25    215.00000      0.00000      0.00000     33.00000    213.04800      1.29817
 43819.1240740741 02:58:40/20-Dec-2019   1687.19006      2.34000    147.83230    162.00000      -999.25      -999.25      -999.25     33.00000    213.39270      1.30023
 43819.1241898148 02:58:50/20-Dec-2019   1687.20996      2.32000    145.73350      -999.25      -999.25      -999.25      -999.25     33.00000    213.04800      1.29811
 43819.1243055556 02:59:00/20-Dec-2019   1687.20996      2.32000    140.69480      -999.25      -999.25      -999.25      -999.25     33.00000    213.11700      1.29853
 43819.1244212963 02:59:10/20-Dec-2019   1687.22998      2.30000    138.59600      -999.25    217.00000      -999.25      -999.25     33.00000    213.39270      1.30020
 43819.1245370370 02:59:20/20-Dec-2019   1687.22998      2.30000    140.53080    354.00000      -999.25      0.00000      0.00000     33.00000    213.39270      1.30020
 43819.1246527778 02:59:30/20-Dec-2019   1687.10999      2.42000    145.59380      -999.25      -999.25      -999.25      -999.25     33.00000    213.32380      1.29987
 43819.1247685185 02:59:40/20-Dec-2019   1685.41003      4.18000    147.82460      -999.25      -999.25      -999.25      -999.25     33.00000    213.18590      1.30036
 43819.1248842593 02:59:50/20-Dec-2019   1684.79004      4.74000    150.00630      -999.25      -999.25      -999.25      -999.25     33.00000    213.53060      1.30294
 43819.1250000000 03:00:00/20-Dec-2019   1684.79004      4.74000    150.52550      -999.25    215.00000      0.00000      0.00000     33.00000    212.97910      1.29957
 43819.1251157407 03:00:10/20-Dec-2019   1684.79004      4.74000    146.37010     12.00000      -999.25      -999.25      -999.25     33.00000    213.39270      1.30210
 43819.1252314815 03:00:20/20-Dec-2019   1684.79004      4.74000    144.40070      -999.25      -999.25      -999.25      -999.25     33.00000    212.77220      1.29831
 43819.1253472222 03:00:30/20-Dec-2019   1684.79004      4.74000      -999.25      -999.25      -999.25      -999.25      -999.25     33.00000    212.77220      1.29831
 43819.1254629630 03:00:40/20-Dec-2019   1683.87000      5.66000      -999.25      -999.25      0.00000      -999.25      -999.25     33.00000    212.97910      1.30029
 43819.1255787037 03:00:50/20-Dec-2019   1682.73999      6.79000      -999.25    219.00000      -999.25      -999.25      -999.25     33.00000    212.56540      1.29864
 43819.1256944444 03:01:00/20-Dec-2019   1683.33997      6.19000      -999.25      -999.25      -999.25      -999.25      -999.25     33.00000    213.04800      1.30112
 43819.1258101852 03:01:10/20-Dec-2019   1684.52002      5.01000      -999.25      -999.25      -999.25      -999.25      -999.25     33.00000    212.70330      1.29809
 43819.1259259259 03:01:20/20-Dec-2019   1684.69995      4.83000      -999.25      -999.25      -999.25      -999.25      -999.25     33.00000    212.35850      1.29586
 43819.1260416667 03:01:30/20-Dec-2019   1684.84998      4.68000      -999.25      -999.25      -999.25      -999.25      -999.25     33.00000    212.70330      1.29785
 43819.1261574074 03:01:40/20-Dec-2019   1684.65991      4.87000      -999.25      -999.25      -999.25      -999.25      -999.25     33.00000    212.28960      1.29546
 43819.1262731481 03:01:50/20-Dec-2019   1684.80994      4.72000      -999.25      -999.25      -999.25      -999.25      -999.25     33.00000    212.42750      1.29619
 43819.1263888889 03:02:00/20-Dec-2019   1684.80994      4.72000      -999.25      -999.25      -999.25      -999.25      -999.25     33.00000    213.11700      1.30040
 43819.1265046296 03:02:10/20-Dec-2019   1684.80994      4.72000      -999.25      -999.25      -999.25      -999.25      -999.25     33.00000    212.42750      1.29619
 43819.1266203704 03:02:20/20-Dec-2019   1684.83008      4.70000      -999.25      -999.25      -999.25      -999.25      -999.25     33.00000    212.49640      1.29659
 43819.1267361111 03:02:30/20-Dec-2019   1684.85999      4.67000      -999.25      -999.25      -999.25      -999.25      -999.25     33.00000    211.60010      1.29110
 43819.1268518518 03:02:40/20-Dec-2019   1684.87000      4.66000      -999.25      -999.25      -999.25      -999.25      -999.25     33.00000    211.25540      1.28899
 43819.1269675926 03:02:50/20-Dec-2019   1684.87000      4.66000      -999.25      -999.25      -999.25      -999.25      -999.25     33.00000    211.11750      1.28815
 43819.1270833333 03:03:00/20-Dec-2019   1684.87000      4.67000      -999.25      -999.25      -999.25      -999.25      -999.25     33.00000    211.94480      1.29320
 43819.1271990741 03:03:10/20-Dec-2019   1684.87000      4.67000      -999.25      -999.25      -999.25      -999.25      -999.25     33.00000    211.94480      1.29320
 43819.1273148148 03:03:20/20-Dec-2019   1684.87000      4.78000      -999.25      -999.25      -999.25      -999.25      -999.25     33.00000    211.39330      1.28983
 43819.1274305556 03:03:30/20-Dec-2019   1684.87000      4.96000      -999.25      -999.25      -999.25      -999.25      -999.25     33.00000    211.87590      1.29278
 43819.1275462963 03:03:40/20-Dec-2019   1684.87000      4.96000      -999.25      -999.25      -999.25      -999.25      -999.25     33.00000    211.39330      1.28983
 43819.1276620370 03:03:50/20-Dec-2019   1684.87000     12.09000      -999.25      -999.25      -999.25      -999.25      -999.25     33.00000    211.11750      1.28815
