~VERSION INFORMATION 
VERS  .    2.0                                     :CWLS Log ASCII Standard - VERSION 2.0
WRAP  .    NO                                      :One Line per Time step
PROD  .    Schlumberger Technology Corp.           :LAS Producer
PROG  .    Horizon LASWriter 9.2.113335.3100       :LAS Program name and version
SOURCE.    Run 8-TimeLogicalAcq                    :Run&Pass Information
CREA  .    12/30/2019                              :LAS Creation date {MM/DD/YYYY}
#--------------------------------------------------
~WELL INFORMATION 
#MNEM           .UNIT                      DATA            :DESCRIPTION
#----            ------          --------------            -----------------------------
STRT            .d               43822.4166666667          :START TIME(OLE Automation date)
STOP            .d               43824.6875000000          :STOP TIME(OLE Automation date)
STEP            .d                            0            :STEP TIME(10s in time)
NULL            .                       -999.25            :NULL VALUE
COMP            .                       Equinor            :COMPANY
WELL            .                        31/5-7            :WELL NAME
FLD             .                           Eos            :FIELD NAME
RIGN            .                 West Hercules            :Rig Name
RIGTYP          .                Semi-Submersible          :Rig Type
SON             .                     19SCA0085            :Service Order Number
SRVC            .                  Schlumberger            :SERVICE COMPANY
DATE            .                    12/23/2019            :LOG DATE(Composite Date for Composite LAP) (MM/DD/YYYY)
CLAB            .                       County:            :County Label
CNTY            .                                          :COUNTY
SLAB            .                                          :State/Province Label
STAT            .                                          :STATE or PROVINCE
PROV            .                                          :STATE or PROVINCE
CTRY            .                        Norway            :COUNTRY
CONT_REGION     .                        Europe            :Continent Region
SECT            .                                          :Section
TOWN            .                                          :Township
RANG            .                                          :Range
API             .                                          :API NUMBER
UWI             .                                          :UNIQUE WELL ID
LUL             .                Service Office            :Logging Unit Location
LUN             .                          A615            :Logging Unit Number
LOC             .                Norwegian North Sea       :FIELD LOCATION
FL1             .                Section: 12 1/4 in.       :Field Location Line 1
FL2             .                Job no.: 19SCA0085        :Field Location Line 2
LATI            .deg             60° 34' 35.14" N          :LATITUDE
LONG            .deg             3° 26' 36.13" E           :LONGITUDE
PDAT            .                           MSL            :Local Permanent Datum
LMF             .                            DF            :Logging Measured From
APD             .m                        31.00            :Elevation of Depth Reference (LMF) Above Permanent Datum
EPD             .m                         0.00            :Elevation of Permanent Datum (PDAT) above Mean Sea Level
EKB             .m                      -999.25            :Elevation of Kelly Bushing Above Permanent Datum
EDF             .m                        31.00            :Elevation of Drill Floor Above Permanent Datum
EGL             .m                      -307.00            :Elevation of Ground Level Above Permanent Datum
ECF             .m                      -999.25            :Elevation of Casing Flange above Permanent Datum
#--------------------------------------------------
~CURVE INFORMATION
#MNEM           .UNIT                  API CODE            :DESCRIPTION
#----            ------          --------------            -----------------------------
TIME_1900       .d                                         :                                                        Time Index(OLE Automation date)
TIME            .s                                         :                                (10s)                   Time(hh mm ss/dd-MMM-yyyy)
DEPTH           .m                                         :(RT)    (DnMWorkflow)                                   Depth Index
GR              .gAPI                                      :(RT)    (ARC9)                                          Gamma Ray
BLKP            .m                                         :(RT)    (DRILLING_SURFACE)                              Height of block above rig floor
CRPM            .c/min                                     :(RT)    (TELE900)                                       Collar Rotational Speed
STICK           .c/min                                     :(RT)    (TELE900)                                       Stick Slip Indicator
SHKPK           .gn                                        :(RT)    (TELE900)                                       Shock Peak
SHKRSK          .                                          :(RT)    (TELE900)                                       Shock Risk
DHAP            .bar                                       :(RM)    (ARC9)                                          Downhole Annulus Pressure
DHAT            .degC                                      :(RM)    (ARC9)                                          Downhole Annulus Temperature
ECD             .g/cm3                                     :(RM)    (ARC9)                                          Equivalent Circulating Density
#-------------------------------------------------------------
#       TIME_1900                 TIME        DEPTH           GR         BLKP         CRPM        STICK        SHKPK       SHKRSK         DHAP         DHAT          ECD 
#                                       (DnMWorkfl)       (ARC9)  (DRILLING_)    (TELE900)    (TELE900)    (TELE900)    (TELE900)       (ARC9)       (ARC9)       (ARC9) 
#                                              (RT)         (RT)         (RT)         (RT)         (RT)         (RT)         (RT)         (RM)         (RM)         (RM) 
#                                (10s)                                                                                                                                   
~ASCII
# ...
 43822.4777777778 11:28:00/23-Dec-2019    1835.8500      -999.25      42.2500      -999.25      -999.25      -999.25      -999.25      -999.25      -999.25      -999.25
 43822.4778935185 11:28:10/23-Dec-2019    1835.8500      -999.25      42.2500      -999.25      -999.25      -999.25      -999.25      -999.25      -999.25      -999.25
 43822.4780092593 11:28:20/23-Dec-2019    1835.7599       0.0000      42.3400      -999.25      -999.25      -999.25      -999.25      -999.25      -999.25      -999.25
 43822.4781250000 11:28:30/23-Dec-2019    1835.7599       0.0000      42.3400      -999.25      -999.25      -999.25      -999.25      -999.25      -999.25      -999.25
 43822.4782407407 11:28:40/23-Dec-2019    1835.7599       0.0000      42.3400      -999.25      -999.25      -999.25      -999.25      -999.25      -999.25      -999.25
 43822.4783564815 11:28:50/23-Dec-2019    1835.7599       0.0000      42.3400      -999.25      -999.25      -999.25      -999.25       0.7584     -55.0000       0.0042
 43822.4784722222 11:29:00/23-Dec-2019    1835.7599       0.0000      42.3400      -999.25      -999.25      -999.25      -999.25     233.9391      50.0000       1.3076
 43822.4785879630 11:29:10/23-Dec-2019    1835.8500       0.0000      42.2500      -999.25      -999.25      -999.25      -999.25     233.6633      50.0000       1.3060
 43822.4787037037 11:29:20/23-Dec-2019    1835.6700       0.0000      42.4300      -999.25      -999.25      -999.25      -999.25     233.5944      50.0000       1.3057
 43822.4788194444 11:29:30/23-Dec-2019    1835.8500       0.0000      42.2500      -999.25      -999.25      -999.25      -999.25     233.1807      50.0000       1.3033
 43822.4789351852 11:29:40/23-Dec-2019    1835.7599       0.0000      42.3400      -999.25      -999.25      -999.25      -999.25     232.9049      50.0000       1.3018
 43822.4790509259 11:29:50/23-Dec-2019    1835.8500       3.7256      42.2500      -999.25      -999.25      -999.25      -999.25     233.1807      50.0000       1.3033
 43822.4791666667 11:30:00/23-Dec-2019    1835.7599      10.0129      42.3400      -999.25      -999.25       0.0000       0.0000     233.1807      49.0000       1.3034
 43822.4792824074 11:30:10/23-Dec-2019    1835.7599      12.8889      42.3400      -999.25      -999.25      -999.25      -999.25     233.0428      49.0000       1.3026
 43822.4793981481 11:30:20/23-Dec-2019    1835.7599      13.9640      42.3400      -999.25      -999.25      -999.25      -999.25     233.0428      49.0000       1.3026
 43822.4795138889 11:30:30/23-Dec-2019    1835.7599      17.0000      42.3400      -999.25      -999.25      -999.25      -999.25     233.0428      49.0000       1.3026
 43822.4796296296 11:30:40/23-Dec-2019    1835.7599      20.5813      42.3400      -999.25      -999.25      -999.25      -999.25     233.0428      48.0000       1.3026
 43822.4797453704 11:30:50/23-Dec-2019    1835.7599      19.9463      42.3400      -999.25      -999.25      -999.25      -999.25     232.7670      48.0000       1.3011
 43822.4798611111 11:31:00/23-Dec-2019    1835.7599       6.9671      42.3400      -999.25      -999.25      -999.25      -999.25     232.8360      48.0000       1.3014
 43822.4799768519 11:31:10/23-Dec-2019    1835.7599       0.0000      42.3400      -999.25      -999.25      -999.25      -999.25     232.7670      48.0000       1.3011
 43822.4800925926 11:31:20/23-Dec-2019    1835.7599       0.8338      42.2500      -999.25      -999.25       0.0000       0.0000     232.8360      47.0000       1.3014
 43822.4802083333 11:31:30/23-Dec-2019    1835.7599       7.2039      42.3400      -999.25      -999.25      -999.25      -999.25     232.9738      47.0000       1.3022
 43822.4803240741 11:31:40/23-Dec-2019    1835.7599       8.5622      42.3400      -999.25      -999.25      -999.25      -999.25     232.8360      47.0000       1.3014
 43822.4804398148 11:31:50/23-Dec-2019    1835.7599       9.0534      42.3400      -999.25      -999.25      -999.25      -999.25     232.8360      46.0000       1.3014
 43822.4805555556 11:32:00/23-Dec-2019    1835.7599       9.7040      42.3400      -999.25      -999.25      -999.25      -999.25     232.6981      46.0000       1.3007
 43822.4806712963 11:32:10/23-Dec-2019    1835.7599      10.4698      42.3400      -999.25      -999.25      -999.25      -999.25     232.7670      46.0000       1.3011
 43822.4807870370 11:32:20/23-Dec-2019    1835.8500      17.8861      42.2500      -999.25      -999.25      -999.25      -999.25     233.0428      45.0000       1.3025
 43822.4809027778 11:32:30/23-Dec-2019    1835.7599      15.3862      42.4300      -999.25      -999.25      -999.25      -999.25     232.9049      45.0000       1.3018
 43822.4810185185 11:32:40/23-Dec-2019    1836.1200      12.1227      41.9800      -999.25      -999.25       0.0000       0.0000     232.9049      44.0000       1.3016
 43822.4811342593 11:32:50/23-Dec-2019    1835.7599       9.6228      42.2500      -999.25      -999.25      -999.25      -999.25     232.8360      44.0000       1.3014
 43822.4812500000 11:33:00/23-Dec-2019    1835.9401       6.6547      42.1600      -999.25      -999.25      -999.25      -999.25     232.8360      44.0000       1.3013
 43822.4813657407 11:33:10/23-Dec-2019    1835.7599       3.3604      42.3400      -999.25      -999.25      -999.25      -999.25     232.7670      43.0000       1.3011
 43822.4814814815 11:33:20/23-Dec-2019    1835.8500       0.0000      42.2500      -999.25      -999.25      -999.25      -999.25     232.9738      43.0000       1.3021
 43822.4815972222 11:33:30/23-Dec-2019    1835.8500       0.0000      42.2500      -999.25      -999.25      -999.25      -999.25     232.6981      43.0000       1.3006
 43822.4817129630 11:33:40/23-Dec-2019    1835.8500       0.0000      42.2500      -999.25      -999.25      -999.25      -999.25     232.9049      42.0000       1.3018
 43822.4818287037 11:33:50/23-Dec-2019    1835.8500       0.0000      42.1600      -999.25      -999.25      -999.25      -999.25     232.7670      42.0000       1.3010
 43822.4819444444 11:34:00/23-Dec-2019    1835.8500       0.0000      42.2500      -999.25      -999.25      -999.25      -999.25     232.8360      42.0000       1.3014
 43822.4820601852 11:34:10/23-Dec-2019    1835.7599       0.0000      42.3400      -999.25      -999.25       0.0000       0.0000     232.6981      41.0000       1.3007
 43822.4821759259 11:34:20/23-Dec-2019    1835.8500       0.0000      42.2500      -999.25      -999.25      -999.25      -999.25     232.7670      41.0000       1.3010
 43822.4822916667 11:34:30/23-Dec-2019    1835.7599       0.0000      42.3400      -999.25      -999.25      -999.25      -999.25     232.6981      41.0000       1.3007
 43822.4824074074 11:34:40/23-Dec-2019    1835.7605       0.6059      42.3400      -999.25      -999.25      -999.25      -999.25     232.6291      40.0000       1.3003
 43822.4825231481 11:34:50/23-Dec-2019    1835.7611       4.1872      42.3400      -999.25      -999.25      -999.25      -999.25     233.1117      40.0000       1.3030
 43822.4826388889 11:35:00/23-Dec-2019    1836.6417       3.2450      41.4200      -999.25      -999.25      -999.25      -999.25     233.3186      40.0000       1.3035
 43822.4827546296 11:35:10/23-Dec-2019    1837.7024       0.0000      40.3400      -999.25      -999.25      -999.25      -999.25     233.5254      39.0000       1.3039
 43822.4828703704 11:35:20/23-Dec-2019    1838.6029       0.0000      39.4400      -999.25      -999.25      -999.25      -999.25     234.0770      39.0000       1.3063
 43822.4829861111 11:35:30/23-Dec-2019    1839.6235       0.0000      38.4300      -999.25      -999.25      -999.25      -999.25     233.8702      39.0000       1.3045
 43822.4831018519 11:35:40/23-Dec-2019    1840.7542       0.0000      37.3500      -999.25      -999.25       0.0000       0.0000     234.0081      39.0000       1.3044
 43822.4832175926 11:35:50/23-Dec-2019    1841.5946      11.6781      36.4600      -999.25      -999.25      -999.25      -999.25     234.0770      38.0000       1.3042
