~VERSION INFORMATION 
VERS  .    2.0                                     :CWLS Log ASCII Standard - VERSION 2.0
WRAP  .    NO                                      :One Line per Time step
PROD  .    Schlumberger Technology Corp.           :LAS Producer
PROG  .    Horizon LASWriter 9.2.113335.3100       :LAS Program name and version
SOURCE.    Run 2-TimeLogicalAcq                    :Run&Pass Information
CREA  .    12/11/2019                              :LAS Creation date {MM/DD/YYYY}
#--------------------------------------------------
~WELL INFORMATION 
#MNEM           .UNIT                      DATA            :DESCRIPTION
#----            ------          --------------            -----------------------------
STRT            .d               43803.0416666667          :START TIME(OLE Automation date)
STOP            .d               43803.8437500000          :STOP TIME(OLE Automation date)
STEP            .d                            0            :STEP TIME(10s in time)
NULL            .                       -999.25            :NULL VALUE
COMP            .                       Equinor            :COMPANY
WELL            .                        31/5-7            :WELL NAME
FLD             .                           Eos            :FIELD NAME
RIGN            .                 West Hercules            :Rig Name
RIGTYP          .                Semi-Submersible          :Rig Type
SON             .                     19SCA0085            :Service Order Number
SRVC            .                  Schlumberger            :SERVICE COMPANY
DATE            .                    12/04/2019            :LOG DATE(Composite Date for Composite LAP) (MM/DD/YYYY)
CLAB            .                       County:            :County Label
CNTY            .                                          :COUNTY
SLAB            .                                          :State/Province Label
STAT            .                                          :STATE or PROVINCE
PROV            .                                          :STATE or PROVINCE
CTRY            .                        Norway            :COUNTRY
CONT_REGION     .                        Europe            :Continent Region
SECT            .                                          :Section
TOWN            .                                          :Township
RANG            .                                          :Range
API             .                                          :API NUMBER
UWI             .                                          :UNIQUE WELL ID
LUL             .                Service Office            :Logging Unit Location
LUN             .                          A615            :Logging Unit Number
LOC             .                Norwegian North Sea       :FIELD LOCATION
FL1             .                Section: 8 1/2 in. pilot  :Field Location Line 1
FL2             .                Job no.: 19SCA0085        :Field Location Line 2
LATI            .deg             60° 34' 35.14" N          :LATITUDE
LONG            .deg             3° 26' 36.13" E           :LONGITUDE
PDAT            .                           MSL            :Local Permanent Datum
LMF             .                            DF            :Logging Measured From
APD             .m                        31.00            :Elevation of Depth Reference (LMF) Above Permanent Datum
EPD             .m                         0.00            :Elevation of Permanent Datum (PDAT) above Mean Sea Level
EKB             .m                      -999.25            :Elevation of Kelly Bushing Above Permanent Datum
EDF             .m                        31.00            :Elevation of Drill Floor Above Permanent Datum
EGL             .m                      -307.00            :Elevation of Ground Level Above Permanent Datum
ECF             .m                      -999.25            :Elevation of Casing Flange above Permanent Datum
#--------------------------------------------------
~CURVE INFORMATION
#MNEM           .UNIT                  API CODE            :DESCRIPTION
#----            ------          --------------            -----------------------------
TIME_1900       .d                                         :                                                        Time Index(OLE Automation date)
TIME            .s                                         :                                (10s)                   Time(hh mm ss/dd-MMM-yyyy)
DEPTH           .m                                         :(RT)    (DnMWorkflow)                                   Depth Index
GR              .gAPI                                      :(RT)    (DV6MT)                                         Gamma Ray
BLKP            .m                                         :(RT)    (DRILLING_SURFACE)                              Height of block above rig floor
STICK           .c/min                                     :(RT)    (TELE675)                                       Stick Slip Indicator
CRPM            .c/min                                     :(RT)    (TELE675)                                       Collar Rotational Speed
SHKRSK          .                                          :(RT)    (TELE675)                                       Shock Risk
SHKPK           .gn                                        :(RT)    (TELE675)                                       Shock Peak
ECD             .g/cm3                                     :(RM)    (DV6MT)                                         Equivalent Circulating Density
DHAT            .degC                                      :(RM)    (DV6MT)                                         Downhole Annulus Temperature
DHAP            .bar                                       :(RM)    (DV6MT)                                         Downhole Annulus Pressure
#-------------------------------------------------------------
#       TIME_1900                 TIME        DEPTH           GR         BLKP        STICK         CRPM       SHKRSK        SHKPK          ECD         DHAT         DHAP 
#                                       (DnMWorkfl)      (DV6MT)  (DRILLING_)    (TELE675)    (TELE675)    (TELE675)    (TELE675)      (DV6MT)      (DV6MT)      (DV6MT) 
#                                              (RT)         (RT)         (RT)         (RT)         (RT)         (RT)         (RT)         (RM)         (RM)         (RM) 
#                                (10s)                                                                                                                                   
~ASCII
# ...
 43803.6305555556 15:08:00/04-Dec-2019     900.1100      49.6900      20.0800      -999.25      -999.25       0.0000       0.0000       1.1887      15.0000     100.3877
 43803.6306712963 15:08:10/04-Dec-2019     900.3700      48.9023      19.7200      -999.25      -999.25      -999.25      -999.25       1.1834      15.0000      99.9740
 43803.6307870370 15:08:20/04-Dec-2019     900.9200      47.6144      19.2700      -999.25      -999.25      -999.25      -999.25       1.1885      15.0000     100.4566
 43803.6309027778 15:08:30/04-Dec-2019     900.6300      47.1851      19.5500      -999.25      99.0000      -999.25      -999.25       1.1880      15.0000     100.3877
 43803.6310185185 15:08:40/04-Dec-2019     901.0100      47.3587      19.1800      -999.25      -999.25      -999.25      -999.25       1.1833      15.0000     100.0429
 43803.6311342593 15:08:50/04-Dec-2019     901.1100      47.9080      19.0700      24.0000      -999.25      -999.25      -999.25       1.1800      15.0000      99.7671
 43803.6312500000 15:09:00/04-Dec-2019     901.0300      50.1404      19.0700      -999.25      -999.25      -999.25      -999.25       1.1739      15.0000      99.2845
 43803.6313657407 15:09:10/04-Dec-2019     901.7400      51.7134      18.4500      -999.25      -999.25      -999.25      -999.25       1.1799      15.0000      99.8361
 43803.6314814815 15:09:20/04-Dec-2019     901.8200      48.6255      18.4600      -999.25      -999.25      -999.25      -999.25       1.1771      15.0000      99.5603
 43803.6315972222 15:09:30/04-Dec-2019     901.6000      44.9937      18.5800      -999.25      -999.25      -999.25      -999.25       1.1785      15.0000      99.6982
 43803.6317129630 15:09:40/04-Dec-2019     901.6700      44.7782      18.4200      -999.25      -999.25      -999.25      -999.25       1.1812      15.0000      99.9740
 43803.6318287037 15:09:50/04-Dec-2019     902.3000      46.7942      17.8800      -999.25      -999.25      -999.25      -999.25       1.1848      15.0000     100.3187
 43803.6319444444 15:10:00/04-Dec-2019     902.7700      48.4699      17.4100      -999.25      -999.25       0.0000       0.0000       1.1777      15.0000      99.7671
 43803.6320601852 15:10:10/04-Dec-2019     902.1500      49.9440      18.0300      -999.25      -999.25      -999.25      -999.25       1.1778      15.0000      99.6982
 43803.6321759259 15:10:20/04-Dec-2019     902.3700      49.3696      17.8100      -999.25      -999.25      -999.25      -999.25       1.1810      15.0000     100.0429
 43803.6322916667 15:10:30/04-Dec-2019     902.8700      48.8790      17.3100      -999.25      99.0000      -999.25      -999.25       1.1726      15.0000      99.3535
 43803.6324074074 15:10:40/04-Dec-2019     903.2100      49.1139      16.9700      -999.25      -999.25      -999.25      -999.25       1.1732      15.0000      99.4224
 43803.6325231481 15:10:50/04-Dec-2019     903.2800      49.9440      16.9000      27.0000      -999.25      -999.25      -999.25       1.1796      15.0000      99.9740
 43803.6326388889 15:11:00/04-Dec-2019     902.6600      50.2835      17.5200      -999.25      -999.25      -999.25      -999.25       1.1780      15.0000      99.7671
 43803.6327546296 15:11:10/04-Dec-2019     903.0500      49.9440      17.1300      -999.25      -999.25      -999.25      -999.25       1.1704      15.0000      99.2156
 43803.6328703704 15:11:20/04-Dec-2019     903.6400      49.1139      16.5400      -999.25      -999.25      -999.25      -999.25       1.1765      15.0000      99.7671
 43803.6329861111 15:11:30/04-Dec-2019     903.4000      48.8790      16.7800      -999.25      -999.25      -999.25      -999.25       1.1713      15.0000      99.2845
 43803.6331018518 15:11:40/04-Dec-2019     903.4400      49.3696      16.7400      -999.25      -999.25      -999.25      -999.25       1.1710      15.0000      99.2845
 43803.6332175926 15:11:50/04-Dec-2019     903.7500      49.9440      16.4300      -999.25      -999.25      -999.25      -999.25       1.1753      15.0000      99.6982
 43803.6333333333 15:12:00/04-Dec-2019     903.9700      51.6249      16.2100      -999.25      -999.25       0.0000       0.0000       1.1753      15.0000      99.6982
 43803.6334490741 15:12:10/04-Dec-2019     904.0500      54.0861      16.1300      -999.25      -999.25      -999.25      -999.25       1.1729      15.0000      99.4914
 43803.6335648148 15:12:20/04-Dec-2019     904.2100      60.7269      15.9800      -999.25      -999.25      -999.25      -999.25       1.1766      15.0000      99.8361
 43803.6336805556 15:12:30/04-Dec-2019     904.3000      62.6063      16.0000      -999.25     100.0000      -999.25      -999.25       1.1787      15.0000     100.0429
 43803.6337962963 15:12:40/04-Dec-2019     904.3800      58.6814      15.8000      24.0000      -999.25      -999.25      -999.25       1.1804      15.0000     100.1808
 43803.6339120370 15:12:50/04-Dec-2019     904.5300      54.0861      15.6500      -999.25      -999.25      -999.25      -999.25       1.1794      15.0000     100.1119
 43803.6340277778 15:13:00/04-Dec-2019     904.6600      59.1949      15.5200      -999.25      -999.25      -999.25      -999.25       1.1719      15.0000      99.4914
 43803.6341435185 15:13:10/04-Dec-2019     905.2300      59.3336      14.9600      -999.25      -999.25      -999.25      -999.25       1.1793      15.0000     100.1808
 43803.6342592593 15:13:20/04-Dec-2019     905.3400      56.1809      14.8400      -999.25      -999.25      -999.25      -999.25       1.1815      15.0000     100.3877
 43803.6343750000 15:13:30/04-Dec-2019     904.7500      53.7411      15.6300      -999.25      -999.25      -999.25      -999.25       1.1825      15.0000     100.3877
 43803.6344907407 15:13:40/04-Dec-2019     904.9401      54.3792      15.1500      -999.25      -999.25      -999.25      -999.25       1.1731      15.0000      99.6292
 43803.6346064815 15:13:50/04-Dec-2019     905.8200      56.0870      14.1900      -999.25      -999.25      -999.25      -999.25       1.1838      15.0000     100.6635
 43803.6347222222 15:14:00/04-Dec-2019     906.0500      55.9495      14.2200      -999.25      -999.25       0.0000       0.0000       1.1774      15.0000     100.1119
 43803.6348379630 15:14:10/04-Dec-2019     905.5700      55.3049      14.8000      -999.25      -999.25      -999.25      -999.25       1.1660      15.0000      99.1466
 43803.6349537037 15:14:20/04-Dec-2019     905.6100      53.7848      14.5700      -999.25      -999.25      -999.25      -999.25       1.1649      15.0000      99.0087
 43803.6350694444 15:14:30/04-Dec-2019     905.7100      52.6038      14.4700      -999.25      99.0000      -999.25      -999.25       1.1735      15.0000      99.7671
 43803.6351851852 15:14:40/04-Dec-2019     905.9700      51.0837      14.2100      21.0000      -999.25      -999.25      -999.25       1.1734      15.0000      99.7671
 43803.6353009259 15:14:50/04-Dec-2019     906.2900      50.5258      13.8000      -999.25      -999.25      -999.25      -999.25       1.1751      15.0000      99.9740
 43803.6354166667 15:15:00/04-Dec-2019     906.6000      22.1483      13.5900      -999.25      -999.25      -999.25      -999.25       1.1790      15.0000     100.3187
 43803.6355324074 15:15:10/04-Dec-2019     906.1300      21.0200      14.0500      -999.25      -999.25      -999.25      -999.25       1.1717      15.0000      99.6292
 43803.6356481481 15:15:20/04-Dec-2019     906.4000      19.6487      13.7800      -999.25      -999.25      -999.25      -999.25       1.1801      15.0000     100.3877
 43803.6357638889 15:15:30/04-Dec-2019     907.1200      20.8297      13.0600      -999.25      -999.25      -999.25      -999.25       1.1762      15.0000     100.1119
 43803.6358796296 15:15:40/04-Dec-2019     906.5200      25.2412      13.6600      -999.25      -999.25      -999.25      -999.25       1.1717      15.0000      99.6982
 43803.6359953704 15:15:50/04-Dec-2019     906.8300      27.1991      13.4400      -999.25      -999.25       0.0000       0.0000       1.1736      15.0000      99.9050
