~VERSION INFORMATION 
VERS  .    2.0                                     :CWLS Log ASCII Standard - VERSION 2.0
WRAP  .    NO                                      :One Line per Time step
PROD  .    Schlumberger Technology Corp.           :LAS Producer
PROG  .    Horizon LASWriter 9.2.113335.3100       :LAS Program name and version
SOURCE.    Run 12-TimeLogicalAcq                   :Run&Pass Information
CREA  .    01/21/2020                              :LAS Creation date {MM/DD/YYYY}
#--------------------------------------------------
~WELL INFORMATION 
#MNEM           .UNIT                      DATA            :DESCRIPTION
#----            ------          --------------            -----------------------------
STRT            .d               43837.2295138889          :START TIME(OLE Automation date)
STOP            .d               43837.6875000000          :STOP TIME(OLE Automation date)
STEP            .d                            0            :STEP TIME(10s in time)
NULL            .                       -999.25            :NULL VALUE
COMP            .                       Equinor            :COMPANY
WELL            .                        31/5-7            :WELL NAME
FLD             .                           Eos            :FIELD NAME
RIGN            .                 West Hercules            :Rig Name
RIGTYP          .                Semi-Submersible          :Rig Type
SON             .                     19SCA0085            :Service Order Number
SRVC            .                  Schlumberger            :SERVICE COMPANY
DATE            .                    01/07/2020            :LOG DATE(Composite Date for Composite LAP) (MM/DD/YYYY)
CLAB            .                       County:            :County Label
CNTY            .                                          :COUNTY
SLAB            .                                          :State/Province Label
STAT            .                                          :STATE or PROVINCE
PROV            .                                          :STATE or PROVINCE
CTRY            .                        Norway            :COUNTRY
CONT_REGION     .                        Europe            :Continent Region
SECT            .                                          :Section
TOWN            .                                          :Township
RANG            .                                          :Range
API             .                                          :API NUMBER
UWI             .                                          :UNIQUE WELL ID
LUL             .                Service Office            :Logging Unit Location
LUN             .                          A615            :Logging Unit Number
LOC             .                Norwegian North Sea       :FIELD LOCATION
FL1             .                Section: 8 1/2 in.        :Field Location Line 1
FL2             .                Job no.: 19SCA0085        :Field Location Line 2
LATI            .deg             60° 34' 35.14" N          :LATITUDE
LONG            .deg             3° 26' 36.13" E           :LONGITUDE
PDAT            .                           MSL            :Local Permanent Datum
LMF             .                            DF            :Logging Measured From
APD             .m                        31.00            :Elevation of Depth Reference (LMF) Above Permanent Datum
EPD             .m                         0.00            :Elevation of Permanent Datum (PDAT) above Mean Sea Level
EKB             .m                      -999.25            :Elevation of Kelly Bushing Above Permanent Datum
EDF             .m                        31.00            :Elevation of Drill Floor Above Permanent Datum
EGL             .m                      -307.00            :Elevation of Ground Level Above Permanent Datum
ECF             .m                      -999.25            :Elevation of Casing Flange above Permanent Datum
#--------------------------------------------------
~CURVE INFORMATION
#MNEM           .UNIT                  API CODE            :DESCRIPTION
#----            ------          --------------            -----------------------------
TIME_1900       .d                                         :                                                        Time Index(OLE Automation date)
TIME            .s                                         :                                (10s)                   Time(hh mm ss/dd-MMM-yyyy)
DEPTH           .m                                         :(RT)    (DnMWorkflow)                                   Depth Index
BLKP            .m                                         :(RT)    (DRILLING_SURFACE)                              Height of block above rig floor
GR              .gAPI                                      :(RT)    (ARC6)                                          Gamma Ray
CRPM            .c/min                                     :(RT)    (TELE675)                                       Collar Rotational Speed
STICK           .c/min                                     :(RT)    (TELE675)                                       Stick Slip Indicator
SHKRSK          .                                          :(RT)    (TELE675)                                       Shock Risk
SHKPK           .gn                                        :(RT)    (TELE675)                                       Shock Peak
DHAT            .degC                                      :(RM)    (ARC6)                                          Downhole Annulus Temperature
DHAP            .bar                                       :(RM)    (ARC6)                                          Downhole Annulus Pressure
ECD             .g/cm3                                     :(RM)    (ARC6)                                          Equivalent Circulating Density
#-------------------------------------------------------------
#       TIME_1900                 TIME        DEPTH         BLKP           GR         CRPM        STICK       SHKRSK        SHKPK         DHAT         DHAP          ECD 
#                                       (DnMWorkfl)  (DRILLING_)       (ARC6)    (TELE675)    (TELE675)    (TELE675)    (TELE675)       (ARC6)       (ARC6)       (ARC6) 
#                                              (RT)         (RT)         (RT)         (RT)         (RT)         (RT)         (RT)         (RM)         (RM)         (RM) 
#                                (10s)                                                                                                                                   
~ASCII
# ...
 43837.3461805556 08:18:30/07-Jan-2020   2637.61011     41.83000      -999.25      -999.25      -999.25      -999.25      -999.25     85.00000    311.29830      1.20755
 43837.3462962963 08:18:40/07-Jan-2020   2637.61011     41.83000      -999.25      -999.25      -999.25      -999.25      -999.25     84.00000    309.91930      1.20220
 43837.3464120370 08:18:50/07-Jan-2020   2637.61011     41.83000      -999.25      -999.25      -999.25      -999.25      -999.25     83.00000    308.26460      1.19578
 43837.3465277778 08:19:00/07-Jan-2020   2637.61011     41.83000      -999.25      -999.25      -999.25      -999.25      -999.25     82.00000    309.50570      1.20060
 43837.3466435185 08:19:10/07-Jan-2020   2637.61011     41.83000      -999.25      -999.25      -999.25      -999.25      -999.25     82.00000    308.88510      1.19819
 43837.3467592593 08:19:20/07-Jan-2020   2637.61011     41.83000      -999.25      -999.25      -999.25      -999.25      -999.25     81.00000    307.85090      1.19418
 43837.3468750000 08:19:30/07-Jan-2020   2637.61011     41.83000      -999.25      -999.25      -999.25      -999.25      -999.25     81.00000    309.02300      1.19872
 43837.3469907407 08:19:40/07-Jan-2020   2637.61011     41.83000      -999.25      -999.25      -999.25      -999.25      -999.25     80.00000    310.47090      1.20434
 43837.3471064815 08:19:50/07-Jan-2020   2637.61011     41.83000      -999.25      -999.25      -999.25      -999.25      -999.25     79.00000    311.36720      1.20782
 43837.3472222222 08:20:00/07-Jan-2020   2637.61011     41.83000      -999.25      -999.25      -999.25      -999.25      -999.25     79.00000    311.02250      1.20648
 43837.3473379630 08:20:10/07-Jan-2020   2637.61011     41.83000      -999.25      -999.25      -999.25      -999.25      -999.25     78.00000    311.09140      1.20675
 43837.3474537037 08:20:20/07-Jan-2020   2637.61011     41.83000      -999.25      -999.25      -999.25      -999.25      -999.25     78.00000    310.74670      1.20541
 43837.3475694444 08:20:30/07-Jan-2020   2637.61011     41.83000    117.48600      -999.25      -999.25      -999.25      -999.25     77.00000    309.98830      1.20247
 43837.3476851852 08:20:40/07-Jan-2020   2637.61011     41.83000    117.74800      -999.25      -999.25      -999.25      -999.25     76.00000    308.74720      1.19765
 43837.3478009259 08:20:50/07-Jan-2020   2637.61011     41.83000    118.32880      -999.25      -999.25      -999.25      -999.25     76.00000    309.43670      1.20033
 43837.3479166667 08:21:00/07-Jan-2020   2637.61011     41.83000    119.15820      -999.25      -999.25      -999.25      -999.25     75.00000    308.54040      1.19685
 43837.3480324074 08:21:10/07-Jan-2020   2637.61011     41.83000    120.13630      -999.25      -999.25      -999.25      -999.25     75.00000    306.88560      1.19043
 43837.3481481481 08:21:20/07-Jan-2020   2637.61011     41.83000    121.14500      -999.25      -999.25      -999.25      -999.25     75.00000    307.02350      1.19097
 43837.3482638889 08:21:30/07-Jan-2020   2637.61011     41.83000    122.06270      -999.25      -999.25      0.00000      0.00000     74.00000    309.85040      1.20193
 43837.3483796296 08:21:40/07-Jan-2020   2637.61011     41.83000    122.77870      -999.25      -999.25      -999.25      -999.25     74.00000    309.78140      1.20167
 43837.3484953704 08:21:50/07-Jan-2020   2637.61011     41.83000    124.22210      -999.25      -999.25      -999.25      -999.25     73.00000    309.29880      1.19979
 43837.3486111111 08:22:00/07-Jan-2020   2637.61011     41.83000    127.54370      -999.25      -999.25      -999.25      -999.25     73.00000    310.81570      1.20568
 43837.3487268519 08:22:10/07-Jan-2020   2637.61011     41.83000    129.84190     61.00000      -999.25      -999.25      -999.25     72.00000    309.98830      1.20247
 43837.3488425926 08:22:20/07-Jan-2020   2637.61011     41.83000    129.75490      -999.25      9.00000      -999.25      -999.25     72.00000    310.81570      1.20568
 43837.3489583333 08:22:30/07-Jan-2020   2637.61011     41.83000    129.62860      -999.25      -999.25      -999.25      -999.25     71.00000    308.33360      1.19605
 43837.3490740741 08:22:40/07-Jan-2020   2637.61011     41.83000    129.47550      -999.25      -999.25      -999.25      -999.25     71.00000    309.85040      1.20193
 43837.3491898148 08:22:50/07-Jan-2020   2637.61011     41.83000    129.30960      -999.25      -999.25      -999.25      -999.25     71.00000    308.26460      1.19578
 43837.3493055556 08:23:00/07-Jan-2020   2637.61011     41.83000    129.14530      -999.25      -999.25      -999.25      -999.25     70.00000    309.36780      1.20006
 43837.3494212963 08:23:10/07-Jan-2020   2637.61011     41.83000    128.99560      -999.25      -999.25      -999.25      -999.25     70.00000    309.29880      1.19979
 43837.3495370370 08:23:20/07-Jan-2020   2637.61011     41.83000    128.87130      -999.25      -999.25      0.00000      0.00000     69.00000    310.05720      1.20274
 43837.3496527778 08:23:30/07-Jan-2020   2637.61011     41.83000    128.78040      -999.25      -999.25      -999.25      -999.25     69.00000    309.78140      1.20167
 43837.3497685185 08:23:40/07-Jan-2020   2637.61011     41.83000      -999.25      -999.25      -999.25      -999.25      -999.25     69.00000    311.09140      1.20675
 43837.3498842593 08:23:50/07-Jan-2020   2637.61011     41.83000      -999.25      -999.25      -999.25      -999.25      -999.25     68.00000    311.78090      1.20942
 43837.3500000000 08:24:00/07-Jan-2020   2637.61011     41.83000      -999.25     62.00000      -999.25      -999.25      -999.25     68.00000    311.64300      1.20889
 43837.3501157407 08:24:10/07-Jan-2020   2637.61011     41.83000      -999.25      -999.25     12.00000      -999.25      -999.25     68.00000    309.64360      1.20113
 43837.3502314815 08:24:20/07-Jan-2020   2637.61011     41.83000      -999.25      -999.25      -999.25      0.00000      0.00000     68.00000    307.09250      1.19124
 43837.3503472222 08:24:30/07-Jan-2020   2637.61011     41.83000    136.62750      -999.25      -999.25      -999.25      -999.25     67.00000    309.98830      1.20247
 43837.3504629630 08:24:40/07-Jan-2020   2637.52002     41.92000    138.43830      -999.25      -999.25      -999.25      -999.25     67.00000    311.64300      1.20893
 43837.3505787037 08:24:50/07-Jan-2020   2637.61011     41.83000    123.08590      -999.25      -999.25      -999.25      -999.25     67.00000    307.85090      1.19418
 43837.3506944444 08:25:00/07-Jan-2020   2637.61011     41.83000    121.92380     62.00000      -999.25      -999.25      -999.25     67.00000    309.64360      1.20113
 43837.3508101852 08:25:10/07-Jan-2020   2637.61011     41.83000    123.37200      -999.25     12.00000      0.00000      0.00000     66.00000    311.71200      1.20915
 43837.3509259259 08:25:20/07-Jan-2020   2637.61011     41.83000    128.22890      -999.25      -999.25      -999.25      -999.25     66.00000    311.43620      1.20809
 43837.3510416667 08:25:30/07-Jan-2020   2637.61011     41.83000    133.50100      -999.25      -999.25      -999.25      -999.25     66.00000    310.88460      1.20595
 43837.3511574074 08:25:40/07-Jan-2020   2637.61011     41.83000    131.75710      -999.25      -999.25      -999.25      -999.25     66.00000    311.78090      1.20942
 43837.3512731481 08:25:50/07-Jan-2020   2637.54980     41.89000    125.62710     60.00000      -999.25      -999.25      -999.25     66.00000    311.78090      1.20945
 43837.3513888889 08:26:00/07-Jan-2020   2637.71997     41.72000    117.12780      -999.25     15.00000      -999.25      -999.25     65.00000    310.53990      1.20456
 43837.3515046296 08:26:10/07-Jan-2020   2637.86011     41.58000    113.84220      -999.25      -999.25      0.00000      0.00000     65.00000    309.71250      1.20128
 43837.3516203704 08:26:20/07-Jan-2020   2638.00000     41.44000    116.81340      -999.25      -999.25      -999.25      -999.25     65.00000    310.88460      1.20577
