~VERSION INFORMATION 
VERS  .    2.0                                     :CWLS Log ASCII Standard - VERSION 2.0
WRAP  .    NO                                      :One Line per Time step
PROD  .    Schlumberger Technology Corp.           :LAS Producer
PROG  .    Horizon LASWriter 9.2.113335.3100       :LAS Program name and version
SOURCE.    Run 12-TimeLogicalAcq                   :Run&Pass Information
CREA  .    01/21/2020                              :LAS Creation date {MM/DD/YYYY}
#--------------------------------------------------
~WELL INFORMATION 
#MNEM           .UNIT                      DATA            :DESCRIPTION
#----            ------          --------------            -----------------------------
STRT            .d               43837.2295138889          :START TIME(OLE Automation date)
STOP            .d               43837.6875000000          :STOP TIME(OLE Automation date)
STEP            .d                            0            :STEP TIME(10s in time)
NULL            .                       -999.25            :NULL VALUE
COMP            .                       Equinor            :COMPANY
WELL            .                        31/5-7            :WELL NAME
FLD             .                           Eos            :FIELD NAME
RIGN            .                 West Hercules            :Rig Name
RIGTYP          .                Semi-Submersible          :Rig Type
SON             .                     19SCA0085            :Service Order Number
SRVC            .                  Schlumberger            :SERVICE COMPANY
DATE            .                    01/07/2020            :LOG DATE(Composite Date for Composite LAP) (MM/DD/YYYY)
CLAB            .                       County:            :County Label
CNTY            .                                          :COUNTY
SLAB            .                                          :State/Province Label
STAT            .                                          :STATE or PROVINCE
PROV            .                                          :STATE or PROVINCE
CTRY            .                        Norway            :COUNTRY
CONT_REGION     .                        Europe            :Continent Region
SECT            .                                          :Section
TOWN            .                                          :Township
RANG            .                                          :Range
API             .                                          :API NUMBER
UWI             .                                          :UNIQUE WELL ID
LUL             .                Service Office            :Logging Unit Location
LUN             .                          A615            :Logging Unit Number
LOC             .                Norwegian North Sea       :FIELD LOCATION
FL1             .                Section: 8 1/2 in.        :Field Location Line 1
FL2             .                Job no.: 19SCA0085        :Field Location Line 2
LATI            .deg             60° 34' 35.14" N          :LATITUDE
LONG            .deg             3° 26' 36.13" E           :LONGITUDE
PDAT            .                           MSL            :Local Permanent Datum
LMF             .                            DF            :Logging Measured From
APD             .m                        31.00            :Elevation of Depth Reference (LMF) Above Permanent Datum
EPD             .m                         0.00            :Elevation of Permanent Datum (PDAT) above Mean Sea Level
EKB             .m                      -999.25            :Elevation of Kelly Bushing Above Permanent Datum
EDF             .m                        31.00            :Elevation of Drill Floor Above Permanent Datum
EGL             .m                      -307.00            :Elevation of Ground Level Above Permanent Datum
ECF             .m                      -999.25            :Elevation of Casing Flange above Permanent Datum
#--------------------------------------------------
~CURVE INFORMATION
#MNEM           .UNIT                  API CODE            :DESCRIPTION
#----            ------          --------------            -----------------------------
TIME_1900       .d                                         :                                                        Time Index(OLE Automation date)
TIME            .s                                         :                                (10s)                   Time(hh mm ss/dd-MMM-yyyy)
DEPTH           .m                                         :(RT)    (DnMWorkflow)                                   Depth Index
BLKP            .m                                         :(RT)    (DRILLING_SURFACE)                              Height of block above rig floor
GR              .gAPI                                      :(RT)    (ARC6)                                          Gamma Ray
CRPM            .c/min                                     :(RT)    (TELE675)                                       Collar Rotational Speed
STICK           .c/min                                     :(RT)    (TELE675)                                       Stick Slip Indicator
SHKRSK          .                                          :(RT)    (TELE675)                                       Shock Risk
SHKPK           .gn                                        :(RT)    (TELE675)                                       Shock Peak
DHAT            .degC                                      :(RM)    (ARC6)                                          Downhole Annulus Temperature
DHAP            .bar                                       :(RM)    (ARC6)                                          Downhole Annulus Pressure
ECD             .g/cm3                                     :(RM)    (ARC6)                                          Equivalent Circulating Density
#-------------------------------------------------------------
#       TIME_1900                 TIME        DEPTH         BLKP           GR         CRPM        STICK       SHKRSK        SHKPK         DHAT         DHAP          ECD 
#                                       (DnMWorkfl)  (DRILLING_)       (ARC6)    (TELE675)    (TELE675)    (TELE675)    (TELE675)       (ARC6)       (ARC6)       (ARC6) 
#                                              (RT)         (RT)         (RT)         (RT)         (RT)         (RT)         (RT)         (RM)         (RM)         (RM) 
#                                (10s)                                                                                                                                   
~ASCII
# ...
 43837.5684027778 13:38:30/07-Jan-2020   2556.47998      4.84000      -999.25      -999.25      -999.25      -999.25      -999.25     39.00000    298.26720      1.19385
 43837.5685185185 13:38:40/07-Jan-2020   2556.47998      4.84000      -999.25      -999.25      -999.25      -999.25      -999.25     39.00000    295.99190      1.18474
 43837.5686342593 13:38:50/07-Jan-2020   2556.47998      4.84000      -999.25      -999.25      -999.25      -999.25      -999.25     39.00000    295.23350      1.18170
 43837.5687500000 13:39:00/07-Jan-2020   2556.47998      4.84000      -999.25      -999.25      -999.25      -999.25      -999.25     39.00000    285.44290      1.14252
 43837.5688657407 13:39:10/07-Jan-2020   2556.47998      4.84000      -999.25      -999.25      -999.25      -999.25      -999.25     39.00000    289.51090      1.15880
 43837.5689814815 13:39:20/07-Jan-2020   2556.47998      4.84000      -999.25      -999.25      -999.25      -999.25      -999.25     40.00000    295.37140      1.18226
 43837.5690972222 13:39:30/07-Jan-2020   2556.47998      4.84000      -999.25      -999.25      -999.25      -999.25      -999.25     40.00000    287.99400      1.15273
 43837.5692129630 13:39:40/07-Jan-2020   2556.47998      4.84000      -999.25      -999.25      -999.25      -999.25      -999.25     40.00000    287.92510      1.15245
 43837.5693287037 13:39:50/07-Jan-2020   2556.47998      4.84000      -999.25      -999.25      -999.25      -999.25      -999.25     40.00000    287.99400      1.15273
 43837.5694444444 13:40:00/07-Jan-2020   2556.47998      4.84000      -999.25      -999.25      -999.25      -999.25      -999.25     40.00000    285.92560      1.14445
 43837.5695601852 13:40:10/07-Jan-2020   2556.47998      4.84000      -999.25      -999.25      -999.25      -999.25      -999.25     40.00000    291.16560      1.16542
 43837.5696759259 13:40:20/07-Jan-2020   2556.47998      4.84000      -999.25      -999.25      -999.25      -999.25      -999.25     40.00000    299.57720      1.19909
 43837.5697916667 13:40:30/07-Jan-2020   2556.47998      4.84000      -999.25      -999.25      -999.25      -999.25      -999.25     40.00000    297.43980      1.19053
 43837.5699074074 13:40:40/07-Jan-2020   2556.47998      4.84000      -999.25      -999.25      -999.25      -999.25      -999.25     40.00000    294.13040      1.17729
 43837.5700231481 13:40:50/07-Jan-2020   2556.47998      4.84000      -999.25      -999.25      -999.25      -999.25      -999.25     40.00000    290.54510      1.16294
 43837.5701388889 13:41:00/07-Jan-2020   2556.47998      4.84000      -999.25      -999.25      -999.25      -999.25      -999.25     40.00000    289.02820      1.15687
 43837.5702546296 13:41:10/07-Jan-2020   2556.47998      4.84000      -999.25      -999.25      -999.25      -999.25      -999.25     40.00000    295.57820      1.18308
 43837.5703703704 13:41:20/07-Jan-2020   2556.47998      4.84000      -999.25      -999.25      -999.25      -999.25      -999.25     40.00000    295.16460      1.18143
 43837.5704861111 13:41:30/07-Jan-2020   2556.47998      4.84000      -999.25      -999.25      -999.25      -999.25      -999.25     40.00000    289.16610      1.15742
 43837.5706018518 13:41:40/07-Jan-2020   2556.47998      4.84000      -999.25      -999.25      -999.25      -999.25      -999.25     40.00000    292.95820      1.17260
 43837.5707175926 13:41:50/07-Jan-2020   2556.47998      4.84000      -999.25      -999.25      -999.25      -999.25      -999.25     40.00000    293.37190      1.17425
 43837.5708333333 13:42:00/07-Jan-2020   2556.47998      4.84000      -999.25      -999.25      -999.25      -999.25      -999.25     40.00000    294.54400      1.17894
 43837.5709490741 13:42:10/07-Jan-2020   2556.47998      4.84000      -999.25      -999.25      -999.25      -999.25      -999.25     40.00000    296.19880      1.18557
 43837.5710648148 13:42:20/07-Jan-2020   2556.47998      4.84000      -999.25      -999.25      -999.25      -999.25      -999.25     40.00000    291.71720      1.16763
 43837.5711805556 13:42:30/07-Jan-2020   2556.47998      4.84000      -999.25      -999.25      -999.25      -999.25      -999.25     40.00000    287.92510      1.15245
 43837.5712962963 13:42:40/07-Jan-2020   2556.47998      4.84000      -999.25      -999.25      -999.25      -999.25      -999.25     40.00000    291.51030      1.16680
 43837.5714120370 13:42:50/07-Jan-2020   2556.47998      4.84000      -999.25      -999.25      -999.25      -999.25      -999.25     40.00000    291.92400      1.16846
 43837.5715277778 13:43:00/07-Jan-2020   2556.47998      4.84000      -999.25      -999.25      -999.25      -999.25      -999.25     40.00000    292.54460      1.17094
 43837.5716435185 13:43:10/07-Jan-2020   2556.47998      4.84000      -999.25      -999.25      -999.25      -999.25      -999.25     40.00000    290.75190      1.16377
 43837.5717592593 13:43:20/07-Jan-2020   2556.47998      4.84000      -999.25      -999.25      -999.25      -999.25      -999.25     40.00000    289.85560      1.16018
 43837.5718750000 13:43:30/07-Jan-2020   2556.47998      4.84000      -999.25      -999.25      -999.25      -999.25      -999.25     40.00000    294.75090      1.17977
 43837.5719907407 13:43:40/07-Jan-2020   2556.47998      4.84000      -999.25      -999.25      -999.25      -999.25      -999.25     40.00000    293.92350      1.17646
 43837.5721064815 13:43:50/07-Jan-2020   2556.47998      4.84000      -999.25      -999.25      -999.25      -999.25      -999.25     40.00000    290.33820      1.16211
 43837.5722222222 13:44:00/07-Jan-2020   2556.47998      4.84000      -999.25      -999.25      -999.25      -999.25      -999.25     40.00000    288.20090      1.15355
 43837.5723379630 13:44:10/07-Jan-2020   2556.47998      4.84000      -999.25      -999.25      -999.25      -999.25      -999.25     40.00000    288.06300      1.15300
 43837.5724537037 13:44:20/07-Jan-2020   2556.47998      4.84000      -999.25      -999.25      -999.25      -999.25      -999.25     40.00000    289.16610      1.15742
 43837.5725694444 13:44:30/07-Jan-2020   2556.47998      4.84000      -999.25      -999.25      -999.25      -999.25      -999.25     40.00000    287.02880      1.14886
 43837.5726851852 13:44:40/07-Jan-2020   2556.47998      4.84000      -999.25      -999.25      -999.25      -999.25      -999.25     40.00000    295.57820      1.18308
 43837.5728009259 13:44:50/07-Jan-2020   2556.47998      4.84000      -999.25      -999.25      -999.25      -999.25      -999.25     40.00000    294.54400      1.17894
 43837.5729166667 13:45:00/07-Jan-2020   2556.47998      4.84000      -999.25      -999.25      -999.25      -999.25      -999.25     40.00000    289.23510      1.15769
 43837.5730324074 13:45:10/07-Jan-2020   2556.47998      4.84000      -999.25      -999.25      -999.25      -999.25      -999.25     40.00000    289.09720      1.15714
 43837.5731481481 13:45:20/07-Jan-2020   2556.47998      4.84000      -999.25      -999.25      -999.25      -999.25      -999.25     40.00000    287.16660      1.14941
 43837.5732638889 13:45:30/07-Jan-2020   2556.47998      4.84000      -999.25      -999.25      -999.25      -999.25      -999.25     40.00000    287.71820      1.15162
 43837.5733796296 13:45:40/07-Jan-2020   2556.47998      4.84000      -999.25      -999.25      -999.25      -999.25      -999.25     40.00000    292.61350      1.17122
 43837.5734953704 13:45:50/07-Jan-2020   2556.47998      4.84000      -999.25      -999.25      -999.25      -999.25      -999.25     40.00000    296.26770      1.18584
 43837.5736111111 13:46:00/07-Jan-2020   2556.47998      4.84000      -999.25      -999.25      -999.25      -999.25      -999.25     40.00000    289.92460      1.16045
 43837.5737268519 13:46:10/07-Jan-2020   2556.47998      4.84000      -999.25      -999.25      -999.25      -999.25      -999.25     40.00000    288.82140      1.15604
 43837.5738425926 13:46:20/07-Jan-2020   2556.47998      4.84000      -999.25      -999.25      -999.25      -999.25      -999.25     40.00000    291.02770      1.16487
