~VERSION INFORMATION 
VERS  .    2.0                                     :CWLS Log ASCII Standard - VERSION 2.0
WRAP  .    NO                                      :One Line per Time step
PROD  .    Schlumberger Technology Corp.           :LAS Producer
PROG  .    Horizon LASWriter 9.2.113335.3100       :LAS Program name and version
SOURCE.    Run 13-TimeLogicalAcq                   :Run&Pass Information
CREA  .    01/21/2020                              :LAS Creation date {MM/DD/YYYY}
#--------------------------------------------------
~WELL INFORMATION 
#MNEM           .UNIT                      DATA            :DESCRIPTION
#----            ------          --------------            -----------------------------
STRT            .d               43844.3958333334          :START TIME(OLE Automation date)
STOP            .d               43845.1666666667          :STOP TIME(OLE Automation date)
STEP            .d                            0            :STEP TIME(10s in time)
NULL            .                       -999.25            :NULL VALUE
COMP            .                       Equinor            :COMPANY
WELL            .                        31/5-7            :WELL NAME
FLD             .                           Eos            :FIELD NAME
RIGN            .                 West Hercules            :Rig Name
RIGTYP          .                Semi-Submersible          :Rig Type
SON             .                     19SCA0085            :Service Order Number
SRVC            .                  Schlumberger            :SERVICE COMPANY
DATE            .                    01/13/2020            :LOG DATE(Composite Date for Composite LAP) (MM/DD/YYYY)
CLAB            .                       County:            :County Label
CNTY            .                                          :COUNTY
SLAB            .                                          :State/Province Label
STAT            .                                          :STATE or PROVINCE
PROV            .                                          :STATE or PROVINCE
CTRY            .                        Norway            :COUNTRY
CONT_REGION     .                        Europe            :Continent Region
SECT            .                                          :Section
TOWN            .                                          :Township
RANG            .                                          :Range
API             .                                          :API NUMBER
UWI             .                                          :UNIQUE WELL ID
LUL             .                Service Office            :Logging Unit Location
LUN             .                          A615            :Logging Unit Number
LOC             .                Norwegian North Sea       :FIELD LOCATION
FL1             .                Section: 8 1/2 in.        :Field Location Line 1
FL2             .                Job no.: 19SCA0085        :Field Location Line 2
LATI            .deg             60° 34' 35.14" N          :LATITUDE
LONG            .deg             3° 26' 36.13" E           :LONGITUDE
PDAT            .                           MSL            :Local Permanent Datum
LMF             .                            DF            :Logging Measured From
APD             .m                        31.00            :Elevation of Depth Reference (LMF) Above Permanent Datum
EPD             .m                         0.00            :Elevation of Permanent Datum (PDAT) above Mean Sea Level
EKB             .m                      -999.25            :Elevation of Kelly Bushing Above Permanent Datum
EDF             .m                        31.00            :Elevation of Drill Floor Above Permanent Datum
EGL             .m                      -307.00            :Elevation of Ground Level Above Permanent Datum
ECF             .m                      -999.25            :Elevation of Casing Flange above Permanent Datum
#--------------------------------------------------
~CURVE INFORMATION
#MNEM           .UNIT                  API CODE            :DESCRIPTION
#----            ------          --------------            -----------------------------
TIME_1900       .d                                         :                                                        Time Index(OLE Automation date)
TIME            .s                                         :                                (10s)                   Time(hh mm ss/dd-MMM-yyyy)
DEPTH           .m                                         :(RT)    (DnMWorkflow)                                   Depth Index
BLKP            .m                                         :(RT)    (DRILLING_SURFACE)                              Height of block above rig floor
GR              .gAPI                                      :(RT)    (ARC6)                                          Gamma Ray
CRPM            .c/min                                     :(RT)    (TELE675)                                       Collar Rotational Speed
STICK           .c/min                                     :(RT)    (TELE675)                                       Stick Slip Indicator
SHKRSK          .                                          :(RT)    (TELE675)                                       Shock Risk
SHKPK           .gn                                        :(RT)    (TELE675)                                       Shock Peak
DHAT            .degC                                      :(RM)    (ARC6)                                          Downhole Annulus Temperature
DHAP            .bar                                       :(RM)    (ARC6)                                          Downhole Annulus Pressure
ECD             .g/cm3                                     :(RM)    (ARC6)                                          Equivalent Circulating Density
#-------------------------------------------------------------
#       TIME_1900                 TIME        DEPTH         BLKP           GR         CRPM        STICK       SHKRSK        SHKPK         DHAT         DHAP          ECD 
#                                       (DnMWorkfl)  (DRILLING_)       (ARC6)    (TELE675)    (TELE675)    (TELE675)    (TELE675)       (ARC6)       (ARC6)       (ARC6) 
#                                              (RT)         (RT)         (RT)         (RT)         (RT)         (RT)         (RT)         (RM)         (RM)         (RM) 
#                                (10s)                                                                                                                                   
~ASCII
# ...
 43844.8069444444 19:22:00/14-Jan-2020   2876.52002     33.76000    118.98380    182.00000      -999.25      -999.25      -999.25     50.00000    346.04790      1.23053
 43844.8070601852 19:22:10/14-Jan-2020   2875.91992     34.36000    117.53570      -999.25    378.00000      0.00000      0.00000     50.00000    347.42680      1.23569
 43844.8071759259 19:22:20/14-Jan-2020   2876.42993     33.85000    112.67880      -999.25      -999.25      -999.25      -999.25     50.00000    345.91000      1.23007
 43844.8072916667 19:22:30/14-Jan-2020   2876.19995     34.08000    109.95280      -999.25      -999.25      -999.25      -999.25     50.00000    346.18580      1.23115
 43844.8074074074 19:22:40/14-Jan-2020   2876.52002     33.76000    114.07540      -999.25      -999.25      -999.25      -999.25     50.00000    346.66840      1.23273
 43844.8075231481 19:22:50/14-Jan-2020   2876.58984     33.69000    115.01620      -999.25      -999.25      -999.25      -999.25     50.00000    345.84100      1.22976
 43844.8076388889 19:23:00/14-Jan-2020   2876.46021     33.74000    109.48810    204.00000    342.00000      -999.25      -999.25     50.00000    346.59950      1.23251
 43844.8077546296 19:23:10/14-Jan-2020   2876.78979     33.39000    102.91690      -999.25      -999.25      0.00000      0.00000     50.00000    347.28890      1.23482
 43844.8078703704 19:23:20/14-Jan-2020   2876.60010     33.49000     97.38878      -999.25      -999.25      -999.25      -999.25     50.00000    346.18580      1.23097
 43844.8079861111 19:23:30/14-Jan-2020   2876.85010     33.34000     94.65899      -999.25      -999.25      -999.25      -999.25     50.00000    345.84100      1.22965
 43844.8081018519 19:23:40/14-Jan-2020   2877.28003     33.00000     94.88445      -999.25      -999.25      -999.25      -999.25     50.00000    347.01310      1.23363
 43844.8082175926 19:23:50/14-Jan-2020   2876.55005     33.73000     89.61238    160.00000      -999.25      -999.25      -999.25     50.00000    346.32370      1.23149
 43844.8083333333 19:24:00/14-Jan-2020   2877.18994     33.09000     84.75546      -999.25    327.00000      0.00000      0.00000     50.00000    345.84100      1.22950
 43844.8084490741 19:24:10/14-Jan-2020   2877.23999     33.04000     83.30731      -999.25      -999.25      -999.25      -999.25     50.00000    346.94420      1.23340
 43844.8085648148 19:24:20/14-Jan-2020   2877.29004     32.99000     83.60227      -999.25      -999.25      -999.25      -999.25     50.00000    345.42730      1.22799
 43844.8086805556 19:24:30/14-Jan-2020   2877.23999     33.04000     83.79453      -999.25      -999.25      -999.25      -999.25     50.00000    346.04790      1.23022
 43844.8087962963 19:24:40/14-Jan-2020   2876.88989     33.39000     85.05267    222.00000      -999.25      -999.25      -999.25     50.00000    347.70260      1.23625
 43844.8089120370 19:24:50/14-Jan-2020   2877.03003     33.25000     89.30233      -999.25    369.00000      -999.25      -999.25     50.00000    346.18580      1.23080
 43844.8090277778 19:25:00/14-Jan-2020   2877.52002     32.76000     90.94514      -999.25      -999.25      0.00000      0.00000     50.00000    346.94420      1.23328
 43844.8091435185 19:25:10/14-Jan-2020   2876.96997     33.31000     89.45952      -999.25      -999.25      -999.25      -999.25     50.00000    347.77160      1.23646
 43844.8092592593 19:25:20/14-Jan-2020   2878.07007     32.02000     90.67665      -999.25      -999.25      -999.25      -999.25     50.00000    345.70310      1.22862
 43844.8093750000 19:25:30/14-Jan-2020   2877.32007     33.06000     93.99218      -999.25      -999.25      -999.25      -999.25     50.00000    346.59950      1.23215
 43844.8094907407 19:25:40/14-Jan-2020   2878.04980     32.23000     95.72564    191.00000      -999.25      -999.25      -999.25     50.00000    347.56470      1.23526
 43844.8096064815 19:25:50/14-Jan-2020   2877.50000     32.78000     96.15174      -999.25    369.00000      0.00000      0.00000     50.00000    346.25470      1.23085
 43844.8097222222 19:26:00/14-Jan-2020   2877.65991     32.62000     95.72564      -999.25      -999.25      -999.25      -999.25     50.00000    346.87520      1.23298
 43844.8098379630 19:26:10/14-Jan-2020   2877.68994     32.59000     93.94057      -999.25      -999.25      -999.25      -999.25     50.00000    347.63370      1.23566
 43844.8099537037 19:26:20/14-Jan-2020   2877.65015     32.63000     90.05187      -999.25      -999.25      -999.25      -999.25     50.00000    346.11680      1.23029
 43844.8100694444 19:26:30/14-Jan-2020   2877.89990     32.38000     88.01983    162.00000      -999.25      -999.25      -999.25     50.00000    346.87520      1.23287
 43844.8101851852 19:26:40/14-Jan-2020   2878.51001     31.77000     89.40185      -999.25    381.00000      -999.25      -999.25     50.00000    347.08210      1.23335
 43844.8103009259 19:26:50/14-Jan-2020   2877.68994     32.59000     91.04465      -999.25      -999.25      0.00000      0.00000     50.00000    346.59950      1.23199
 43844.8104166667 19:27:00/14-Jan-2020   2877.84985     32.43000     92.42669      -999.25      -999.25      -999.25      -999.25     50.00000    346.66840      1.23214
 43844.8105324074 19:27:10/14-Jan-2020   2878.36011     31.92000     95.52963      -999.25      -999.25      -999.25      -999.25     50.00000    347.28890      1.23415
 43844.8106481481 19:27:20/14-Jan-2020   2878.26001     32.02000    100.45910      -999.25      -999.25      -999.25      -999.25     50.00000    346.87520      1.23271
 43844.8107638889 19:27:30/14-Jan-2020   2878.50000     31.78000    102.43390    192.00000      -999.25      -999.25      -999.25     50.00000    346.11680      1.22992
 43844.8108796296 19:27:40/14-Jan-2020   2878.83984     31.44000    100.98580      -999.25    381.00000      0.00000      0.00000     50.00000    346.87520      1.23247
 43844.8109953704 19:27:50/14-Jan-2020   2878.69995     31.58000     96.12883      -999.25      -999.25      -999.25      -999.25     51.00000    346.80630      1.23229
 43844.8111111111 19:28:00/14-Jan-2020   2878.93018     31.35000     92.81408      -999.25      -999.25      -999.25      -999.25     51.00000    346.04790      1.22949
 43844.8112268519 19:28:10/14-Jan-2020   2878.98999     31.29000     93.01305      -999.25      -999.25      -999.25      -999.25     51.00000    346.94420      1.23265
 43844.8113425926 19:28:20/14-Jan-2020   2878.96997     31.31000     94.07828    196.00000      -999.25      -999.25      -999.25     50.00000    346.46160      1.23093
 43844.8114583333 19:28:30/14-Jan-2020   2879.38989     30.89000     93.97467      -999.25    249.00000      -999.25      -999.25     50.00000    346.39260      1.23052
 43844.8115740741 19:28:40/14-Jan-2020   2879.00000     31.28000     97.26030      -999.25      -999.25      0.00000      0.00000     51.00000    346.46160      1.23093
 43844.8116898148 19:28:50/14-Jan-2020   2879.88989     30.40000    102.89200      -999.25      -999.25      -999.25      -999.25     51.00000    346.66840      1.23129
 43844.8118055556 19:29:00/14-Jan-2020   2879.65991     30.62000    107.43740      -999.25      -999.25      -999.25      -999.25     50.00000    346.39260      1.23041
 43844.8119212963 19:29:10/14-Jan-2020   2879.62012     30.66000    110.61230      -999.25      -999.25      -999.25      -999.25     51.00000    345.97890      1.22895
 43844.8120370370 19:29:20/14-Jan-2020   2879.48022     30.80000    111.54950    179.00000      -999.25      -999.25      -999.25     50.00000    347.22000      1.23342
 43844.8121527778 19:29:30/14-Jan-2020   2879.44995     30.92000    114.57390      -999.25    363.00000      0.00000      0.00000     50.00000    346.18580      1.22977
 43844.8122685185 19:29:40/14-Jan-2020   2880.01001     30.37000    121.00710      -999.25      -999.25      -999.25      -999.25     50.00000    345.91000      1.22854
 43844.8123842593 19:29:50/14-Jan-2020   2879.68994     30.68000    127.35490      -999.25      -999.25      -999.25      -999.25     50.00000    346.94420      1.23236
