~VERSION INFORMATION 
VERS  .    2.0                                     :CWLS Log ASCII Standard - VERSION 2.0
WRAP  .    NO                                      :One Line per Time step
PROD  .    Schlumberger Technology Corp.           :LAS Producer
PROG  .    Horizon LASWriter 9.2.113335.3100       :LAS Program name and version
SOURCE.    Run 13-TimeLogicalAcq                   :Run&Pass Information
CREA  .    01/21/2020                              :LAS Creation date {MM/DD/YYYY}
#--------------------------------------------------
~WELL INFORMATION 
#MNEM           .UNIT                      DATA            :DESCRIPTION
#----            ------          --------------            -----------------------------
STRT            .d               43844.3958333334          :START TIME(OLE Automation date)
STOP            .d               43845.1666666667          :STOP TIME(OLE Automation date)
STEP            .d                            0            :STEP TIME(10s in time)
NULL            .                       -999.25            :NULL VALUE
COMP            .                       Equinor            :COMPANY
WELL            .                        31/5-7            :WELL NAME
FLD             .                           Eos            :FIELD NAME
RIGN            .                 West Hercules            :Rig Name
RIGTYP          .                Semi-Submersible          :Rig Type
SON             .                     19SCA0085            :Service Order Number
SRVC            .                  Schlumberger            :SERVICE COMPANY
DATE            .                    01/13/2020            :LOG DATE(Composite Date for Composite LAP) (MM/DD/YYYY)
CLAB            .                       County:            :County Label
CNTY            .                                          :COUNTY
SLAB            .                                          :State/Province Label
STAT            .                                          :STATE or PROVINCE
PROV            .                                          :STATE or PROVINCE
CTRY            .                        Norway            :COUNTRY
CONT_REGION     .                        Europe            :Continent Region
SECT            .                                          :Section
TOWN            .                                          :Township
RANG            .                                          :Range
API             .                                          :API NUMBER
UWI             .                                          :UNIQUE WELL ID
LUL             .                Service Office            :Logging Unit Location
LUN             .                          A615            :Logging Unit Number
LOC             .                Norwegian North Sea       :FIELD LOCATION
FL1             .                Section: 8 1/2 in.        :Field Location Line 1
FL2             .                Job no.: 19SCA0085        :Field Location Line 2
LATI            .deg             60° 34' 35.14" N          :LATITUDE
LONG            .deg             3° 26' 36.13" E           :LONGITUDE
PDAT            .                           MSL            :Local Permanent Datum
LMF             .                            DF            :Logging Measured From
APD             .m                        31.00            :Elevation of Depth Reference (LMF) Above Permanent Datum
EPD             .m                         0.00            :Elevation of Permanent Datum (PDAT) above Mean Sea Level
EKB             .m                      -999.25            :Elevation of Kelly Bushing Above Permanent Datum
EDF             .m                        31.00            :Elevation of Drill Floor Above Permanent Datum
EGL             .m                      -307.00            :Elevation of Ground Level Above Permanent Datum
ECF             .m                      -999.25            :Elevation of Casing Flange above Permanent Datum
#--------------------------------------------------
~CURVE INFORMATION
#MNEM           .UNIT                  API CODE            :DESCRIPTION
#----            ------          --------------            -----------------------------
TIME_1900       .d                                         :                                                        Time Index(OLE Automation date)
TIME            .s                                         :                                (10s)                   Time(hh mm ss/dd-MMM-yyyy)
DEPTH           .m                                         :(RT)    (DnMWorkflow)                                   Depth Index
BLKP            .m                                         :(RT)    (DRILLING_SURFACE)                              Height of block above rig floor
GR              .gAPI                                      :(RT)    (ARC6)                                          Gamma Ray
CRPM            .c/min                                     :(RT)    (TELE675)                                       Collar Rotational Speed
STICK           .c/min                                     :(RT)    (TELE675)                                       Stick Slip Indicator
SHKRSK          .                                          :(RT)    (TELE675)                                       Shock Risk
SHKPK           .gn                                        :(RT)    (TELE675)                                       Shock Peak
DHAT            .degC                                      :(RM)    (ARC6)                                          Downhole Annulus Temperature
DHAP            .bar                                       :(RM)    (ARC6)                                          Downhole Annulus Pressure
ECD             .g/cm3                                     :(RM)    (ARC6)                                          Equivalent Circulating Density
#-------------------------------------------------------------
#       TIME_1900                 TIME        DEPTH         BLKP           GR         CRPM        STICK       SHKRSK        SHKPK         DHAT         DHAP          ECD 
#                                       (DnMWorkfl)  (DRILLING_)       (ARC6)    (TELE675)    (TELE675)    (TELE675)    (TELE675)       (ARC6)       (ARC6)       (ARC6) 
#                                              (RT)         (RT)         (RT)         (RT)         (RT)         (RT)         (RT)         (RM)         (RM)         (RM) 
#                                (10s)                                                                                                                                   
~ASCII
# ...
 43845.1125000000 02:42:00/15-Jan-2020   2552.19995      7.46000      -999.25      -999.25      -999.25      -999.25      -999.25     54.00000    292.19980      1.17153
 43845.1126157407 02:42:10/15-Jan-2020   2552.19995      7.37000      -999.25      -999.25      -999.25      -999.25      -999.25     54.00000    297.23300      1.19171
 43845.1127314815 02:42:20/15-Jan-2020   2552.19995      6.36000      -999.25      -999.25      -999.25      -999.25      -999.25     54.00000    290.20030      1.16351
 43845.1128472222 02:42:30/15-Jan-2020   2552.19995      5.23000      -999.25      -999.25      -999.25      -999.25      -999.25     54.00000    294.88880      1.18231
 43845.1129629630 02:42:40/15-Jan-2020   2552.19995      5.10000      -999.25      -999.25      -999.25      -999.25      -999.25     53.00000    299.30140      1.20000
 43845.1130787037 02:42:50/15-Jan-2020   2552.19995      4.81000      -999.25      -999.25      -999.25      -999.25      -999.25     54.00000    301.16300      1.20747
 43845.1131944444 02:43:00/15-Jan-2020   2552.19995      4.80000      -999.25      -999.25      -999.25      -999.25      -999.25     53.00000    293.09610      1.17512
 43845.1133101852 02:43:10/15-Jan-2020   2552.19995      4.80000      -999.25      -999.25      -999.25      -999.25      -999.25     54.00000    296.54350      1.18894
 43845.1134259259 02:43:20/15-Jan-2020   2552.19995      4.80000      -999.25      -999.25      -999.25      -999.25      -999.25     53.00000    296.88820      1.19033
 43845.1135416667 02:43:30/15-Jan-2020   2552.19995      4.80000      -999.25      -999.25      -999.25      -999.25      -999.25     53.00000    295.85400      1.18618
 43845.1136574074 02:43:40/15-Jan-2020   2552.19995      4.80000      -999.25      -999.25      -999.25      -999.25      -999.25     53.00000    297.16400      1.19143
 43845.1137731481 02:43:50/15-Jan-2020   2552.19995      4.94000      -999.25      -999.25      -999.25      -999.25      -999.25     53.00000    292.13090      1.17125
 43845.1138888889 02:44:00/15-Jan-2020   2552.19995      4.94000      -999.25      -999.25      -999.25      -999.25      -999.25     53.00000    291.99300      1.17070
 43845.1140046296 02:44:10/15-Jan-2020   2552.19995      4.94000      -999.25      -999.25      -999.25      -999.25      -999.25     53.00000    294.19930      1.17955
 43845.1141203704 02:44:20/15-Jan-2020   2552.19995      4.94000      -999.25      -999.25      -999.25      -999.25      -999.25     54.00000    296.47460      1.18867
 43845.1142361111 02:44:30/15-Jan-2020   2552.19995      4.94000      -999.25      -999.25      -999.25      -999.25      -999.25     53.00000    293.23400      1.17568
 43845.1143518519 02:44:40/15-Jan-2020   2552.19995      4.94000      -999.25      -999.25      -999.25      -999.25      -999.25     53.00000    292.13090      1.17125
 43845.1144675926 02:44:50/15-Jan-2020   2552.19995      4.94000      -999.25      -999.25      -999.25      -999.25      -999.25     53.00000    296.19880      1.18756
 43845.1145833333 02:45:00/15-Jan-2020   2552.19995      4.94000      -999.25      -999.25      -999.25      -999.25      -999.25     53.00000    289.71770      1.16158
 43845.1146990741 02:45:10/15-Jan-2020   2552.19995      4.94000      -999.25      -999.25      -999.25      -999.25      -999.25     53.00000    291.30350      1.16793
 43845.1148148148 02:45:20/15-Jan-2020   2552.19995      4.94000      -999.25      -999.25      -999.25      -999.25      -999.25     53.00000    293.02720      1.17485
 43845.1149305556 02:45:30/15-Jan-2020   2552.19995      4.94000      -999.25      -999.25      -999.25      -999.25      -999.25     53.00000    297.57770      1.19309
 43845.1150462963 02:45:40/15-Jan-2020   2552.19995      4.94000      -999.25      -999.25      -999.25      -999.25      -999.25     53.00000    292.06190      1.17098
 43845.1151620370 02:45:50/15-Jan-2020   2552.19995      4.94000      -999.25      -999.25      -999.25      -999.25      -999.25     53.00000    293.30300      1.17595
 43845.1152777778 02:46:00/15-Jan-2020   2552.19995      4.94000      -999.25      -999.25      -999.25      -999.25      -999.25     53.00000    296.40560      1.18839
 43845.1153935185 02:46:10/15-Jan-2020   2552.19995      4.58000      -999.25      -999.25      -999.25      -999.25      -999.25     53.00000    290.26930      1.16379
 43845.1155092593 02:46:20/15-Jan-2020   2552.19995      3.69000      -999.25      -999.25      -999.25      -999.25      -999.25     53.00000    301.02510      1.20691
 43845.1156250000 02:46:30/15-Jan-2020   2552.19995      3.40000      -999.25      -999.25      -999.25      -999.25      -999.25     53.00000    291.64820      1.16932
 43845.1157407407 02:46:40/15-Jan-2020   2552.19995      3.37000      -999.25      -999.25      -999.25      -999.25      -999.25     53.00000    289.44190      1.16047
 43845.1158564815 02:46:50/15-Jan-2020   2552.19995      3.37000      -999.25      -999.25      -999.25      -999.25      -999.25     53.00000    295.99190      1.18673
 43845.1159722222 02:47:00/15-Jan-2020   2552.04004      3.65000      -999.25      -999.25      -999.25      -999.25      -999.25     53.00000    288.89030      1.15833
 43845.1160879630 02:47:10/15-Jan-2020   2552.14014      3.54000      -999.25      -999.25      -999.25      -999.25      -999.25     53.00000    291.02770      1.16686
 43845.1162037037 02:47:20/15-Jan-2020   2552.14990      3.54000      -999.25      -999.25      -999.25      -999.25      -999.25     53.00000    296.26770      1.18786
 43845.1163194444 02:47:30/15-Jan-2020   2552.19019      3.50000      -999.25      -999.25      -999.25      -999.25      -999.25     53.00000    296.19880      1.18757
 43845.1164351852 02:47:40/15-Jan-2020   2552.19995      3.46000      -999.25      -999.25      -999.25      -999.25      -999.25     53.00000    295.85400      1.18618
 43845.1165509259 02:47:50/15-Jan-2020   2552.19995      3.46000      -999.25      -999.25      -999.25      -999.25      -999.25     53.00000    296.12980      1.18729
 43845.1166666667 02:48:00/15-Jan-2020   2552.19995      3.47000      -999.25      -999.25      -999.25      -999.25      -999.25     53.00000    299.16350      1.19945
 43845.1167824074 02:48:10/15-Jan-2020   2552.16992      3.53000      -999.25      -999.25      -999.25      -999.25      -999.25     53.00000    293.23400      1.17569
 43845.1168981481 02:48:20/15-Jan-2020   2552.01001      3.70000      -999.25      -999.25      -999.25      -999.25      -999.25     54.00000    288.13190      1.15531
 43845.1170138889 02:48:30/15-Jan-2020   2551.97021      3.73000      -999.25      -999.25      -999.25      -999.25      -999.25     54.00000    289.92460      1.16251
 43845.1171296296 02:48:40/15-Jan-2020   2551.97021      3.73000      -999.25      -999.25      -999.25      -999.25      -999.25     53.00000    292.06190      1.17108
 43845.1172453704 02:48:50/15-Jan-2020   2551.97021      3.73000      -999.25      -999.25      -999.25      -999.25      -999.25     53.00000    294.54400      1.18103
 43845.1173611111 02:49:00/15-Jan-2020   2551.09009      4.68000      -999.25      -999.25      -999.25      -999.25      -999.25     53.00000    289.02820      1.15932
 43845.1174768518 02:49:10/15-Jan-2020   2547.14014      8.99000      -999.25      -999.25      -999.25      -999.25      -999.25     54.00000    285.30510      1.14618
 43845.1175925926 02:49:20/15-Jan-2020   2540.58008     15.33000      -999.25      -999.25      -999.25      -999.25      -999.25     53.00000    284.40870      1.14553
 43845.1177083333 02:49:30/15-Jan-2020   2533.93018     22.18000      -999.25      -999.25      -999.25      -999.25      -999.25     54.00000    284.33980      1.14832
 43845.1178240741 02:49:40/15-Jan-2020   2525.53003     30.41000      -999.25      -999.25      -999.25      -999.25      -999.25     54.00000    283.23660      1.14765
 43845.1179398148 02:49:50/15-Jan-2020   2517.65015     38.05000      -999.25      -999.25      -999.25      -999.25      -999.25     54.00000    287.64930      1.16921
