~VERSION INFORMATION 
VERS  .    2.0                                     :CWLS Log ASCII Standard - VERSION 2.0
WRAP  .    NO                                      :One Line per Time step
PROD  .    Schlumberger Technology Corp.           :LAS Producer
PROG  .    Horizon LASWriter 9.2.113335.3100       :LAS Program name and version
SOURCE.    Run 3-TimeLogicalAcq                    :Run&Pass Information
CREA  .    12/12/2019                              :LAS Creation date {MM/DD/YYYY}
#--------------------------------------------------
~WELL INFORMATION 
#MNEM           .UNIT                      DATA            :DESCRIPTION
#----            ------          --------------            -----------------------------
STRT            .d               43804.6875000000          :START TIME(OLE Automation date)
STOP            .d               43805.8541666667          :STOP TIME(OLE Automation date)
STEP            .d                            0            :STEP TIME(10s in time)
NULL            .                       -999.25            :NULL VALUE
COMP            .                       Equinor            :COMPANY
WELL            .                        31/5-7            :WELL NAME
FLD             .                           Eos            :FIELD NAME
RIGN            .                 West Hercules            :Rig Name
RIGTYP          .                Semi-Submersible          :Rig Type
SON             .                     19SCA0085            :Service Order Number
SRVC            .                  Schlumberger            :SERVICE COMPANY
DATE            .                    12/05/2019            :LOG DATE(Composite Date for Composite LAP) (MM/DD/YYYY)
CLAB            .                       County:            :County Label
CNTY            .                                          :COUNTY
SLAB            .                                          :State/Province Label
STAT            .                                          :STATE or PROVINCE
PROV            .                                          :STATE or PROVINCE
CTRY            .                        Norway            :COUNTRY
CONT_REGION     .                        Europe            :Continent Region
SECT            .                                          :Section
TOWN            .                                          :Township
RANG            .                                          :Range
API             .                                          :API NUMBER
UWI             .                                          :UNIQUE WELL ID
LUL             .                Service Office            :Logging Unit Location
LUN             .                          A615            :Logging Unit Number
LOC             .                Norwegian North Sea       :FIELD LOCATION
FL1             .                Section: 26 in.           :Field Location Line 1
FL2             .                Job no.: 19SCA0085        :Field Location Line 2
LATI            .deg             60° 34' 35.14" N          :LATITUDE
LONG            .deg             3° 26' 36.13" E           :LONGITUDE
PDAT            .                           MSL            :Local Permanent Datum
LMF             .                            DF            :Logging Measured From
APD             .m                        31.00            :Elevation of Depth Reference (LMF) Above Permanent Datum
EPD             .m                         0.00            :Elevation of Permanent Datum (PDAT) above Mean Sea Level
EKB             .m                      -999.25            :Elevation of Kelly Bushing Above Permanent Datum
EDF             .m                        31.00            :Elevation of Drill Floor Above Permanent Datum
EGL             .m                      -307.00            :Elevation of Ground Level Above Permanent Datum
ECF             .m                      -999.25            :Elevation of Casing Flange above Permanent Datum
#--------------------------------------------------
~CURVE INFORMATION
#MNEM           .UNIT                  API CODE            :DESCRIPTION
#----            ------          --------------            -----------------------------
TIME_1900       .d                                         :                                                        Time Index(OLE Automation date)
TIME            .s                                         :                                (10s)                   Time(hh mm ss/dd-MMM-yyyy)
DEPTH           .m                                         :(RT)    (DnMWorkflow)                                   Depth Index
GR_CAL          .gAPI                                      :(RT)    (ARC9)                                          Calibrated Gamma Ray
BLKP            .m                                         :(RT)    (DRILLING_SURFACE)                              Height of block above rig floor
CRPM            .c/min                                     :(RT)    (TELE900)                                       Collar Rotational Speed
STICK           .c/min                                     :(RT)    (TELE900)                                       Stick Slip Indicator
SHKPK           .gn                                        :(RT)    (TELE900)                                       Shock Peak
SHKRSK          .                                          :(RT)    (TELE900)                                       Shock Risk
DHAP            .bar                                       :(RM)    (ARC9)                                          Downhole Annulus Pressure
DHAT            .degC                                      :(RM)    (ARC9)                                          Downhole Annulus Temperature
ECD             .g/cm3                                     :(RM)    (ARC9)                                          Equivalent Circulating Density
#-------------------------------------------------------------
#       TIME_1900                 TIME        DEPTH       GR_CAL         BLKP         CRPM        STICK        SHKPK       SHKRSK         DHAP         DHAT          ECD 
#                                       (DnMWorkfl)       (ARC9)  (DRILLING_)    (TELE900)    (TELE900)    (TELE900)    (TELE900)       (ARC9)       (ARC9)       (ARC9) 
#                                              (RT)         (RT)         (RT)         (RT)         (RT)         (RT)         (RT)         (RM)         (RM)         (RM) 
#                                (10s)                                                                                                                                   
~ASCII
# ...
 43805.6930555556 16:38:00/06-Dec-2019     924.5300      -999.25      42.9300      -999.25      -999.25      -999.25      -999.25     104.5245      19.0000       1.2235
 43805.6931712963 16:38:10/06-Dec-2019     924.5500      -999.25      42.9200      -999.25      -999.25      -999.25      -999.25     104.5935      19.0000       1.2243
 43805.6932870370 16:38:20/06-Dec-2019     924.5700      -999.25      42.9000      -999.25      -999.25      -999.25      -999.25     103.9040      19.0000       1.2162
 43805.6934027778 16:38:30/06-Dec-2019     924.5700      -999.25      42.9000      -999.25      -999.25      -999.25      -999.25     104.0419      19.0000       1.2178
 43805.6935185185 16:38:40/06-Dec-2019     924.5700      -999.25      42.9000      -999.25      -999.25      -999.25      -999.25     103.5593      19.0000       1.2122
 43805.6936342593 16:38:50/06-Dec-2019     924.5700      -999.25      42.9000      -999.25      -999.25      -999.25      -999.25     103.9729      19.0000       1.2170
 43805.6937500000 16:39:00/06-Dec-2019     924.5700      -999.25      42.9000      -999.25      -999.25      -999.25      -999.25     105.2829      19.0000       1.2324
 43805.6938657407 16:39:10/06-Dec-2019     924.5700      -999.25      42.9000      -999.25      -999.25      -999.25      -999.25     104.4556      19.0000       1.2227
 43805.6939814815 16:39:20/06-Dec-2019     924.5700      -999.25      42.9000      -999.25      -999.25      -999.25      -999.25     103.3524      19.0000       1.2098
 43805.6940972222 16:39:30/06-Dec-2019     924.5700      -999.25      42.9000      -999.25      -999.25      -999.25      -999.25     104.5245      19.0000       1.2235
 43805.6942129630 16:39:40/06-Dec-2019     924.5700      -999.25      42.9000      -999.25      -999.25      -999.25      -999.25     105.5587      19.0000       1.2356
 43805.6943287037 16:39:50/06-Dec-2019     924.5700      -999.25      42.9000      -999.25      -999.25      -999.25      -999.25     105.2829      19.0000       1.2324
 43805.6944444444 16:40:00/06-Dec-2019     924.5700      -999.25      42.9000      -999.25      -999.25      -999.25      -999.25     106.1793      19.0000       1.2428
 43805.6945601852 16:40:10/06-Dec-2019     924.5700      -999.25      42.9400      -999.25      -999.25      -999.25      -999.25     105.2829      19.0000       1.2324
 43805.6946759259 16:40:20/06-Dec-2019     924.5700      -999.25      42.9900      -999.25      -999.25      -999.25      -999.25     103.4214      19.0000       1.2106
 43805.6947916667 16:40:30/06-Dec-2019     924.5700      -999.25      43.1900      -999.25      -999.25      -999.25      -999.25     103.9729      19.0000       1.2170
 43805.6949074074 16:40:40/06-Dec-2019     924.5700      -999.25      43.2500      -999.25      -999.25      -999.25      -999.25     105.7656      19.0000       1.2380
 43805.6950231481 16:40:50/06-Dec-2019     924.5700      -999.25      43.2500      -999.25      -999.25      -999.25      -999.25     104.6624      19.0000       1.2251
 43805.6951388889 16:41:00/06-Dec-2019     924.5700      -999.25      42.5800      -999.25      -999.25      -999.25      -999.25     105.0072      19.0000       1.2291
 43805.6952546296 16:41:10/06-Dec-2019     924.5700      -999.25      28.6100      -999.25      -999.25      -999.25      -999.25     106.0414      19.0000       1.2412
 43805.6953703704 16:41:20/06-Dec-2019     924.5700      -999.25      16.1300      -999.25      -999.25      -999.25      -999.25     104.9382      19.0000       1.2283
 43805.6954861111 16:41:30/06-Dec-2019     924.5700      -999.25      15.4200      -999.25      -999.25      -999.25      -999.25     103.9040      19.0000       1.2162
 43805.6956018518 16:41:40/06-Dec-2019     924.5700      -999.25      15.4200      -999.25      -999.25      -999.25      -999.25     104.2487      19.0000       1.2203
 43805.6957175926 16:41:50/06-Dec-2019     924.5700      -999.25      15.4200      -999.25      -999.25      -999.25      -999.25     104.8693      19.0000       1.2275
 43805.6958333333 16:42:00/06-Dec-2019     924.5700      -999.25      15.4200      -999.25      -999.25      -999.25      -999.25     104.4556      19.0000       1.2227
 43805.6959490741 16:42:10/06-Dec-2019     924.5700      -999.25      15.4200      -999.25      -999.25      -999.25      -999.25     104.1798      19.0000       1.2194
 43805.6960648148 16:42:20/06-Dec-2019     924.5700      -999.25      15.4200      -999.25      -999.25      -999.25      -999.25     105.4208      19.0000       1.2340
 43805.6961805556 16:42:30/06-Dec-2019     924.5700      -999.25      15.4200      -999.25      -999.25      -999.25      -999.25     105.9035      19.0000       1.2396
 43805.6962962963 16:42:40/06-Dec-2019     924.5700      -999.25      15.4200      -999.25      -999.25      -999.25      -999.25     106.0414      19.0000       1.2412
 43805.6964120370 16:42:50/06-Dec-2019     924.5700      -999.25      15.4200      -999.25      -999.25      -999.25      -999.25     104.9382      19.0000       1.2283
 43805.6965277778 16:43:00/06-Dec-2019     924.5700      -999.25      15.4200      -999.25      -999.25      -999.25      -999.25     103.5593      19.0000       1.2122
 43805.6966435185 16:43:10/06-Dec-2019     924.5700      -999.25      13.9200      -999.25      -999.25      -999.25      -999.25     105.6966      19.0000       1.2372
 43805.6967592593 16:43:20/06-Dec-2019     924.5700      -999.25       7.6600      -999.25      -999.25      -999.25      -999.25     103.8350      19.0000       1.2154
 43805.6968750000 16:43:30/06-Dec-2019     924.5700      -999.25       5.2300      -999.25      -999.25      -999.25      -999.25     103.3524      19.0000       1.2098
 43805.6969907407 16:43:40/06-Dec-2019     924.5700      -999.25       5.1700      -999.25      -999.25      -999.25      -999.25     105.2140      19.0000       1.2315
 43805.6971064815 16:43:50/06-Dec-2019     924.5700      -999.25       4.7000      -999.25      -999.25      -999.25      -999.25     105.9035      19.0000       1.2396
 43805.6972222222 16:44:00/06-Dec-2019     924.5700      -999.25       4.3100      -999.25      -999.25      -999.25      -999.25     104.1108      19.0000       1.2186
 43805.6973379630 16:44:10/06-Dec-2019     924.5700      -999.25       4.1300      -999.25      -999.25      -999.25      -999.25     104.8003      19.0000       1.2267
 43805.6974537037 16:44:20/06-Dec-2019     924.5700      -999.25       4.1100      -999.25      -999.25      -999.25      -999.25     104.9382      19.0000       1.2283
 43805.6975694444 16:44:30/06-Dec-2019     924.5700      -999.25       4.0700      -999.25      -999.25      -999.25      -999.25     104.1798      19.0000       1.2194
 43805.6976851852 16:44:40/06-Dec-2019     924.5700      -999.25       4.0700      -999.25      -999.25      -999.25      -999.25     104.7314      19.0000       1.2259
 43805.6978009259 16:44:50/06-Dec-2019     924.5700      -999.25       4.0700      -999.25      -999.25      -999.25      -999.25     105.9035      19.0000       1.2396
 43805.6979166667 16:45:00/06-Dec-2019     924.5700      -999.25       4.0700      -999.25      -999.25      -999.25      -999.25     105.9724      19.0000       1.2404
 43805.6980324074 16:45:10/06-Dec-2019     924.5700      -999.25       4.0700      -999.25      -999.25      -999.25      -999.25     105.2829      19.0000       1.2324
 43805.6981481481 16:45:20/06-Dec-2019     924.5700      -999.25       4.0700      -999.25      -999.25      -999.25      -999.25     104.1798      19.0000       1.2194
 43805.6982638889 16:45:30/06-Dec-2019     924.5700      -999.25       4.0700      -999.25      -999.25      -999.25      -999.25     105.2140      19.0000       1.2315
 43805.6983796296 16:45:40/06-Dec-2019     924.5700      -999.25       4.0700      -999.25      -999.25      -999.25      -999.25     106.1103      19.0000       1.2420
 43805.6984953704 16:45:50/06-Dec-2019     924.5700      -999.25       4.1000      -999.25      -999.25      -999.25      -999.25     104.5935      19.0000       1.2243
