~VERSION INFORMATION 
VERS  .    2.0                                     :CWLS Log ASCII Standard - VERSION 2.0
WRAP  .    NO                                      :One Line per Time step
PROD  .    Schlumberger Technology Corp.           :LAS Producer
PROG  .    Horizon LASWriter 9.2.113335.3100       :LAS Program name and version
SOURCE.    Run 12-TimeLogicalAcq                   :Run&Pass Information
CREA  .    01/21/2020                              :LAS Creation date {MM/DD/YYYY}
#--------------------------------------------------
~WELL INFORMATION 
#MNEM           .UNIT                      DATA            :DESCRIPTION
#----            ------          --------------            -----------------------------
STRT            .d               43837.2295138889          :START TIME(OLE Automation date)
STOP            .d               43837.6875000000          :STOP TIME(OLE Automation date)
STEP            .d                            0            :STEP TIME(10s in time)
NULL            .                       -999.25            :NULL VALUE
COMP            .                       Equinor            :COMPANY
WELL            .                        31/5-7            :WELL NAME
FLD             .                           Eos            :FIELD NAME
RIGN            .                 West Hercules            :Rig Name
RIGTYP          .                Semi-Submersible          :Rig Type
SON             .                     19SCA0085            :Service Order Number
SRVC            .                  Schlumberger            :SERVICE COMPANY
DATE            .                    01/07/2020            :LOG DATE(Composite Date for Composite LAP) (MM/DD/YYYY)
CLAB            .                       County:            :County Label
CNTY            .                                          :COUNTY
SLAB            .                                          :State/Province Label
STAT            .                                          :STATE or PROVINCE
PROV            .                                          :STATE or PROVINCE
CTRY            .                        Norway            :COUNTRY
CONT_REGION     .                        Europe            :Continent Region
SECT            .                                          :Section
TOWN            .                                          :Township
RANG            .                                          :Range
API             .                                          :API NUMBER
UWI             .                                          :UNIQUE WELL ID
LUL             .                Service Office            :Logging Unit Location
LUN             .                          A615            :Logging Unit Number
LOC             .                Norwegian North Sea       :FIELD LOCATION
FL1             .                Section: 8 1/2 in.        :Field Location Line 1
FL2             .                Job no.: 19SCA0085        :Field Location Line 2
LATI            .deg             60° 34' 35.14" N          :LATITUDE
LONG            .deg             3° 26' 36.13" E           :LONGITUDE
PDAT            .                           MSL            :Local Permanent Datum
LMF             .                            DF            :Logging Measured From
APD             .m                        31.00            :Elevation of Depth Reference (LMF) Above Permanent Datum
EPD             .m                         0.00            :Elevation of Permanent Datum (PDAT) above Mean Sea Level
EKB             .m                      -999.25            :Elevation of Kelly Bushing Above Permanent Datum
EDF             .m                        31.00            :Elevation of Drill Floor Above Permanent Datum
EGL             .m                      -307.00            :Elevation of Ground Level Above Permanent Datum
ECF             .m                      -999.25            :Elevation of Casing Flange above Permanent Datum
#--------------------------------------------------
~CURVE INFORMATION
#MNEM           .UNIT                  API CODE            :DESCRIPTION
#----            ------          --------------            -----------------------------
TIME_1900       .d                                         :                                                        Time Index(OLE Automation date)
TIME            .s                                         :                                (10s)                   Time(hh mm ss/dd-MMM-yyyy)
DEPTH           .m                                         :(RT)    (DnMWorkflow)                                   Depth Index
BLKP            .m                                         :(RT)    (DRILLING_SURFACE)                              Height of block above rig floor
GR              .gAPI                                      :(RT)    (ARC6)                                          Gamma Ray
CRPM            .c/min                                     :(RT)    (TELE675)                                       Collar Rotational Speed
STICK           .c/min                                     :(RT)    (TELE675)                                       Stick Slip Indicator
SHKRSK          .                                          :(RT)    (TELE675)                                       Shock Risk
SHKPK           .gn                                        :(RT)    (TELE675)                                       Shock Peak
DHAT            .degC                                      :(RM)    (ARC6)                                          Downhole Annulus Temperature
DHAP            .bar                                       :(RM)    (ARC6)                                          Downhole Annulus Pressure
ECD             .g/cm3                                     :(RM)    (ARC6)                                          Equivalent Circulating Density
#-------------------------------------------------------------
#       TIME_1900                 TIME        DEPTH         BLKP           GR         CRPM        STICK       SHKRSK        SHKPK         DHAT         DHAP          ECD 
#                                       (DnMWorkfl)  (DRILLING_)       (ARC6)    (TELE675)    (TELE675)    (TELE675)    (TELE675)       (ARC6)       (ARC6)       (ARC6) 
#                                              (RT)         (RT)         (RT)         (RT)         (RT)         (RT)         (RT)         (RM)         (RM)         (RM) 
#                                (10s)                                                                                                                                   
~ASCII
# ...
 43837.5906250000 14:10:30/07-Jan-2020   2541.35010     18.74000      -999.25      -999.25      -999.25      -999.25      -999.25     40.00000    291.71720      1.17463
 43837.5907407407 14:10:40/07-Jan-2020   2539.47998     20.62000      -999.25      -999.25      -999.25      -999.25      -999.25     40.00000    287.51140      1.15855
 43837.5908564815 14:10:50/07-Jan-2020   2537.69019     22.39000      -999.25      -999.25      -999.25      -999.25      -999.25     40.00000    293.02720      1.18160
 43837.5909722222 14:11:00/07-Jan-2020   2536.01001     24.02000      -999.25      -999.25      -999.25      -999.25      -999.25     40.00000    289.92460      1.16986
 43837.5910879630 14:11:10/07-Jan-2020   2534.33008     25.76000      -999.25      -999.25      -999.25      -999.25      -999.25     40.00000    286.82190      1.15812
 43837.5912037037 14:11:20/07-Jan-2020   2532.79980     27.28000      -999.25      -999.25      -999.25      -999.25      -999.25     40.00000    289.30400      1.16885
 43837.5913194444 14:11:30/07-Jan-2020   2531.11987     28.91000      -999.25      -999.25      -999.25      -999.25      -999.25     40.00000    288.06300      1.16460
 43837.5914351852 14:11:40/07-Jan-2020   2529.59009     30.49000      -999.25      -999.25      -999.25      -999.25      -999.25     41.00000    288.33880      1.16643
 43837.5915509259 14:11:50/07-Jan-2020   2527.94995     32.08000      -999.25      -999.25      -999.25      -999.25      -999.25     41.00000    287.71820      1.16467
 43837.5916666667 14:12:00/07-Jan-2020   2526.53003     33.56000      -999.25      -999.25      -999.25      -999.25      -999.25     41.00000    286.68400      1.16115
 43837.5917824074 14:12:10/07-Jan-2020   2524.85010     35.18000      -999.25      -999.25      -999.25      -999.25      -999.25     41.00000    285.64980      1.15773
 43837.5918981481 14:12:20/07-Jan-2020   2523.32007     36.76000      -999.25      -999.25      -999.25      -999.25      -999.25     41.00000    284.75350      1.15480
 43837.5920138889 14:12:30/07-Jan-2020   2521.71021     38.32000      -999.25      -999.25      -999.25      -999.25      -999.25     41.00000    283.65030      1.15106
 43837.5921296296 14:12:40/07-Jan-2020   2520.20996     39.95000      -999.25      -999.25      -999.25      -999.25      -999.25     41.00000    283.78820      1.15233
 43837.5922453704 14:12:50/07-Jan-2020   2518.65991     41.36000      -999.25      -999.25      -999.25      -999.25      -999.25     41.00000    286.68400      1.16478
 43837.5923611111 14:13:00/07-Jan-2020   2517.32007     42.66000      -999.25      -999.25      -999.25      -999.25      -999.25     41.00000    286.89090      1.16623
 43837.5924768519 14:13:10/07-Jan-2020   2517.40991     42.58000      -999.25      -999.25      -999.25      -999.25      -999.25     41.00000    291.37240      1.18441
 43837.5925925926 14:13:20/07-Jan-2020   2517.40991     42.58000      -999.25      -999.25      -999.25      -999.25      -999.25     41.00000    290.20030      1.17965
 43837.5927083333 14:13:30/07-Jan-2020   2517.41992     42.55000      -999.25      -999.25      -999.25      -999.25      -999.25     41.00000    288.95930      1.17459
 43837.5928240741 14:13:40/07-Jan-2020   2517.50977     42.34000      -999.25      -999.25      -999.25      -999.25      -999.25     41.00000    290.54510      1.18100
 43837.5929398148 14:13:50/07-Jan-2020   2517.50977     42.34000      -999.25      -999.25      -999.25      -999.25      -999.25     41.00000    289.57980      1.17708
 43837.5930555556 14:14:00/07-Jan-2020   2517.50977     42.34000      -999.25      -999.25      -999.25      -999.25      -999.25     41.00000    292.88930      1.19053
 43837.5931712963 14:14:10/07-Jan-2020   2517.50977     37.98000      -999.25      -999.25      -999.25      -999.25      -999.25     41.00000    288.26980      1.17175
 43837.5932870370 14:14:20/07-Jan-2020   2517.50977     21.67000      -999.25      -999.25      -999.25      -999.25      -999.25     41.00000    287.71820      1.16951
 43837.5934027778 14:14:30/07-Jan-2020   2517.50977      8.99000      -999.25      -999.25      -999.25      -999.25      -999.25     41.00000    287.02880      1.16671
 43837.5935185185 14:14:40/07-Jan-2020   2517.50977      4.83000      -999.25      -999.25      -999.25      -999.25      -999.25     41.00000    284.27080      1.15550
 43837.5936342593 14:14:50/07-Jan-2020   2517.50977      3.55000      -999.25      -999.25      -999.25      -999.25      -999.25     41.00000    291.64820      1.18549
 43837.5937500000 14:15:00/07-Jan-2020   2517.50977      3.49000      -999.25      -999.25      -999.25      -999.25      -999.25     41.00000    287.44240      1.16839
 43837.5938657407 14:15:10/07-Jan-2020   2517.50977      3.49000      -999.25      -999.25      -999.25      -999.25      -999.25     41.00000    289.30400      1.17596
 43837.5939814815 14:15:20/07-Jan-2020   2516.78003      4.10000      -999.25      -999.25      -999.25      -999.25      -999.25     41.00000    288.54560      1.17323
 43837.5940972222 14:15:30/07-Jan-2020   2515.65015      5.18000      -999.25      -999.25      -999.25      -999.25      -999.25     41.00000    284.27080      1.15636
 43837.5942129630 14:15:40/07-Jan-2020   2514.27002      6.58000      -999.25      -999.25      -999.25      -999.25      -999.25     41.00000    289.92460      1.18001
 43837.5943287037 14:15:50/07-Jan-2020   2513.82007      6.98000      -999.25      -999.25      -999.25      -999.25      -999.25     41.00000    291.71720      1.18751
 43837.5944444444 14:16:00/07-Jan-2020   2512.77002      8.03000      -999.25      -999.25      -999.25      -999.25      -999.25     41.00000    284.06400      1.15688
 43837.5945601852 14:16:10/07-Jan-2020   2510.35986     10.44000      -999.25      -999.25      -999.25      -999.25      -999.25     42.00000    285.64980      1.16443
 43837.5946759259 14:16:20/07-Jan-2020   2508.01001     12.79000      -999.25      -999.25      -999.25      -999.25      -999.25     42.00000    281.78870      1.14980
 43837.5947916667 14:16:30/07-Jan-2020   2505.87988     14.92000      -999.25      -999.25      -999.25      -999.25      -999.25     42.00000    280.82350      1.14681
 43837.5949074074 14:16:40/07-Jan-2020   2503.57983     17.35000      -999.25      -999.25      -999.25      -999.25      -999.25     42.00000    281.85770      1.15210
 43837.5950231481 14:16:50/07-Jan-2020   2501.40015     19.46000      -999.25      -999.25      -999.25      -999.25      -999.25     42.00000    281.37500      1.15113
 43837.5951388889 14:17:00/07-Jan-2020   2499.34009     21.56000      -999.25      -999.25      -999.25      -999.25      -999.25     42.00000    280.75450      1.14955
 43837.5952546296 14:17:10/07-Jan-2020   2497.00000     23.86000      -999.25      -999.25      -999.25      -999.25      -999.25     42.00000    281.16820      1.15232
 43837.5953703704 14:17:20/07-Jan-2020   2495.18994     25.74000      -999.25      -999.25      -999.25      -999.25      -999.25     42.00000    287.37350      1.17862
 43837.5954861111 14:17:30/07-Jan-2020   2493.05005     27.75000      -999.25      -999.25      -999.25      -999.25      -999.25     42.00000    283.51240      1.16377
 43837.5956018518 14:17:40/07-Jan-2020   2491.01001     29.79000      -999.25      -999.25      -999.25      -999.25      -999.25     42.00000    282.54710      1.16078
 43837.5957175926 14:17:50/07-Jan-2020   2489.23999     31.56000      -999.25      -999.25      -999.25      -999.25      -999.25     42.00000    282.82290      1.16272
 43837.5958333333 14:18:00/07-Jan-2020   2487.84985     32.95000      -999.25      -999.25      -999.25      -999.25      -999.25     42.00000    283.23660      1.16509
 43837.5959490741 14:18:10/07-Jan-2020   2486.03003     34.77000      -999.25      -999.25      -999.25      -999.25      -999.25     42.00000    280.13400      1.15316
 43837.5960648148 14:18:20/07-Jan-2020   2484.12012     36.68000      -999.25      -999.25      -999.25      -999.25      -999.25     42.00000    280.75450      1.15662
