~VERSION INFORMATION 
VERS  .    2.0                                     :CWLS Log ASCII Standard - VERSION 2.0
WRAP  .    NO                                      :One Line per Time step
PROD  .    Schlumberger Technology Corp.           :LAS Producer
PROG  .    Horizon LASWriter 9.2.113335.3100       :LAS Program name and version
SOURCE.    Run 2-TimeLogicalAcq                    :Run&Pass Information
CREA  .    12/11/2019                              :LAS Creation date {MM/DD/YYYY}
#--------------------------------------------------
~WELL INFORMATION 
#MNEM           .UNIT                      DATA            :DESCRIPTION
#----            ------          --------------            -----------------------------
STRT            .d               43803.0416666667          :START TIME(OLE Automation date)
STOP            .d               43803.8437500000          :STOP TIME(OLE Automation date)
STEP            .d                            0            :STEP TIME(10s in time)
NULL            .                       -999.25            :NULL VALUE
COMP            .                       Equinor            :COMPANY
WELL            .                        31/5-7            :WELL NAME
FLD             .                           Eos            :FIELD NAME
RIGN            .                 West Hercules            :Rig Name
RIGTYP          .                Semi-Submersible          :Rig Type
SON             .                     19SCA0085            :Service Order Number
SRVC            .                  Schlumberger            :SERVICE COMPANY
DATE            .                    12/04/2019            :LOG DATE(Composite Date for Composite LAP) (MM/DD/YYYY)
CLAB            .                       County:            :County Label
CNTY            .                                          :COUNTY
SLAB            .                                          :State/Province Label
STAT            .                                          :STATE or PROVINCE
PROV            .                                          :STATE or PROVINCE
CTRY            .                        Norway            :COUNTRY
CONT_REGION     .                        Europe            :Continent Region
SECT            .                                          :Section
TOWN            .                                          :Township
RANG            .                                          :Range
API             .                                          :API NUMBER
UWI             .                                          :UNIQUE WELL ID
LUL             .                Service Office            :Logging Unit Location
LUN             .                          A615            :Logging Unit Number
LOC             .                Norwegian North Sea       :FIELD LOCATION
FL1             .                Section: 8 1/2 in. pilot  :Field Location Line 1
FL2             .                Job no.: 19SCA0085        :Field Location Line 2
LATI            .deg             60° 34' 35.14" N          :LATITUDE
LONG            .deg             3° 26' 36.13" E           :LONGITUDE
PDAT            .                           MSL            :Local Permanent Datum
LMF             .                            DF            :Logging Measured From
APD             .m                        31.00            :Elevation of Depth Reference (LMF) Above Permanent Datum
EPD             .m                         0.00            :Elevation of Permanent Datum (PDAT) above Mean Sea Level
EKB             .m                      -999.25            :Elevation of Kelly Bushing Above Permanent Datum
EDF             .m                        31.00            :Elevation of Drill Floor Above Permanent Datum
EGL             .m                      -307.00            :Elevation of Ground Level Above Permanent Datum
ECF             .m                      -999.25            :Elevation of Casing Flange above Permanent Datum
#--------------------------------------------------
~CURVE INFORMATION
#MNEM           .UNIT                  API CODE            :DESCRIPTION
#----            ------          --------------            -----------------------------
TIME_1900       .d                                         :                                                        Time Index(OLE Automation date)
TIME            .s                                         :                                (10s)                   Time(hh mm ss/dd-MMM-yyyy)
DEPTH           .m                                         :(RT)    (DnMWorkflow)                                   Depth Index
GR              .gAPI                                      :(RT)    (DV6MT)                                         Gamma Ray
BLKP            .m                                         :(RT)    (DRILLING_SURFACE)                              Height of block above rig floor
STICK           .c/min                                     :(RT)    (TELE675)                                       Stick Slip Indicator
CRPM            .c/min                                     :(RT)    (TELE675)                                       Collar Rotational Speed
SHKRSK          .                                          :(RT)    (TELE675)                                       Shock Risk
SHKPK           .gn                                        :(RT)    (TELE675)                                       Shock Peak
ECD             .g/cm3                                     :(RM)    (DV6MT)                                         Equivalent Circulating Density
DHAT            .degC                                      :(RM)    (DV6MT)                                         Downhole Annulus Temperature
DHAP            .bar                                       :(RM)    (DV6MT)                                         Downhole Annulus Pressure
#-------------------------------------------------------------
#       TIME_1900                 TIME        DEPTH           GR         BLKP        STICK         CRPM       SHKRSK        SHKPK          ECD         DHAT         DHAP 
#                                       (DnMWorkfl)      (DV6MT)  (DRILLING_)    (TELE675)    (TELE675)    (TELE675)    (TELE675)      (DV6MT)      (DV6MT)      (DV6MT) 
#                                              (RT)         (RT)         (RT)         (RT)         (RT)         (RT)         (RT)         (RM)         (RM)         (RM) 
#                                (10s)                                                                                                                                   
~ASCII
# ...
 43803.2416666667 05:48:00/04-Dec-2019     581.4800      90.8393      31.3000      -999.25      -999.25      -999.25      -999.25       1.1654      13.0000      61.9839
 43803.2417824074 05:48:10/04-Dec-2019     581.4900      91.1154      31.2800      -999.25      -999.25      -999.25      -999.25       1.1585      13.0000      61.6391
 43803.2418981481 05:48:20/04-Dec-2019     581.6800      90.6862      31.0900      -999.25      -999.25      -999.25      -999.25       1.1646      13.0000      61.9839
 43803.2420138889 05:48:30/04-Dec-2019     581.9100      90.8597      30.8700      -999.25      -999.25      -999.25      -999.25       1.1641      13.0000      61.9839
 43803.2421296296 05:48:40/04-Dec-2019     581.9100      91.4090      30.8700      -999.25      -999.25      -999.25      -999.25       1.1535      13.0000      61.4323
 43803.2422453704 05:48:50/04-Dec-2019     582.1900      92.7522      30.5900      -999.25      -999.25       0.0000       0.0000       1.1579      13.0000      61.7081
 43803.2423611111 05:49:00/04-Dec-2019     582.3700      93.4993      30.4100      -999.25      -999.25      -999.25      -999.25       1.1501      13.0000      61.2944
 43803.2424768518 05:49:10/04-Dec-2019     582.2900      93.0042      30.4900      -999.25      -999.25      -999.25      -999.25       1.1633      13.0000      61.9839
 43803.2425925926 05:49:20/04-Dec-2019     582.3800      91.9253      30.4000      -999.25     100.0000      -999.25      -999.25       1.1708      13.0000      62.3976
 43803.2427083333 05:49:30/04-Dec-2019     582.5600      90.1797      30.2800      -999.25      -999.25      -999.25      -999.25       1.1415      13.0000      60.8807
 43803.2428240741 05:49:40/04-Dec-2019     582.0800      89.2242      30.8400      15.0000      -999.25      -999.25      -999.25       1.1560      13.0000      61.5702
 43803.2429398148 05:49:50/04-Dec-2019     580.9200      -999.25      31.8600      -999.25      -999.25      -999.25      -999.25       1.1571      13.0000      61.5012
 43803.2430555556 05:50:00/04-Dec-2019     580.9200      -999.25      31.8600      -999.25      -999.25      -999.25      -999.25       1.1467      13.0000      60.9497
 43803.2431712963 05:50:10/04-Dec-2019     580.9200      -999.25      31.8600      -999.25      -999.25      -999.25      -999.25       1.1571      13.0000      61.5012
 43803.2432870370 05:50:20/04-Dec-2019     580.9200      -999.25      31.8600      -999.25      -999.25      -999.25      -999.25       1.1701      13.0000      62.1907
 43803.2434027778 05:50:30/04-Dec-2019     580.9200      -999.25      31.8600      -999.25      -999.25      -999.25      -999.25       1.0702      13.0000      56.8818
 43803.2435185185 05:50:40/04-Dec-2019     581.3700      -999.25      31.4100      -999.25      -999.25      -999.25      -999.25       1.0745      -999.25      57.1575
 43803.2436342593 05:50:50/04-Dec-2019     581.5500      -999.25      31.2300      -999.25      -999.25      -999.25      -999.25       1.0728      -999.25      57.0886
 43803.2437500000 05:51:00/04-Dec-2019     581.5500      -999.25      31.2300      -999.25      -999.25      -999.25      -999.25       1.0716      -999.25      57.0196
 43803.2438657407 05:51:10/04-Dec-2019     581.5500      -999.25      31.2300      -999.25      -999.25      -999.25      -999.25       1.0754      -999.25      57.2265
 43803.2439814815 05:51:20/04-Dec-2019     581.5500      -999.25      31.2300      -999.25      -999.25      -999.25      -999.25       1.0716      -999.25      57.0196
 43803.2440972222 05:51:30/04-Dec-2019     581.5500      -999.25      31.2300      -999.25      -999.25      -999.25      -999.25       1.0677      -999.25      56.8128
 43803.2442129630 05:51:40/04-Dec-2019     581.5500      -999.25      31.2300      -999.25      -999.25      -999.25      -999.25       1.0703      -999.25      56.9507
 43803.2443287037 05:51:50/04-Dec-2019     581.5500      -999.25      31.2300      -999.25      -999.25      -999.25      -999.25       1.0703      -999.25      56.9507
 43803.2444444444 05:52:00/04-Dec-2019     581.5500      -999.25      31.2300      -999.25      -999.25      -999.25      -999.25       1.0728      -999.25      57.0886
 43803.2445601852 05:52:10/04-Dec-2019     581.5500      -999.25      31.2300      -999.25      -999.25      -999.25      -999.25       1.0716      -999.25      57.0196
 43803.2446759259 05:52:20/04-Dec-2019     581.5500      -999.25      31.2300      -999.25      -999.25      -999.25      -999.25       1.0677      -999.25      56.8128
 43803.2447916667 05:52:30/04-Dec-2019     581.5500      -999.25      31.2300      -999.25      -999.25      -999.25      -999.25       1.0767      -999.25      57.2954
 43803.2449074074 05:52:40/04-Dec-2019     581.5500      -999.25      31.2300      -999.25      -999.25      -999.25      -999.25       1.0703      -999.25      56.9507
 43803.2450231481 05:52:50/04-Dec-2019     581.5500      -999.25      31.2300      -999.25      -999.25      -999.25      -999.25       1.0690      -999.25      56.8818
 43803.2451388889 05:53:00/04-Dec-2019     581.5500      -999.25      31.2300      -999.25      -999.25      -999.25      -999.25       1.0754      -999.25      57.2265
 43803.2452546296 05:53:10/04-Dec-2019     581.5500      -999.25      31.2300      -999.25      -999.25      -999.25      -999.25       1.0780      -999.25      57.3644
 43803.2453703704 05:53:20/04-Dec-2019     581.5500      -999.25      31.2300      -999.25      -999.25      -999.25      -999.25       1.0793      -999.25      57.4333
 43803.2454861111 05:53:30/04-Dec-2019     581.5500      -999.25      31.2300      -999.25      -999.25      -999.25      -999.25       1.0754      -999.25      57.2265
 43803.2456018519 05:53:40/04-Dec-2019     581.5500      -999.25      31.2300      -999.25      -999.25      -999.25      -999.25       1.0741      -999.25      57.1575
 43803.2457175926 05:53:50/04-Dec-2019     581.5500      -999.25      31.2300      -999.25      -999.25      -999.25      -999.25       1.0728      -999.25      57.0886
 43803.2458333333 05:54:00/04-Dec-2019     581.5500      -999.25      31.2300      -999.25      -999.25      -999.25      -999.25       1.0806      -999.25      57.5023
 43803.2459490741 05:54:10/04-Dec-2019     581.5500      -999.25      31.2300      -999.25      -999.25      -999.25      -999.25       1.0806      -999.25      57.5023
 43803.2460648148 05:54:20/04-Dec-2019     581.6400      -999.25      31.1400      -999.25      -999.25      -999.25      -999.25       1.0753      -999.25      57.2265
 43803.2461805556 05:54:30/04-Dec-2019     581.6400      -999.25      31.1400      -999.25      -999.25      -999.25      -999.25       1.0714      -999.25      57.0196
 43803.2462962963 05:54:40/04-Dec-2019     581.6400      -999.25      31.1400      -999.25      -999.25      -999.25      -999.25       1.0727      -999.25      57.0886
 43803.2464120370 05:54:50/04-Dec-2019     581.6400      -999.25      31.1400      -999.25      -999.25      -999.25      -999.25       1.0753      -999.25      57.2265
 43803.2465277778 05:55:00/04-Dec-2019     581.6400      -999.25      31.1400      -999.25      -999.25      -999.25      -999.25       1.0753      -999.25      57.2265
 43803.2466435185 05:55:10/04-Dec-2019     581.6400      -999.25      31.1400      -999.25      -999.25      -999.25      -999.25       1.0753      -999.25      57.2265
 43803.2467592593 05:55:20/04-Dec-2019     581.6400      -999.25      31.1400      -999.25      -999.25      -999.25      -999.25       1.0766      -999.25      57.2954
 43803.2468750000 05:55:30/04-Dec-2019     581.6400      -999.25      31.1400      -999.25      -999.25      -999.25      -999.25       1.0740      -999.25      57.1575
 43803.2469907407 05:55:40/04-Dec-2019     581.6400      -999.25      31.1400      -999.25      -999.25      -999.25      -999.25       1.0779      -999.25      57.3644
 43803.2471064815 05:55:50/04-Dec-2019     581.6400      -999.25      31.1400      -999.25      -999.25      -999.25      -999.25       1.0688      -999.25      56.8818
