~VERSION INFORMATION 
VERS  .    2.0                                     :CWLS Log ASCII Standard - VERSION 2.0
WRAP  .    NO                                      :One Line per Time step
PROD  .    Schlumberger Technology Corp.           :LAS Producer
PROG  .    Horizon LASWriter 9.2.113335.3100       :LAS Program name and version
SOURCE.    Run 10-TimeLogicalAcq                   :Run&Pass Information
CREA  .    01/21/2020                              :LAS Creation date {MM/DD/YYYY}
#--------------------------------------------------
~WELL INFORMATION 
#MNEM           .UNIT                      DATA            :DESCRIPTION
#----            ------          --------------            -----------------------------
STRT            .d               43830.7500000000          :START TIME(OLE Automation date)
STOP            .d               43831.2291666667          :STOP TIME(OLE Automation date)
STEP            .d                            0            :STEP TIME(10s in time)
NULL            .                       -999.25            :NULL VALUE
COMP            .                       Equinor            :COMPANY
WELL            .                        31/5-7            :WELL NAME
FLD             .                           Eos            :FIELD NAME
RIGN            .                 West Hercules            :Rig Name
RIGTYP          .                Semi-Submersible          :Rig Type
SON             .                     19SCA0085            :Service Order Number
SRVC            .                  Schlumberger            :SERVICE COMPANY
DATE            .                    12/31/2019            :LOG DATE(Composite Date for Composite LAP) (MM/DD/YYYY)
CLAB            .                       County:            :County Label
CNTY            .                                          :COUNTY
SLAB            .                                          :State/Province Label
STAT            .                                          :STATE or PROVINCE
PROV            .                                          :STATE or PROVINCE
CTRY            .                        Norway            :COUNTRY
CONT_REGION     .                        Europe            :Continent Region
SECT            .                                          :Section
TOWN            .                                          :Township
RANG            .                                          :Range
API             .                                          :API NUMBER
UWI             .                                          :UNIQUE WELL ID
LUL             .                Service Office            :Logging Unit Location
LUN             .                          A615            :Logging Unit Number
LOC             .                Norwegian North Sea       :FIELD LOCATION
FL1             .                Section: 8 1/2 in.        :Field Location Line 1
FL2             .                Job no.: 19SCA0085        :Field Location Line 2
LATI            .deg             60° 34' 35.14" N          :LATITUDE
LONG            .deg             3° 26' 36.13" E           :LONGITUDE
PDAT            .                           MSL            :Local Permanent Datum
LMF             .                            DF            :Logging Measured From
APD             .m                        31.00            :Elevation of Depth Reference (LMF) Above Permanent Datum
EPD             .m                         0.00            :Elevation of Permanent Datum (PDAT) above Mean Sea Level
EKB             .m                      -999.25            :Elevation of Kelly Bushing Above Permanent Datum
EDF             .m                        31.00            :Elevation of Drill Floor Above Permanent Datum
EGL             .m                      -307.00            :Elevation of Ground Level Above Permanent Datum
ECF             .m                      -999.25            :Elevation of Casing Flange above Permanent Datum
#--------------------------------------------------
~CURVE INFORMATION
#MNEM           .UNIT                  API CODE            :DESCRIPTION
#----            ------          --------------            -----------------------------
TIME_1900       .d                                         :                                                        Time Index(OLE Automation date)
TIME            .s                                         :                                (10s)                   Time(hh mm ss/dd-MMM-yyyy)
DEPTH           .m                                         :(RT)    (DnMWorkflow)                                   Depth Index
BLKP            .m                                         :(RT)    (DRILLING_SURFACE)                              Height of block above rig floor
GR              .gAPI                                      :(RT)    (ARC6)                                          Gamma Ray
CRPM            .c/min                                     :(RT)    (TELE675)                                       Collar Rotational Speed
STICK           .c/min                                     :(RT)    (TELE675)                                       Stick Slip Indicator
SHKRSK          .                                          :(RT)    (TELE675)                                       Shock Risk
SHKPK           .gn                                        :(RT)    (TELE675)                                       Shock Peak
DHAT            .degC                                      :(RM)    (ARC6)                                          Downhole Annulus Temperature
DHAP            .bar                                       :(RM)    (ARC6)                                          Downhole Annulus Pressure
ECD             .g/cm3                                     :(RM)    (ARC6)                                          Equivalent Circulating Density
#-------------------------------------------------------------
#       TIME_1900                 TIME        DEPTH         BLKP           GR         CRPM        STICK       SHKRSK        SHKPK         DHAT         DHAP          ECD 
#                                       (DnMWorkfl)  (DRILLING_)       (ARC6)    (TELE675)    (TELE675)    (TELE675)    (TELE675)       (ARC6)       (ARC6)       (ARC6) 
#                                              (RT)         (RT)         (RT)         (RT)         (RT)         (RT)         (RT)         (RM)         (RM)         (RM) 
#                                (10s)                                                                                                                                   
~ASCII
# ...
 43830.9555555556 22:56:00/31-Dec-2019   2626.42993     14.39000    119.18570      -999.25      -999.25      -999.25      -999.25     43.00000    311.09140      1.21190
 43830.9556712963 22:56:10/31-Dec-2019   2626.44995     14.37000    118.49230      -999.25      -999.25      -999.25      -999.25     43.00000    310.60880      1.21001
 43830.9557870370 22:56:20/31-Dec-2019   2626.48999     14.33000    114.29600    181.00000      -999.25      -999.25      -999.25     43.00000    310.81570      1.21077
 43830.9559027778 22:56:30/31-Dec-2019   2626.51001     14.31000    111.01540      -999.25    240.00000      0.00000      0.00000     43.00000    310.81570      1.21073
 43830.9560185185 22:56:40/31-Dec-2019   2626.44995     14.37000    111.14350      -999.25      -999.25      -999.25      -999.25     43.00000    310.74670      1.21055
 43830.9561342593 22:56:50/31-Dec-2019   2626.38989     14.43000    113.73720      -999.25      -999.25      -999.25      -999.25     43.00000    310.81570      1.21085
 43830.9562500000 22:57:00/31-Dec-2019   2626.63989     14.18000    116.58980      -999.25      -999.25      -999.25      -999.25     43.00000    310.95360      1.21121
 43830.9563657407 22:57:10/31-Dec-2019   2626.85010     13.97000    116.54930    188.00000      -999.25      -999.25      -999.25     43.00000    311.29830      1.21251
 43830.9564814815 22:57:20/31-Dec-2019   2626.88013     13.94000    112.29960      -999.25    138.00000      -999.25      -999.25     43.00000    310.81570      1.21062
 43830.9565972222 22:57:30/31-Dec-2019   2626.73999     14.08000    110.65680      -999.25      -999.25      0.00000      0.00000     43.00000    310.53990      1.20961
 43830.9567129630 22:57:40/31-Dec-2019   2626.68994     14.13000    112.14240      -999.25      -999.25      -999.25      -999.25     43.00000    310.74670      1.21039
 43830.9568287037 22:57:50/31-Dec-2019   2627.02002     13.80000    112.51890      -999.25      -999.25      -999.25      -999.25     43.00000    311.09140      1.21163
 43830.9569444444 22:58:00/31-Dec-2019   2626.85986     13.96000    111.82590      -999.25      -999.25      -999.25      -999.25     43.00000    311.22930      1.21224
 43830.9570601852 22:58:10/31-Dec-2019   2626.86987     13.95000    110.79050    185.00000      -999.25      -999.25      -999.25     43.00000    311.50510      1.21326
 43830.9571759259 22:58:20/31-Dec-2019   2626.90015     13.92000    110.36440      -999.25    117.00000      0.00000      0.00000     43.00000    311.29830      1.21249
 43830.9572916667 22:58:30/31-Dec-2019   2626.93018     13.89000    110.79050      -999.25      -999.25      -999.25      -999.25     43.00000    311.50510      1.21329
 43830.9574074074 22:58:40/31-Dec-2019   2626.90015     13.92000    110.63610      -999.25      -999.25      -999.25      -999.25     43.00000    311.09140      1.21168
 43830.9575231481 22:58:50/31-Dec-2019   2626.93018     13.89000    109.30970      -999.25      -999.25      -999.25      -999.25     43.00000    311.16040      1.21194
 43830.9576388889 22:59:00/31-Dec-2019   2627.05005     13.77000    108.18370    192.00000      -999.25      -999.25      -999.25     43.00000    310.81570      1.21054
 43830.9577546296 22:59:10/31-Dec-2019   2627.05005     13.77000    108.90060      -999.25     63.00000      -999.25      -999.25     43.00000    310.88460      1.21081
 43830.9578703704 22:59:20/31-Dec-2019   2627.07007     13.75000    108.90060      -999.25      -999.25      0.00000      0.00000     43.00000    311.22930      1.21214
 43830.9579861111 22:59:30/31-Dec-2019   2627.08984     13.73000    108.18370      -999.25      -999.25      -999.25      -999.25     43.00000    311.29830      1.21239
 43830.9581018519 22:59:40/31-Dec-2019   2627.12012     13.70000    108.97600      -999.25      -999.25      -999.25      -999.25     43.00000    310.74670      1.21024
 43830.9582175926 22:59:50/31-Dec-2019   2627.13989     13.68000    111.97840      -999.25      -999.25      -999.25      -999.25     43.00000    310.74670      1.21023
 43830.9583333333 23:00:00/31-Dec-2019   2627.16992     13.65000    117.61010    171.00000      -999.25      -999.25      -999.25     43.00000    310.88460      1.21076
 43830.9584490741 23:00:10/31-Dec-2019   2627.20020     13.62000    120.89570      -999.25    201.00000      0.00000      0.00000     43.00000    311.50510      1.21316
 43830.9585648148 23:00:20/31-Dec-2019   2627.12012     13.70000    120.79210      -999.25      -999.25      -999.25      -999.25     43.00000    310.40200      1.20888
 43830.9586805556 23:00:30/31-Dec-2019   2627.34009     13.48000    120.90250      -999.25      -999.25      -999.25      -999.25     43.00000    309.50570      1.20531
 43830.9587962963 23:00:40/31-Dec-2019   2627.29004     13.53000    120.11650      -999.25      -999.25      -999.25      -999.25     43.00000    311.22930      1.21204
 43830.9589120370 23:00:50/31-Dec-2019   2627.30005     13.52000    117.16530    178.00000      -999.25      -999.25      -999.25     43.00000    310.74670      1.21016
 43830.9590277778 23:01:00/31-Dec-2019   2627.42017     13.40000    113.88460      -999.25    252.00000      -999.25      -999.25     43.00000    310.47090      1.20903
 43830.9591435185 23:01:10/31-Dec-2019   2627.34009     13.48000    114.01280      -999.25      -999.25      0.00000      0.00000     43.00000    310.88460      1.21059
 43830.9592592593 23:01:20/31-Dec-2019   2627.65991     13.16000    115.16630      -999.25      -999.25      -999.25      -999.25     43.00000    311.02250      1.21106
 43830.9593750000 23:01:30/31-Dec-2019   2627.70996     13.11000    114.73380      -999.25      -999.25      -999.25      -999.25     43.00000    309.98830      1.20701
 43830.9594907407 23:01:40/31-Dec-2019   2627.55005     13.27000    113.29680      -999.25      -999.25      -999.25      -999.25     43.00000    310.67780      1.20982
 43830.9596064815 23:01:50/31-Dec-2019   2627.57007     13.25000    111.91470    172.00000      -999.25      -999.25      -999.25     43.00000    311.02250      1.21111
 43830.9597222222 23:02:00/31-Dec-2019   2627.52002     13.30000    110.27190      -999.25    243.00000      0.00000      0.00000     43.00000    310.05720      1.20735
 43830.9598379630 23:02:10/31-Dec-2019   2627.73999     13.08000    108.88990      -999.25      -999.25      -999.25      -999.25     43.00000    309.64360      1.20565
 43830.9599537037 23:02:20/31-Dec-2019   2627.60010     13.22000    109.73200      -999.25      -999.25      -999.25      -999.25     43.00000    311.36720      1.21243
 43830.9600694444 23:02:30/31-Dec-2019   2627.65991     13.16000    110.74120      -999.25      -999.25      -999.25      -999.25     43.00000    311.22930      1.21187
 43830.9601851852 23:02:40/31-Dec-2019   2627.68994     13.04000    110.79050    177.00000      -999.25      -999.25      -999.25     43.00000    310.40200      1.20859
 43830.9603009259 23:02:50/31-Dec-2019   2627.70020     13.13000    110.36440      -999.25    321.00000      0.00000      0.00000     43.00000    310.88460      1.21051
 43830.9604166667 23:03:00/31-Dec-2019   2627.72998     13.09000    110.79050      -999.25      -999.25      -999.25      -999.25     43.00000    310.88460      1.21049
 43830.9605324074 23:03:10/31-Dec-2019   2627.74976     13.07000    112.31610      -999.25      -999.25      -999.25      -999.25     43.00000    311.22930      1.21183
 43830.9606481481 23:03:20/31-Dec-2019   2627.77002     13.05000    114.73350      -999.25      -999.25      -999.25      -999.25     43.00000    310.53990      1.20913
 43830.9607638889 23:03:30/31-Dec-2019   2627.81006     13.01000    116.13430      -999.25      -999.25      -999.25      -999.25     43.00000    310.88460      1.21042
 43830.9608796296 23:03:40/31-Dec-2019   2627.92017     12.90000    114.75230    173.00000      -999.25      -999.25      -999.25     43.00000    310.81570      1.21010
 43830.9609953704 23:03:50/31-Dec-2019   2627.92993     12.89000    113.10950      -999.25    171.00000      0.00000      0.00000     43.00000    310.26410      1.20798
