~VERSION INFORMATION 
VERS  .    2.0                                     :CWLS Log ASCII Standard - VERSION 2.0
WRAP  .    NO                                      :One Line per Time step
PROD  .    Schlumberger Technology Corp.           :LAS Producer
PROG  .    Horizon LASWriter 9.2.113335.3100       :LAS Program name and version
SOURCE.    Run 9-TimeLogicalAcq                    :Run&Pass Information
CREA  .    01/21/2020                              :LAS Creation date {MM/DD/YYYY}
#--------------------------------------------------
~WELL INFORMATION 
#MNEM           .UNIT                      DATA            :DESCRIPTION
#----            ------          --------------            -----------------------------
STRT            .d               43828.3333333334          :START TIME(OLE Automation date)
STOP            .d               43829.1041666667          :STOP TIME(OLE Automation date)
STEP            .d                            0            :STEP TIME(10s in time)
NULL            .                       -999.25            :NULL VALUE
COMP            .                       Equinor            :COMPANY
WELL            .                        31/5-7            :WELL NAME
FLD             .                           Eos            :FIELD NAME
RIGN            .                 West Hercules            :Rig Name
RIGTYP          .                Semi-Submersible          :Rig Type
SON             .                     19SCA0085            :Service Order Number
SRVC            .                  Schlumberger            :SERVICE COMPANY
DATE            .                    12/29/2019            :LOG DATE(Composite Date for Composite LAP) (MM/DD/YYYY)
CLAB            .                       County:            :County Label
CNTY            .                                          :COUNTY
SLAB            .                                          :State/Province Label
STAT            .                                          :STATE or PROVINCE
PROV            .                                          :STATE or PROVINCE
CTRY            .                        Norway            :COUNTRY
CONT_REGION     .                        Europe            :Continent Region
SECT            .                                          :Section
TOWN            .                                          :Township
RANG            .                                          :Range
API             .                                          :API NUMBER
UWI             .                                          :UNIQUE WELL ID
LUL             .                Service Office            :Logging Unit Location
LUN             .                          A615            :Logging Unit Number
LOC             .                Norwegian North Sea       :FIELD LOCATION
FL1             .                Section: 8 1/2 in.        :Field Location Line 1
FL2             .                Job no.: 19SCA0085        :Field Location Line 2
LATI            .deg             60° 34' 35.14" N          :LATITUDE
LONG            .deg             3° 26' 36.13" E           :LONGITUDE
PDAT            .                           MSL            :Local Permanent Datum
LMF             .                            DF            :Logging Measured From
APD             .m                        31.00            :Elevation of Depth Reference (LMF) Above Permanent Datum
EPD             .m                         0.00            :Elevation of Permanent Datum (PDAT) above Mean Sea Level
EKB             .m                      -999.25            :Elevation of Kelly Bushing Above Permanent Datum
EDF             .m                        31.00            :Elevation of Drill Floor Above Permanent Datum
EGL             .m                      -307.00            :Elevation of Ground Level Above Permanent Datum
ECF             .m                      -999.25            :Elevation of Casing Flange above Permanent Datum
#--------------------------------------------------
~CURVE INFORMATION
#MNEM           .UNIT                  API CODE            :DESCRIPTION
#----            ------          --------------            -----------------------------
TIME_1900       .d                                         :                                                        Time Index(OLE Automation date)
TIME            .s                                         :                                (10s)                   Time(hh mm ss/dd-MMM-yyyy)
DEPTH           .m                                         :(RT)    (DnMWorkflow)                                   Depth Index
BLKP            .m                                         :(RT)    (DRILLING_SURFACE)                              Height of block above rig floor
GR              .gAPI                                      :(RT)    (ARC6)                                          Gamma Ray
CRPM            .c/min                                     :(RT)    (TELE675)                                       Collar Rotational Speed
STICK           .c/min                                     :(RT)    (TELE675)                                       Stick Slip Indicator
SHKRSK          .                                          :(RT)    (TELE675)                                       Shock Risk
SHKPK           .gn                                        :(RT)    (TELE675)                                       Shock Peak
DHAT            .degC                                      :(RM)    (ARC6)                                          Downhole Annulus Temperature
DHAP            .bar                                       :(RM)    (ARC6)                                          Downhole Annulus Pressure
ECD             .g/cm3                                     :(RM)    (ARC6)                                          Equivalent Circulating Density
#-------------------------------------------------------------
#       TIME_1900                 TIME        DEPTH         BLKP           GR         CRPM        STICK       SHKRSK        SHKPK         DHAT         DHAP          ECD 
#                                       (DnMWorkfl)  (DRILLING_)       (ARC6)    (TELE675)    (TELE675)    (TELE675)    (TELE675)       (ARC6)       (ARC6)       (ARC6) 
#                                              (RT)         (RT)         (RT)         (RT)         (RT)         (RT)         (RT)         (RM)         (RM)         (RM) 
#                                (10s)                                                                                                                                   
~ASCII
# ...
 43828.4666666667 11:12:00/29-Dec-2019   2496.00000     25.45000      -999.25      -999.25      -999.25      -999.25      -999.25     56.00000    315.91780      1.29518
 43828.4667824074 11:12:10/29-Dec-2019   2496.28003     25.17000      -999.25      -999.25      -999.25      -999.25      -999.25     56.00000    317.50360      1.30158
 43828.4668981481 11:12:20/29-Dec-2019   2496.46997     24.98000      -999.25      -999.25      -999.25      -999.25      -999.25     56.00000    318.05520      1.30374
 43828.4670138889 11:12:30/29-Dec-2019   2496.10010     25.35000      -999.25      -999.25      -999.25      -999.25      -999.25     56.00000    315.71090      1.29433
 43828.4671296296 11:12:40/29-Dec-2019   2496.18994     25.26000      -999.25      -999.25      -999.25      -999.25      -999.25     56.00000    317.02090      1.29960
 43828.4672453704 11:12:50/29-Dec-2019   2496.46997     24.98000      -999.25      -999.25      -999.25      -999.25      -999.25     56.00000    317.36570      1.30092
 43828.4673611111 11:13:00/29-Dec-2019   2496.18994     25.26000      -999.25      -999.25      -999.25      -999.25      -999.25     56.00000    316.95200      1.29937
 43828.4674768519 11:13:10/29-Dec-2019   2496.18994     25.26000      -999.25      -999.25      -999.25      -999.25      -999.25     56.00000    317.08990      1.29993
 43828.4675925926 11:13:20/29-Dec-2019   2496.28003     25.17000      -999.25      -999.25      -999.25      -999.25      -999.25     56.00000    317.71040      1.30243
 43828.4677083333 11:13:30/29-Dec-2019   2496.28003     25.17000      -999.25      -999.25      -999.25      -999.25      -999.25     55.00000    319.36520      1.30921
 43828.4678240741 11:13:40/29-Dec-2019   2496.10010     25.35000      -999.25      -999.25      -999.25      -999.25      -999.25     55.00000    318.53780      1.30592
 43828.4679398148 11:13:50/29-Dec-2019   2496.28003     25.17000      -999.25      -999.25      -999.25      -999.25      -999.25     55.00000    318.60670      1.30610
 43828.4680555556 11:14:00/29-Dec-2019   2496.28003     25.17000      -999.25      -999.25      -999.25      -999.25      -999.25     55.00000    319.15830      1.30837
 43828.4681712963 11:14:10/29-Dec-2019   2496.28003     25.17000      -999.25      -999.25      -999.25      -999.25      -999.25     55.00000    319.08940      1.30808
 43828.4682870370 11:14:20/29-Dec-2019   2496.28003     25.17000      -999.25      -999.25      -999.25      -999.25      -999.25     55.00000    319.64100      1.31034
 43828.4684027778 11:14:30/29-Dec-2019   2496.10010     25.26000      -999.25      -999.25      -999.25      -999.25      -999.25     55.00000    319.64100      1.31039
 43828.4685185185 11:14:40/29-Dec-2019   2496.18994     25.26000      -999.25      -999.25      -999.25      -999.25      -999.25     55.00000    318.53780      1.30582
 43828.4686342593 11:14:50/29-Dec-2019   2496.18994     25.26000      -999.25      -999.25      -999.25      -999.25      -999.25     55.00000    318.95150      1.30761
 43828.4687500000 11:15:00/29-Dec-2019   2496.18994     25.26000      -999.25      -999.25      -999.25      -999.25      -999.25     55.00000    320.81310      1.31520
 43828.4688657407 11:15:10/29-Dec-2019   2496.00000     25.45000      -999.25      -999.25      -999.25      -999.25      -999.25     55.00000    319.43410      1.30964
 43828.4689814815 11:15:20/29-Dec-2019   2496.28003     25.17000      -999.25      -999.25      -999.25      -999.25      -999.25     55.00000    318.53780      1.30582
 43828.4690972222 11:15:30/29-Dec-2019   2496.28003     25.17000      -999.25      -999.25      -999.25      -999.25      -999.25     55.00000    320.26150      1.31289
 43828.4692129630 11:15:40/29-Dec-2019   2496.18994     25.26000      -999.25      -999.25      -999.25      -999.25      -999.25     55.00000    318.26200      1.30474
 43828.4693287037 11:15:50/29-Dec-2019   2496.28003     25.17000      -999.25      -999.25      -999.25      -999.25      -999.25     55.00000    319.91670      1.31147
 43828.4694444444 11:16:00/29-Dec-2019   2496.10010     25.35000      -999.25      -999.25      -999.25      -999.25      -999.25     55.00000    320.19250      1.31275
 43828.4695601852 11:16:10/29-Dec-2019   2496.00000     25.45000      -999.25      -999.25      -999.25      -999.25      -999.25     55.00000    322.26100      1.32123
 43828.4696759259 11:16:20/29-Dec-2019   2496.00000     25.45000      -999.25      -999.25      -999.25      -999.25      -999.25     55.00000    321.98520      1.32010
 43828.4697916667 11:16:30/29-Dec-2019   2495.90991     25.54000      -999.25      -999.25      -999.25      -999.25      -999.25     55.00000    322.88150      1.32378
 43828.4699074074 11:16:40/29-Dec-2019   2495.82007     25.63000      -999.25      -999.25      -999.25      -999.25      -999.25     55.00000    320.81310      1.31539
 43828.4700231481 11:16:50/29-Dec-2019   2496.10010     25.35000      -999.25      -999.25      -999.25      -999.25      -999.25     55.00000    321.36460      1.31746
 43828.4701388889 11:17:00/29-Dec-2019   2496.10010     25.35000      -999.25      -999.25      -999.25      -999.25      -999.25     55.00000    322.26100      1.32114
 43828.4702546296 11:17:10/29-Dec-2019   2495.90991     25.54000      -999.25      -999.25      -999.25      -999.25      -999.25     55.00000    321.77830      1.31930
 43828.4703703704 11:17:20/29-Dec-2019   2496.00000     25.45000      -999.25      -999.25      -999.25      -999.25      -999.25     55.00000    321.64040      1.31874
 43828.4704861111 11:17:30/29-Dec-2019   2496.00000     25.45000      -999.25      -999.25      -999.25      -999.25      -999.25     55.00000    324.32940      1.32971
 43828.4706018518 11:17:40/29-Dec-2019   2496.18994     25.45000      -999.25      -999.25      -999.25      -999.25      -999.25     55.00000    322.74360      1.32321
 43828.4707175926 11:17:50/29-Dec-2019   2495.90991     25.54000      -999.25      -999.25      -999.25      -999.25      -999.25     55.00000    321.01990      1.31619
 43828.4708333333 11:18:00/29-Dec-2019   2496.10010     25.35000      -999.25      -999.25      -999.25      -999.25      -999.25     55.00000    321.22670      1.31694
 43828.4709490741 11:18:10/29-Dec-2019   2496.10010     25.35000      -999.25      -999.25      -999.25      -999.25      -999.25     55.00000    322.19200      1.32090
 43828.4710648148 11:18:20/29-Dec-2019   2496.10010     25.35000      -999.25      -999.25      -999.25      -999.25      -999.25     55.00000    318.60670      1.30620
 43828.4711805556 11:18:30/29-Dec-2019   2496.00000     25.45000      -999.25      -999.25      -999.25      -999.25      -999.25     54.00000    321.70940      1.31887
 43828.4712962963 11:18:40/29-Dec-2019   2496.10010     25.35000      -999.25      -999.25      -999.25      -999.25      -999.25     54.00000    322.95040      1.32401
 43828.4714120370 11:18:50/29-Dec-2019   2496.10010     25.35000      -999.25      -999.25      -999.25      -999.25      -999.25     54.00000    320.74410      1.31496
 43828.4715277778 11:19:00/29-Dec-2019   2495.82007     25.63000      -999.25      -999.25      -999.25      -999.25      -999.25     54.00000    322.32990      1.32161
 43828.4716435185 11:19:10/29-Dec-2019   2495.82007     25.63000      -999.25      -999.25      -999.25      -999.25      -999.25     54.00000    320.39940      1.31369
 43828.4717592593 11:19:20/29-Dec-2019   2496.00000     25.45000      -999.25      -999.25      -999.25      -999.25      -999.25     54.00000    323.63990      1.32689
 43828.4718750000 11:19:30/29-Dec-2019   2495.79004     25.68000      -999.25      -999.25      -999.25      -999.25      -999.25     54.00000    324.67410      1.33127
 43828.4719907407 11:19:40/29-Dec-2019   2494.22998     27.22000      -999.25      -999.25      -999.25      -999.25      -999.25     53.00000    320.81310      1.31619
 43828.4721064815 11:19:50/29-Dec-2019   2493.52002     27.93000      0.00000      -999.25      -999.25      3.00000    503.65823     53.00000    321.70940      1.32033
