~VERSION INFORMATION 
VERS  .    2.0                                     :CWLS Log ASCII Standard - VERSION 2.0
WRAP  .    NO                                      :One Line per Time step
PROD  .    Schlumberger Technology Corp.           :LAS Producer
PROG  .    Horizon LASWriter 9.2.113335.3100       :LAS Program name and version
SOURCE.    Run 12-TimeLogicalAcq                   :Run&Pass Information
CREA  .    01/21/2020                              :LAS Creation date {MM/DD/YYYY}
#--------------------------------------------------
~WELL INFORMATION 
#MNEM           .UNIT                      DATA            :DESCRIPTION
#----            ------          --------------            -----------------------------
STRT            .d               43837.2295138889          :START TIME(OLE Automation date)
STOP            .d               43837.6875000000          :STOP TIME(OLE Automation date)
STEP            .d                            0            :STEP TIME(10s in time)
NULL            .                       -999.25            :NULL VALUE
COMP            .                       Equinor            :COMPANY
WELL            .                        31/5-7            :WELL NAME
FLD             .                           Eos            :FIELD NAME
RIGN            .                 West Hercules            :Rig Name
RIGTYP          .                Semi-Submersible          :Rig Type
SON             .                     19SCA0085            :Service Order Number
SRVC            .                  Schlumberger            :SERVICE COMPANY
DATE            .                    01/07/2020            :LOG DATE(Composite Date for Composite LAP) (MM/DD/YYYY)
CLAB            .                       County:            :County Label
CNTY            .                                          :COUNTY
SLAB            .                                          :State/Province Label
STAT            .                                          :STATE or PROVINCE
PROV            .                                          :STATE or PROVINCE
CTRY            .                        Norway            :COUNTRY
CONT_REGION     .                        Europe            :Continent Region
SECT            .                                          :Section
TOWN            .                                          :Township
RANG            .                                          :Range
API             .                                          :API NUMBER
UWI             .                                          :UNIQUE WELL ID
LUL             .                Service Office            :Logging Unit Location
LUN             .                          A615            :Logging Unit Number
LOC             .                Norwegian North Sea       :FIELD LOCATION
FL1             .                Section: 8 1/2 in.        :Field Location Line 1
FL2             .                Job no.: 19SCA0085        :Field Location Line 2
LATI            .deg             60° 34' 35.14" N          :LATITUDE
LONG            .deg             3° 26' 36.13" E           :LONGITUDE
PDAT            .                           MSL            :Local Permanent Datum
LMF             .                            DF            :Logging Measured From
APD             .m                        31.00            :Elevation of Depth Reference (LMF) Above Permanent Datum
EPD             .m                         0.00            :Elevation of Permanent Datum (PDAT) above Mean Sea Level
EKB             .m                      -999.25            :Elevation of Kelly Bushing Above Permanent Datum
EDF             .m                        31.00            :Elevation of Drill Floor Above Permanent Datum
EGL             .m                      -307.00            :Elevation of Ground Level Above Permanent Datum
ECF             .m                      -999.25            :Elevation of Casing Flange above Permanent Datum
#--------------------------------------------------
~CURVE INFORMATION
#MNEM           .UNIT                  API CODE            :DESCRIPTION
#----            ------          --------------            -----------------------------
TIME_1900       .d                                         :                                                        Time Index(OLE Automation date)
TIME            .s                                         :                                (10s)                   Time(hh mm ss/dd-MMM-yyyy)
DEPTH           .m                                         :(RT)    (DnMWorkflow)                                   Depth Index
BLKP            .m                                         :(RT)    (DRILLING_SURFACE)                              Height of block above rig floor
GR              .gAPI                                      :(RT)    (ARC6)                                          Gamma Ray
CRPM            .c/min                                     :(RT)    (TELE675)                                       Collar Rotational Speed
STICK           .c/min                                     :(RT)    (TELE675)                                       Stick Slip Indicator
SHKRSK          .                                          :(RT)    (TELE675)                                       Shock Risk
SHKPK           .gn                                        :(RT)    (TELE675)                                       Shock Peak
DHAT            .degC                                      :(RM)    (ARC6)                                          Downhole Annulus Temperature
DHAP            .bar                                       :(RM)    (ARC6)                                          Downhole Annulus Pressure
ECD             .g/cm3                                     :(RM)    (ARC6)                                          Equivalent Circulating Density
#-------------------------------------------------------------
#       TIME_1900                 TIME        DEPTH         BLKP           GR         CRPM        STICK       SHKRSK        SHKPK         DHAT         DHAP          ECD 
#                                       (DnMWorkfl)  (DRILLING_)       (ARC6)    (TELE675)    (TELE675)    (TELE675)    (TELE675)       (ARC6)       (ARC6)       (ARC6) 
#                                              (RT)         (RT)         (RT)         (RT)         (RT)         (RT)         (RT)         (RM)         (RM)         (RM) 
#                                (10s)                                                                                                                                   
~ASCII
# ...
 43837.6572916667 15:46:30/07-Jan-2020   1385.58008     42.23000      -999.25      -999.25      -999.25      -999.25      -999.25     42.00000    161.95790      1.19959
 43837.6574074074 15:46:40/07-Jan-2020   1385.58008     41.97000      -999.25      -999.25      -999.25      -999.25      -999.25     42.00000    161.26840      1.19448
 43837.6575231481 15:46:50/07-Jan-2020   1385.58008     27.65000      -999.25      -999.25      -999.25      -999.25      -999.25     41.00000    160.64780      1.18988
 43837.6576388889 15:47:00/07-Jan-2020   1385.58008     12.18000      -999.25      -999.25      -999.25      -999.25      -999.25     41.00000    161.06150      1.19295
 43837.6577546296 15:47:10/07-Jan-2020   1385.58008      8.58000      -999.25      -999.25      -999.25      -999.25      -999.25     41.00000    160.37210      1.18784
 43837.6578703704 15:47:20/07-Jan-2020   1385.58008      6.21000      -999.25      -999.25      -999.25      -999.25      -999.25     41.00000    159.95840      1.18478
 43837.6579861111 15:47:30/07-Jan-2020   1385.58008      3.47000      -999.25      -999.25      -999.25      -999.25      -999.25     41.00000    159.68260      1.18273
 43837.6581018518 15:47:40/07-Jan-2020   1384.37000      4.67000      -999.25      -999.25      -999.25      -999.25      -999.25     41.00000    159.06210      1.17906
 43837.6582175926 15:47:50/07-Jan-2020   1370.31995     18.72000      -999.25      -999.25      -999.25      -999.25      -999.25     41.00000    156.92470      1.17505
 43837.6583333333 15:48:00/07-Jan-2020   1354.63000     34.41000      -999.25      -999.25      -999.25      -999.25      -999.25     41.00000    156.02840      1.18220
 43837.6584490741 15:48:10/07-Jan-2020   1347.37000     41.66999      -999.25      -999.25      -999.25      -999.25      -999.25     41.00000    156.78680      1.19442
 43837.6585648148 15:48:20/07-Jan-2020   1346.55005     42.49000      -999.25      -999.25      -999.25      -999.25      -999.25     41.00000    156.71780      1.19464
 43837.6586805556 15:48:30/07-Jan-2020   1346.79004     42.25000      -999.25      -999.25      -999.25      -999.25      -999.25     41.00000    155.47680      1.18497
 43837.6587962963 15:48:40/07-Jan-2020   1346.55994     42.48000      -999.25      -999.25      -999.25      -999.25      -999.25     41.00000    157.26940      1.19884
 43837.6589120370 15:48:50/07-Jan-2020   1346.63000     42.41000      -999.25      -999.25      -999.25      -999.25      -999.25     41.00000    155.61470      1.18617
 43837.6590277778 15:49:00/07-Jan-2020   1346.66992     42.26000      -999.25      -999.25      -999.25      -999.25      -999.25     41.00000    155.13200      1.18245
 43837.6591435185 15:49:10/07-Jan-2020   1346.66992     41.42000      -999.25      -999.25      -999.25      -999.25      -999.25     41.00000    155.95940      1.18875
 43837.6592592593 15:49:20/07-Jan-2020   1346.66992     26.81000      -999.25      -999.25      -999.25      -999.25      -999.25     41.00000    155.33890      1.18402
 43837.6593750000 15:49:30/07-Jan-2020   1346.66992     11.46000      -999.25      -999.25      -999.25      -999.25      -999.25     41.00000    155.47680      1.18508
 43837.6594907407 15:49:40/07-Jan-2020   1346.66992      8.61000      -999.25      -999.25      -999.25      -999.25      -999.25     41.00000    155.13200      1.18245
 43837.6596064815 15:49:50/07-Jan-2020   1346.66992      8.61000      -999.25      -999.25      -999.25      -999.25      -999.25     41.00000    155.40780      1.18455
 43837.6597222222 15:50:00/07-Jan-2020   1346.66992      3.49000      -999.25      -999.25      -999.25      -999.25      -999.25     41.00000    155.68360      1.18665
 43837.6598379630 15:50:10/07-Jan-2020   1346.66992      3.51000      -999.25      -999.25      -999.25      -999.25      -999.25     41.00000    156.64890      1.19401
 43837.6599537037 15:50:20/07-Jan-2020   1338.76001     11.12000      -999.25      -999.25      -999.25      -999.25      -999.25     41.00000    153.68410      1.17817
 43837.6600694444 15:50:30/07-Jan-2020   1323.48999     26.39000      -999.25      -999.25      -999.25      -999.25      -999.25     41.00000    151.96040      1.17866
 43837.6601851852 15:50:40/07-Jan-2020   1309.25000     40.63000      -999.25      -999.25      -999.25      -999.25      -999.25     41.00000    152.09830      1.19263
 43837.6603009259 15:50:50/07-Jan-2020   1307.39001     42.49000      -999.25      -999.25      -999.25      -999.25      -999.25     41.00000    151.75360      1.19167
 43837.6604166667 15:51:00/07-Jan-2020   1307.38013     42.50000      -999.25      -999.25      -999.25      -999.25      -999.25     41.00000    151.47780      1.18953
 43837.6605324074 15:51:10/07-Jan-2020   1307.56995     42.31001      -999.25      -999.25      -999.25      -999.25      -999.25     41.00000    152.16730      1.19477
 43837.6606481481 15:51:20/07-Jan-2020   1307.56995     38.60000      -999.25      -999.25      -999.25      -999.25      -999.25     41.00000    153.61520      1.20614
 43837.6607638889 15:51:30/07-Jan-2020   1307.56995     22.50000      -999.25      -999.25      -999.25      -999.25      -999.25     41.00000    151.89150      1.19260
 43837.6608796296 15:51:40/07-Jan-2020   1307.56995      9.39000      -999.25      -999.25      -999.25      -999.25      -999.25     41.00000    153.61520      1.20614
 43837.6609953704 15:51:50/07-Jan-2020   1307.56995      8.81000      -999.25      -999.25      -999.25      -999.25      -999.25     41.00000    153.68410      1.20668
 43837.6611111111 15:52:00/07-Jan-2020   1307.56995      6.01000      -999.25      -999.25      -999.25      -999.25      -999.25     41.00000    153.40830      1.20451
 43837.6612268519 15:52:10/07-Jan-2020   1307.56995      3.46000      -999.25      -999.25      -999.25      -999.25      -999.25     41.00000    152.02940      1.19369
 43837.6613425926 15:52:20/07-Jan-2020   1304.42004      6.64000      -999.25      -999.25      -999.25      -999.25      -999.25     41.00000    150.58150      1.18502
 43837.6614583333 15:52:30/07-Jan-2020   1290.62000     20.44000      -999.25      -999.25      -999.25      -999.25      -999.25     41.00000    148.58200      1.18193
 43837.6615740741 15:52:40/07-Jan-2020   1273.39990     37.66000      -999.25      -999.25      -999.25      -999.25      -999.25     41.00000    147.54780      1.18964
 43837.6616898148 15:52:50/07-Jan-2020   1269.15991     41.90000      -999.25      -999.25      -999.25      -999.25      -999.25     41.00000    147.68570      1.19491
 43837.6618055556 15:53:00/07-Jan-2020   1268.57007     42.49000      -999.25      -999.25      -999.25      -999.25      -999.25     40.00000    147.82360      1.19660
 43837.6619212963 15:53:10/07-Jan-2020   1268.79993     42.26000      -999.25      -999.25      -999.25      -999.25      -999.25     40.00000    148.99570      1.20587
 43837.6620370370 15:53:20/07-Jan-2020   1268.79993     42.12000      -999.25      -999.25      -999.25      -999.25      -999.25     40.00000    149.40940      1.20921
 43837.6621527778 15:53:30/07-Jan-2020   1268.79993     30.88000      -999.25      -999.25      -999.25      -999.25      -999.25     40.00000    148.37520      1.20084
 43837.6622685185 15:53:40/07-Jan-2020   1268.79993     13.89000      -999.25      -999.25      -999.25      -999.25      -999.25     40.00000    147.61680      1.19470
 43837.6623842593 15:53:50/07-Jan-2020   1268.79993      8.69000      -999.25      -999.25      -999.25      -999.25      -999.25     40.00000    148.51310      1.20196
 43837.6625000000 15:54:00/07-Jan-2020   1268.79993      8.69000      -999.25      -999.25      -999.25      -999.25      -999.25     40.00000    149.34040      1.20866
 43837.6626157407 15:54:10/07-Jan-2020   1268.79993      8.69000      -999.25      -999.25      -999.25      -999.25      -999.25     40.00000    148.92680      1.20531
 43837.6627314815 15:54:20/07-Jan-2020   1268.79993      6.23000      -999.25      -999.25      -999.25      -999.25      -999.25     40.00000    149.34040      1.20866
