~VERSION INFORMATION 
VERS  .    2.0                                     :CWLS Log ASCII Standard - VERSION 2.0
WRAP  .    NO                                      :One Line per Time step
PROD  .    Schlumberger Technology Corp.           :LAS Producer
PROG  .    Horizon LASWriter 9.2.113335.3100       :LAS Program name and version
SOURCE.    Run 7-TimeLogicalAcq                    :Run&Pass Information
CREA  .    12/27/2019                              :LAS Creation date {MM/DD/YYYY}
#--------------------------------------------------
~WELL INFORMATION 
#MNEM           .UNIT                      DATA            :DESCRIPTION
#----            ------          --------------            -----------------------------
STRT            .d               43818.4166666667          :START TIME(OLE Automation date)
STOP            .d               43819.7083333333          :STOP TIME(OLE Automation date)
STEP            .d                            0            :STEP TIME(10s in time)
NULL            .                       -999.25            :NULL VALUE
COMP            .                       Equinor            :COMPANY
WELL            .                        31/5-7            :WELL NAME
FLD             .                           Eos            :FIELD NAME
RIGN            .                 West Hercules            :Rig Name
RIGTYP          .                Semi-Submersible          :Rig Type
SON             .                     19SCA0085            :Service Order Number
SRVC            .                  Schlumberger            :SERVICE COMPANY
DATE            .                    12/19/2019            :LOG DATE(Composite Date for Composite LAP) (MM/DD/YYYY)
CLAB            .                       County:            :County Label
CNTY            .                                          :COUNTY
SLAB            .                                          :State/Province Label
STAT            .                                          :STATE or PROVINCE
PROV            .                                          :STATE or PROVINCE
CTRY            .                        Norway            :COUNTRY
CONT_REGION     .                        Europe            :Continent Region
SECT            .                                          :Section
TOWN            .                                          :Township
RANG            .                                          :Range
API             .                                          :API NUMBER
UWI             .                                          :UNIQUE WELL ID
LUL             .                Service Office            :Logging Unit Location
LUN             .                          A615            :Logging Unit Number
LOC             .                Norwegian North Sea       :FIELD LOCATION
FL1             .                Section: 12 1/4 x 17 1/5 in.:Field Location Line 1
FL2             .                Job no.: 19SCA0085        :Field Location Line 2
LATI            .deg             60° 34' 35.14" N          :LATITUDE
LONG            .deg             3° 26' 36.13" E           :LONGITUDE
PDAT            .                           MSL            :Local Permanent Datum
LMF             .                            DF            :Logging Measured From
APD             .m                        31.00            :Elevation of Depth Reference (LMF) Above Permanent Datum
EPD             .m                         0.00            :Elevation of Permanent Datum (PDAT) above Mean Sea Level
EKB             .m                      -999.25            :Elevation of Kelly Bushing Above Permanent Datum
EDF             .m                        31.00            :Elevation of Drill Floor Above Permanent Datum
EGL             .m                      -307.00            :Elevation of Ground Level Above Permanent Datum
ECF             .m                      -999.25            :Elevation of Casing Flange above Permanent Datum
#--------------------------------------------------
~CURVE INFORMATION
#MNEM           .UNIT                  API CODE            :DESCRIPTION
#----            ------          --------------            -----------------------------
TIME_1900       .d                                         :                                                        Time Index(OLE Automation date)
TIME            .s                                         :                                (10s)                   Time(hh mm ss/dd-MMM-yyyy)
DEPTH           .m                                         :(RT)    (DnMWorkflow)                                   Depth Index
BLKP            .m                                         :(RT)    (DRILLING_SURFACE)                              Height of block above rig floor
GR_CAL          .gAPI                                      :(RT)    (ARC9)                                          Calibrated Gamma Ray
STICK           .c/min                                     :(RT)    (TELE900)                                       Stick Slip Indicator
CRPM            .c/min                                     :(RT)    (TELE900)                                       Collar Rotational Speed
SHKRSK          .                                          :(RT)    (TELE900)                                       Shock Risk
SHKPK           .gn                                        :(RT)    (TELE900)                                       Shock Peak
DHAT            .degC                                      :(RM)    (ARC9)                                          Downhole Annulus Temperature
DHAP            .bar                                       :(RM)    (ARC9)                                          Downhole Annulus Pressure
ECD             .g/cm3                                     :(RM)    (ARC9)                                          Equivalent Circulating Density
#-------------------------------------------------------------
#       TIME_1900                 TIME        DEPTH         BLKP       GR_CAL        STICK         CRPM       SHKRSK        SHKPK         DHAT         DHAP          ECD 
#                                       (DnMWorkfl)  (DRILLING_)       (ARC9)    (TELE900)    (TELE900)    (TELE900)    (TELE900)       (ARC9)       (ARC9)       (ARC9) 
#                                              (RT)         (RT)         (RT)         (RT)         (RT)         (RT)         (RT)         (RM)         (RM)         (RM) 
#                                (10s)                                                                                                                                   
~ASCII
# ...
 43819.7055555556 16:56:00/20-Dec-2019   1406.84998     10.86000      -999.25      -999.25      -999.25      -999.25      -999.25     36.00000    176.36790      1.29087
 43819.7056712963 16:56:10/20-Dec-2019   1406.84998     10.86000      -999.25      -999.25      -999.25      -999.25      -999.25     36.00000    176.36790      1.29087
 43819.7057870370 16:56:20/20-Dec-2019   1406.84998     10.86000      -999.25      -999.25      -999.25      -999.25      -999.25     36.00000    176.09210      1.28885
 43819.7059027778 16:56:30/20-Dec-2019   1406.84998     10.86000      -999.25      -999.25      -999.25      -999.25      -999.25     36.00000    176.09210      1.28885
 43819.7060185185 16:56:40/20-Dec-2019   1406.84998     10.86000      -999.25      -999.25      -999.25      -999.25      -999.25     36.00000    176.09210      1.28885
 43819.7061342593 16:56:50/20-Dec-2019   1406.84998     10.86000      -999.25      -999.25      -999.25      -999.25      -999.25     36.00000    175.95420      1.28784
 43819.7062500000 16:57:00/20-Dec-2019   1406.84998     10.86000      -999.25      -999.25      -999.25      -999.25      -999.25     36.00000    175.67840      1.28582
 43819.7063657407 16:57:10/20-Dec-2019   1406.84998     10.86000      -999.25      -999.25      -999.25      -999.25      -999.25     36.00000    175.88530      1.28733
 43819.7064814815 16:57:20/20-Dec-2019   1406.84998      9.85000      -999.25      -999.25      -999.25      -999.25      -999.25     36.00000    175.67840      1.28582
 43819.7065972222 16:57:30/20-Dec-2019   1406.84998      3.64000      -999.25      -999.25      -999.25      -999.25      -999.25     36.00000    175.67840      1.28582
 43819.7067129630 16:57:40/20-Dec-2019   1406.84998      3.38000      -999.25      -999.25      -999.25      -999.25      -999.25     36.00000    175.88530      1.28733
 43819.7068287037 16:57:50/20-Dec-2019   1406.84998      3.63000      -999.25      -999.25      -999.25      -999.25      -999.25     36.00000    176.09210      1.28885
 43819.7069444444 16:58:00/20-Dec-2019   1406.34009      3.67000      -999.25      -999.25      -999.25      -999.25      -999.25     36.00000    176.09210      1.28932
 43819.7070601852 16:58:10/20-Dec-2019   1406.27991      3.73000      -999.25      -999.25      -999.25      -999.25      -999.25     36.00000    176.16110      1.28988
 43819.7071759259 16:58:20/20-Dec-2019   1405.68994      4.32000      -999.25      -999.25      -999.25      -999.25      -999.25     36.00000    175.40260      1.28490
 43819.7072916667 16:58:30/20-Dec-2019   1404.39990      5.61000      -999.25      -999.25      -999.25      -999.25      -999.25     36.00000    174.85110      1.28204
 43819.7074074074 16:58:40/20-Dec-2019   1403.28992      6.72000      -999.25      -999.25      -999.25      -999.25      -999.25     36.00000    174.85110      1.28307
 43819.7075231481 16:58:50/20-Dec-2019   1401.81995      8.19000      -999.25      -999.25      -999.25      -999.25      -999.25     36.00000    174.92000      1.28492
 43819.7076388889 16:59:00/20-Dec-2019   1400.31995      9.69000      -999.25      -999.25      -999.25      -999.25      -999.25     36.00000    174.57530      1.28380
 43819.7077546296 16:59:10/20-Dec-2019   1398.56006     11.45000      -999.25      -999.25      -999.25      -999.25      -999.25     36.00000    174.23050      1.28287
 43819.7078703704 16:59:20/20-Dec-2019   1396.88000     13.13000      -999.25      -999.25      -999.25      -999.25      -999.25     36.00000    173.81680      1.28139
 43819.7079861111 16:59:30/20-Dec-2019   1395.10999     14.90000      -999.25      -999.25      -999.25      -999.25      -999.25     36.00000    173.67890      1.28200
 43819.7081018519 16:59:40/20-Dec-2019   1393.31006     16.70000      -999.25      -999.25      -999.25      -999.25      -999.25     36.00000    173.40310      1.28165
 43819.7082175926 16:59:50/20-Dec-2019   1391.83008     18.18000      -999.25      -999.25      -999.25      -999.25      -999.25     36.00000    173.19630      1.28148
 43819.7083333333 17:00:00/20-Dec-2019   1390.32007     19.69000      -999.25      -999.25      -999.25      -999.25      -999.25     36.00000    172.98950      1.28136
