~VERSION INFORMATION 
VERS  .    2.0                                     :CWLS Log ASCII Standard - VERSION 2.0
WRAP  .    NO                                      :One Line per Time step
PROD  .    Schlumberger Technology Corp.           :LAS Producer
PROG  .    Horizon LASWriter 9.0.106845.3100       :LAS Program name and version
SOURCE.    Run 1-TimeLogicalAcq                    :Run&Pass Information
CREA  .    12/03/2019                              :LAS Creation date {MM/DD/YYYY}
#--------------------------------------------------
~WELL INFORMATION 
#MNEM           .UNIT                      DATA            :DESCRIPTION
#----            ------          --------------            -----------------------------
STRT            .d               43801.7395833334          :START TIME(OLE Automation date)
STOP            .d               43802.2048611111          :STOP TIME(OLE Automation date)
STEP            .d                            0            :STEP TIME(10s in time)
NULL            .                       -999.25            :NULL VALUE
COMP            .                       Equinor            :COMPANY
WELL            .                        31/5-7            :WELL NAME
FLD             .                           Eos            :FIELD NAME
RIGN            .                 West Hercules            :Rig Name
RIGTYP          .                Semi-Submersible          :Rig Type
SON             .                     19SCA0085            :Service Order Number
SRVC            .                  Schlumberger            :SERVICE COMPANY
DATE            .                    12/02/2019            :LOG DATE(Composite Date for Composite LAP) (MM/DD/YYYY)
CLAB            .                       County:            :County Label
CNTY            .                                          :COUNTY
SLAB            .                                          :State/Province Label
STAT            .                                          :STATE or PROVINCE
PROV            .                                          :STATE or PROVINCE
CTRY            .                        Norway            :COUNTRY
CONT_REGION     .                        Europe            :Continent Region
SECT            .                                          :Section
TOWN            .                                          :Township
RANG            .                                          :Range
API             .                                          :API NUMBER
UWI             .                                          :UNIQUE WELL ID
LUL             .                Service Office            :Logging Unit Location
LUN             .                          A615            :Logging Unit Number
LOC             .                Norwegian North Sea       :FIELD LOCATION
FL1             .                Section: 36 in.           :Field Location Line 1
FL2             .                Job no.: 19SCA0085        :Field Location Line 2
LATI            .deg             60° 34' 35.14" N          :LATITUDE
LONG            .deg             3° 26' 36.13" E           :LONGITUDE
PDAT            .                           MSL            :Local Permanent Datum
LMF             .                            DF            :Logging Measured From
APD             .m                        31.00            :Elevation of Depth Reference (LMF) Above Permanent Datum
EPD             .m                         0.00            :Elevation of Permanent Datum (PDAT) above Mean Sea Level
EKB             .m                      -999.25            :Elevation of Kelly Bushing Above Permanent Datum
EDF             .m                        31.00            :Elevation of Drill Floor Above Permanent Datum
EGL             .m                      -307.00            :Elevation of Ground Level Above Permanent Datum
ECF             .m                      -999.25            :Elevation of Casing Flange above Permanent Datum
#--------------------------------------------------
~CURVE INFORMATION
#MNEM           .UNIT                  API CODE            :DESCRIPTION
#----            ------          --------------            -----------------------------
TIME_1900       .d                                         :                                                        Time Index(OLE Automation date)
TIME            .s                                         :                                (10s)                   Time(hh mm ss/dd-MMM-yyyy)
DEPTH           .m                                         :(RT)    (DnMWorkflow)                                   Depth Index
GR              .gAPI                                      :(RT)    (TELE900)                                       Gamma Ray
BLKP            .m                                         :(RT)    (DRILLING_SURFACE)                              Height of block above rig floor
CRPM            .c/min                                     :(RT)    (TELE900)                                       Collar Rotational Speed
STICK           .c/min                                     :(RT)    (TELE900)                                       Stick Slip Indicator
SHKPK           .gn                                        :(RT)    (TELE900)                                       Shock Peak
SHKRSK          .                                          :(RT)    (TELE900)                                       Shock Risk
TEMP_DNI        .degC                                      :(RM)    (TELE900)                                       Direction and Inclination Sensor Temperature
#-------------------------------------------------------------
#       TIME_1900                 TIME        DEPTH           GR         BLKP         CRPM        STICK        SHKPK       SHKRSK     TEMP_DNI 
#                                       (DnMWorkfl)    (TELE900)  (DRILLING_)    (TELE900)    (TELE900)    (TELE900)    (TELE900)    (TELE900) 
#                                              (RT)         (RT)         (RT)         (RT)         (RT)         (RT)         (RT)         (RM) 
#                                (10s)                                                                                                         
~ASCII
# ...
 43801.9664351852 23:11:40/02-Dec-2019     372.8300      73.7708      29.3200      -999.25      81.0000       0.0000       0.0000      -999.25
 43801.9665509259 23:11:50/02-Dec-2019     372.8800      54.6943      29.2700      -999.25      -999.25      -999.25      -999.25      -999.25
 43801.9666666667 23:12:00/02-Dec-2019     372.9200      51.6930      29.2300      -999.25      -999.25      -999.25      -999.25      14.9023
 43801.9667824074 23:12:10/02-Dec-2019     372.9700      57.6793      29.1800      -999.25      -999.25      -999.25      -999.25      -999.25
 43801.9668981481 23:12:20/02-Dec-2019     373.0100      55.8357      29.1400      72.0000      -999.25       0.0000       0.0000      -999.25
 43801.9670138889 23:12:30/02-Dec-2019     373.0500      53.0436      29.0900      -999.25      27.0000      -999.25      -999.25      -999.25
 43801.9671296296 23:12:40/02-Dec-2019     373.1000      58.7288      29.0500      -999.25      -999.25      -999.25      -999.25      -999.25
 43801.9672453704 23:12:50/02-Dec-2019     373.1400      78.4007      29.0000      -999.25      -999.25      -999.25      -999.25      -999.25
 43801.9673611111 23:13:00/02-Dec-2019     373.1900      61.4039      28.9600      67.0000      -999.25       0.0000       0.0000      -999.25
 43801.9674768519 23:13:10/02-Dec-2019     373.1400      38.0180      29.0100      -999.25      48.0000      -999.25      -999.25      -999.25
 43801.9675925926 23:13:20/02-Dec-2019     373.1800      46.0154      28.9700      -999.25      -999.25      -999.25      -999.25      -999.25
 43801.9677083333 23:13:30/02-Dec-2019     373.2200      51.8606      28.9200      -999.25      -999.25      -999.25      -999.25      -999.25
 43801.9678240741 23:13:40/02-Dec-2019     373.2700      43.2289      28.8800      -999.25      -999.25      -999.25      -999.25      -999.25
 43801.9679398148 23:13:50/02-Dec-2019     373.3100      82.4878      28.8300      71.0000      -999.25       0.0000       0.0000      -999.25
 43801.9680555556 23:14:00/02-Dec-2019     373.2600      82.2969      28.8800      -999.25      42.0000      -999.25      -999.25      14.9023
 43801.9681712963 23:14:10/02-Dec-2019     373.7800      58.7797      28.5500      -999.25      -999.25      -999.25      -999.25      -999.25
 43801.9682870370 23:14:20/02-Dec-2019     373.8300      54.6371      28.3200      -999.25      -999.25      -999.25      -999.25      -999.25
 43801.9684027778 23:14:30/02-Dec-2019     373.5900      54.6371      28.4700      72.0000      -999.25       0.0000       0.0000      -999.25
 43801.9685185185 23:14:40/02-Dec-2019     373.6300      58.0660      28.5200      -999.25      57.0000      -999.25      -999.25      -999.25
 43801.9686342593 23:14:50/02-Dec-2019     373.9600      57.3143      28.1900      -999.25      -999.25      -999.25      -999.25      -999.25
 43801.9687500000 23:15:00/02-Dec-2019     374.0000      60.7432      28.1500      -999.25      -999.25      -999.25      -999.25      -999.25
 43801.9688657407 23:15:10/02-Dec-2019     373.8600      62.5868      28.2900      73.0000      -999.25      -999.25      -999.25      -999.25
 43801.9689814815 23:15:20/02-Dec-2019     373.9000      56.6005      28.2500      -999.25      72.0000       0.0000       0.0000      -999.25
 43801.9690972222 23:15:30/02-Dec-2019     374.0400      56.0919      28.1100      -999.25      -999.25      -999.25      -999.25      -999.25
 43801.9692129630 23:15:40/02-Dec-2019     373.9000      61.7261      28.2500      -999.25      -999.25      -999.25      -999.25      -999.25
 43801.9693287037 23:15:50/02-Dec-2019     374.1300      67.7124      28.1100      -999.25      -999.25      -999.25      -999.25      -999.25
 43801.9694444444 23:16:00/02-Dec-2019     374.2700      65.8687      27.8800      74.0000      -999.25       0.0000       0.0000      14.9023
 43801.9695601852 23:16:10/02-Dec-2019     374.2200      58.4039      27.9300      -999.25     114.0000      -999.25      -999.25      -999.25
 43801.9696759259 23:16:20/02-Dec-2019     374.2600      62.1019      27.8900      -999.25      -999.25      -999.25      -999.25      -999.25
 43801.9697916667 23:16:30/02-Dec-2019     374.3100      54.6371      27.8400      -999.25      -999.25      -999.25      -999.25      -999.25
 43801.9699074074 23:16:40/02-Dec-2019     374.3500      54.6371      27.8000      72.0000      -999.25      -999.25      -999.25      -999.25
 43801.9700231481 23:16:50/02-Dec-2019     374.3900      58.7797      27.7500      -999.25      51.0000       0.0000       0.0000      -999.25
 43801.9701388889 23:17:00/02-Dec-2019     374.4400      58.4039      27.7100      -999.25      -999.25      -999.25      -999.25      -999.25
 43801.9702546296 23:17:10/02-Dec-2019     374.4800      61.7261      27.6600      -999.25      -999.25      -999.25      -999.25      -999.25
 43801.9703703704 23:17:20/02-Dec-2019     374.4300      67.7124      27.7200      -999.25      -999.25      -999.25      -999.25      -999.25
 43801.9704861111 23:17:30/02-Dec-2019     374.4800      65.8687      27.6700      72.0000      -999.25       0.0000       0.0000      -999.25
 43801.9706018518 23:17:40/02-Dec-2019     374.5200      61.2899      27.6300      -999.25      48.0000      -999.25      -999.25      -999.25
 43801.9707175926 23:17:50/02-Dec-2019     374.4700      63.0769      27.6800      -999.25      -999.25      -999.25      -999.25      -999.25
 43801.9708333333 23:18:00/02-Dec-2019     374.8000      71.2124      27.4400      -999.25      -999.25      -999.25      -999.25      14.9023
 43801.9709490741 23:18:10/02-Dec-2019     374.8400      71.2124      27.3100      73.0000      -999.25       0.0000       0.0000      -999.25
 43801.9710648148 23:18:20/02-Dec-2019     374.8900      67.0698      27.2600      -999.25      78.0000      -999.25      -999.25      -999.25
 43801.9711805556 23:18:30/02-Dec-2019     374.9300      61.2899      27.2200      -999.25      -999.25      -999.25      -999.25      -999.25
 43801.9712962963 23:18:40/02-Dec-2019     375.1600      61.7261      26.9900      -999.25      -999.25      -999.25      -999.25      -999.25
 43801.9714120370 23:18:50/02-Dec-2019     374.9300      67.7124      27.2200      -999.25      -999.25      -999.25      -999.25      -999.25
 43801.9715277778 23:19:00/02-Dec-2019     375.4400      61.7261      26.7100      75.0000      -999.25       0.0000       0.0000      -999.25
 43801.9716435185 23:19:10/02-Dec-2019     375.4800      58.4039      26.6700      -999.25      48.0000      -999.25      -999.25      -999.25
 43801.9717592593 23:19:20/02-Dec-2019     375.1500      53.8723      27.0000      -999.25      -999.25      -999.25      -999.25      -999.25
 43801.9718750000 23:19:30/02-Dec-2019     375.4800      47.8859      26.6700      -999.25      -999.25      -999.25      -999.25      -999.25
 43801.9719907407 23:19:40/02-Dec-2019     375.7100      49.7296      26.4400      72.0000      -999.25       0.0000       0.0000      -999.25
 43801.9721064815 23:19:50/02-Dec-2019     375.6600      61.1225      26.4900      -999.25      87.0000      -999.25      -999.25      -999.25
 43801.9722222222 23:20:00/02-Dec-2019     375.6100      66.4119      26.5400      -999.25      -999.25      -999.25      -999.25      14.9023
 43801.9723379630 23:20:10/02-Dec-2019     375.6500      65.1064      26.5000      -999.25      -999.25      -999.25      -999.25      -999.25
 43801.9724537037 23:20:20/02-Dec-2019     375.7000      65.1064      26.4500      71.0000      -999.25       0.0000       0.0000      -999.25
 43801.9725694444 23:20:30/02-Dec-2019     375.7400      69.2490      26.4100      -999.25     111.0000      -999.25      -999.25      -999.25
 43801.9726851852 23:20:40/02-Dec-2019     375.7900      57.8887      26.3600      -999.25      -999.25      -999.25      -999.25      -999.25
 43801.9728009259 23:20:50/02-Dec-2019     375.8300      52.8458      26.3200      -999.25      -999.25      -999.25      -999.25      -999.25
