~VERSION INFORMATION 
VERS  .    2.0                                     :CWLS Log ASCII Standard - VERSION 2.0
WRAP  .    NO                                      :One Line per Time step
PROD  .    Schlumberger Technology Corp.           :LAS Producer
PROG  .    Horizon LASWriter 9.2.113335.3100       :LAS Program name and version
SOURCE.    Run 7-TimeLogicalAcq                    :Run&Pass Information
CREA  .    12/27/2019                              :LAS Creation date {MM/DD/YYYY}
#--------------------------------------------------
~WELL INFORMATION 
#MNEM           .UNIT                      DATA            :DESCRIPTION
#----            ------          --------------            -----------------------------
STRT            .d               43818.4166666667          :START TIME(OLE Automation date)
STOP            .d               43819.7083333333          :STOP TIME(OLE Automation date)
STEP            .d                            0            :STEP TIME(10s in time)
NULL            .                       -999.25            :NULL VALUE
COMP            .                       Equinor            :COMPANY
WELL            .                        31/5-7            :WELL NAME
FLD             .                           Eos            :FIELD NAME
RIGN            .                 West Hercules            :Rig Name
RIGTYP          .                Semi-Submersible          :Rig Type
SON             .                     19SCA0085            :Service Order Number
SRVC            .                  Schlumberger            :SERVICE COMPANY
DATE            .                    12/19/2019            :LOG DATE(Composite Date for Composite LAP) (MM/DD/YYYY)
CLAB            .                       County:            :County Label
CNTY            .                                          :COUNTY
SLAB            .                                          :State/Province Label
STAT            .                                          :STATE or PROVINCE
PROV            .                                          :STATE or PROVINCE
CTRY            .                        Norway            :COUNTRY
CONT_REGION     .                        Europe            :Continent Region
SECT            .                                          :Section
TOWN            .                                          :Township
RANG            .                                          :Range
API             .                                          :API NUMBER
UWI             .                                          :UNIQUE WELL ID
LUL             .                Service Office            :Logging Unit Location
LUN             .                          A615            :Logging Unit Number
LOC             .                Norwegian North Sea       :FIELD LOCATION
FL1             .                Section: 12 1/4 x 17 1/5 in.:Field Location Line 1
FL2             .                Job no.: 19SCA0085        :Field Location Line 2
LATI            .deg             60° 34' 35.14" N          :LATITUDE
LONG            .deg             3° 26' 36.13" E           :LONGITUDE
PDAT            .                           MSL            :Local Permanent Datum
LMF             .                            DF            :Logging Measured From
APD             .m                        31.00            :Elevation of Depth Reference (LMF) Above Permanent Datum
EPD             .m                         0.00            :Elevation of Permanent Datum (PDAT) above Mean Sea Level
EKB             .m                      -999.25            :Elevation of Kelly Bushing Above Permanent Datum
EDF             .m                        31.00            :Elevation of Drill Floor Above Permanent Datum
EGL             .m                      -307.00            :Elevation of Ground Level Above Permanent Datum
ECF             .m                      -999.25            :Elevation of Casing Flange above Permanent Datum
#--------------------------------------------------
~CURVE INFORMATION
#MNEM           .UNIT                  API CODE            :DESCRIPTION
#----            ------          --------------            -----------------------------
TIME_1900       .d                                         :                                                        Time Index(OLE Automation date)
TIME            .s                                         :                                (10s)                   Time(hh mm ss/dd-MMM-yyyy)
DEPTH           .m                                         :(RT)    (DnMWorkflow)                                   Depth Index
BLKP            .m                                         :(RT)    (DRILLING_SURFACE)                              Height of block above rig floor
GR_CAL          .gAPI                                      :(RT)    (ARC9)                                          Calibrated Gamma Ray
STICK           .c/min                                     :(RT)    (TELE900)                                       Stick Slip Indicator
CRPM            .c/min                                     :(RT)    (TELE900)                                       Collar Rotational Speed
SHKRSK          .                                          :(RT)    (TELE900)                                       Shock Risk
SHKPK           .gn                                        :(RT)    (TELE900)                                       Shock Peak
DHAT            .degC                                      :(RM)    (ARC9)                                          Downhole Annulus Temperature
DHAP            .bar                                       :(RM)    (ARC9)                                          Downhole Annulus Pressure
ECD             .g/cm3                                     :(RM)    (ARC9)                                          Equivalent Circulating Density
#-------------------------------------------------------------
#       TIME_1900                 TIME        DEPTH         BLKP       GR_CAL        STICK         CRPM       SHKRSK        SHKPK         DHAT         DHAP          ECD 
#                                       (DnMWorkfl)  (DRILLING_)       (ARC9)    (TELE900)    (TELE900)    (TELE900)    (TELE900)       (ARC9)       (ARC9)       (ARC9) 
#                                              (RT)         (RT)         (RT)         (RT)         (RT)         (RT)         (RT)         (RM)         (RM)         (RM) 
#                                (10s)                                                                                                                                   
~ASCII
# ...
 43819.2055555556 04:56:00/20-Dec-2019   1752.08997     14.42000    123.73170      -999.25      -999.25      -999.25      -999.25     34.00000    220.49430      1.29334
 43819.2056712963 04:56:10/20-Dec-2019   1752.29004     14.32000    116.46630      -999.25      -999.25      -999.25      -999.25     34.00000    220.35640      1.29241
 43819.2057870370 04:56:20/20-Dec-2019   1752.39001     14.13000    116.91570      -999.25      -999.25      -999.25      -999.25     34.00000    220.28750      1.29190
 43819.2059027778 04:56:30/20-Dec-2019   1752.39001     14.13000    119.87990      -999.25    214.00000      0.00000      0.00000     34.00000    220.28750      1.29191
 43819.2060185185 04:56:40/20-Dec-2019   1752.29004     14.23000    123.74940    381.00000      -999.25      -999.25      -999.25     34.00000    220.21860      1.29155
 43819.2061342593 04:56:50/20-Dec-2019   1752.56995     13.95000    126.71370      -999.25      -999.25      -999.25      -999.25     34.00000    220.28750      1.29175
 43819.2062500000 04:57:00/20-Dec-2019   1752.68005     13.84000    118.85090      -999.25      -999.25      -999.25      -999.25     34.00000    220.08060      1.29048
 43819.2063657407 04:57:10/20-Dec-2019   1752.91003     13.61000    117.36880      -999.25    177.00000      -999.25      -999.25     34.00000    220.35640      1.29193
 43819.2064814815 04:57:20/20-Dec-2019   1752.95007     13.57000    115.43400    381.00000      -999.25      0.00000      0.00000     34.00000    220.35640      1.29189
 43819.2065972222 04:57:30/20-Dec-2019   1753.17993     13.34000    113.95190      -999.25      -999.25      -999.25      -999.25     34.00000    220.35640      1.29172
 43819.2067129630 04:57:40/20-Dec-2019   1753.02991     13.49000    112.32190      -999.25      -999.25      -999.25      -999.25     34.00000    220.35640      1.29183
 43819.2068287037 04:57:50/20-Dec-2019   1753.17004     13.35000    113.42030      -999.25      -999.25      -999.25      -999.25     34.00000    220.56330      1.29294
 43819.2069444444 04:58:00/20-Dec-2019   1753.45996     13.06000    113.93950      -999.25    197.00000      0.00000      0.00000     34.00000    220.49430      1.29233
 43819.2070601852 04:58:10/20-Dec-2019   1753.43994     13.08000    109.78420    381.00000      -999.25      -999.25      -999.25     34.00000    220.49430      1.29234
 43819.2071759259 04:58:20/20-Dec-2019   1753.69006     12.83000    107.19110      -999.25      -999.25      -999.25      -999.25     34.00000    220.42540      1.29175
 43819.2072916667 04:58:30/20-Dec-2019   1753.68005     12.84000    108.39340      -999.25      -999.25      -999.25      -999.25     34.00000    220.42540      1.29176
 43819.2074074074 04:58:40/20-Dec-2019   1753.68005     12.84000    106.91120      -999.25    205.00000      0.00000      0.00000     34.00000    220.35640      1.29133
 43819.2075231481 04:58:50/20-Dec-2019   1753.89001     12.63000    104.97650    381.00000      -999.25      -999.25      -999.25     34.00000    220.49430      1.29200
 43819.2076388889 04:59:00/20-Dec-2019   1753.94006     12.58000    103.49440      -999.25      -999.25      -999.25      -999.25     34.00000    220.56330      1.29237
 43819.2077546296 04:59:10/20-Dec-2019   1754.17004     12.35000    103.27880      -999.25      -999.25      -999.25      -999.25     34.00000    220.49430      1.29180
 43819.2078703704 04:59:20/20-Dec-2019   1754.21008     12.31000    101.09720      -999.25    214.00000      -999.25      -999.25     34.00000    220.49430      1.29174
 43819.2079861111 04:59:30/20-Dec-2019   1754.43994     12.08000    100.57800    366.00000      -999.25      0.00000      0.00000     34.00000    220.42540      1.29119
 43819.2081018519 04:59:40/20-Dec-2019   1754.57007     11.94000    104.73330      -999.25      -999.25      -999.25      -999.25     34.00000    220.63220      1.29231
 43819.2082175926 04:59:50/20-Dec-2019   1754.62000     11.89000    109.22920      -999.25      -999.25      -999.25      -999.25     34.00000    220.56330      1.29187
 43819.2083333333 05:00:00/20-Dec-2019   1754.72009     11.71000    109.71960      -999.25      -999.25      -999.25      -999.25     34.00000    220.63220      1.29217
 43819.2084490741 05:00:10/20-Dec-2019   1754.70996     11.71000    103.17440      -999.25    202.00000      0.00000      0.00000     34.00000    220.49430      1.29137
 43819.2085648148 05:00:20/20-Dec-2019   1754.82007     11.68000     99.30492    381.00000      -999.25      -999.25      -999.25     35.00000    220.83910      1.29333
 43819.2086805556 05:00:30/20-Dec-2019   1754.94995     11.56000     99.92162      -999.25      -999.25      -999.25      -999.25     35.00000    220.83910      1.29324
 43819.2087962963 05:00:40/20-Dec-2019   1755.26001     11.26000    110.08820      -999.25      -999.25      -999.25      -999.25     35.00000    220.90800      1.29341
 43819.2089120370 05:00:50/20-Dec-2019   1755.46997     11.13000    116.63330      -999.25    205.00000      -999.25      -999.25     35.00000    221.04590      1.29408
 43819.2090277778 05:01:00/20-Dec-2019   1755.51001     11.00000    120.50280    381.00000      -999.25      0.00000      0.00000     35.00000    220.77010      1.29242
 43819.2091435185 05:01:10/20-Dec-2019   1755.63000     10.88000    119.88610      -999.25      -999.25      -999.25      -999.25     35.00000    220.63220      1.29152
 43819.2092592593 05:01:20/20-Dec-2019   1755.48999     10.94000    119.05660      -999.25      -999.25      -999.25      -999.25     35.00000    220.70120      1.29201
 43819.2093750000 05:01:30/20-Dec-2019   1755.71008     10.81000    112.75860      -999.25      -999.25      -999.25      -999.25     35.00000    220.83910      1.29267
 43819.2094907407 05:01:40/20-Dec-2019   1755.82996     10.68000    108.08400      -999.25    241.00000      0.00000      0.00000     35.00000    220.83910      1.29258
 43819.2096064815 05:01:50/20-Dec-2019   1756.14001     10.37000    112.75860    381.00000      -999.25      -999.25      -999.25     35.00000    220.77010      1.29195
 43819.2097222222 05:02:00/20-Dec-2019   1756.18005     10.24000    119.05660      -999.25      -999.25      -999.25      -999.25     35.00000    220.90800      1.29271
 43819.2098379630 05:02:10/20-Dec-2019   1756.31995     10.20000    116.01010      -999.25      -999.25      -999.25      -999.25     35.00000    220.83910      1.29222
 43819.2099537037 05:02:20/20-Dec-2019   1756.45007     10.06000    113.04590      -999.25    237.00000      0.00000      0.00000     35.00000    220.90800      1.29253
 43819.2100694444 05:02:30/20-Dec-2019   1756.58997      9.93000    109.17640    366.00000      -999.25      -999.25      -999.25     35.00000    220.70120      1.29121
 43819.2101851852 05:02:40/20-Dec-2019   1756.65002      9.87000    106.21210      -999.25      -999.25      -999.25      -999.25     35.00000    221.11490      1.29359
 43819.2103009259 05:02:50/20-Dec-2019   1756.87000      9.65000    104.01490      -999.25      -999.25      -999.25      -999.25     35.00000    221.11490      1.29342
 43819.2104166667 05:03:00/20-Dec-2019   1756.92004      9.60000    104.87600      -999.25    214.00000      -999.25      -999.25     35.00000    220.90800      1.29218
 43819.2105324074 05:03:10/20-Dec-2019   1757.33008      9.19000    108.51210    381.00000      -999.25      0.00000      0.00000     35.00000    221.11490      1.29310
 43819.2106481481 05:03:20/20-Dec-2019   1757.17004      9.35000    112.14830      -999.25      -999.25      -999.25      -999.25     35.00000    221.04590      1.29280
 43819.2107638889 05:03:30/20-Dec-2019   1757.22009      9.30000    114.48140      -999.25      -999.25      -999.25      -999.25     35.00000    220.90800      1.29191
 43819.2108796296 05:03:40/20-Dec-2019   1757.33008      9.19000    116.21040      -999.25      -999.25      -999.25      -999.25     35.00000    221.11490      1.29309
 43819.2109953704 05:03:50/20-Dec-2019   1757.43005      9.09000    116.87100      -999.25    220.00000      0.00000      0.00000     35.00000    221.11490      1.29301
