~VERSION INFORMATION 
VERS  .    2.0                                     :CWLS Log ASCII Standard - VERSION 2.0
WRAP  .    NO                                      :One Line per Time step
PROD  .    Schlumberger Technology Corp.           :LAS Producer
PROG  .    Horizon LASWriter 9.2.113335.3100       :LAS Program name and version
SOURCE.    Run 9-TimeLogicalAcq                    :Run&Pass Information
CREA  .    01/21/2020                              :LAS Creation date {MM/DD/YYYY}
#--------------------------------------------------
~WELL INFORMATION 
#MNEM           .UNIT                      DATA            :DESCRIPTION
#----            ------          --------------            -----------------------------
STRT            .d               43828.3333333334          :START TIME(OLE Automation date)
STOP            .d               43829.1041666667          :STOP TIME(OLE Automation date)
STEP            .d                            0            :STEP TIME(10s in time)
NULL            .                       -999.25            :NULL VALUE
COMP            .                       Equinor            :COMPANY
WELL            .                        31/5-7            :WELL NAME
FLD             .                           Eos            :FIELD NAME
RIGN            .                 West Hercules            :Rig Name
RIGTYP          .                Semi-Submersible          :Rig Type
SON             .                     19SCA0085            :Service Order Number
SRVC            .                  Schlumberger            :SERVICE COMPANY
DATE            .                    12/29/2019            :LOG DATE(Composite Date for Composite LAP) (MM/DD/YYYY)
CLAB            .                       County:            :County Label
CNTY            .                                          :COUNTY
SLAB            .                                          :State/Province Label
STAT            .                                          :STATE or PROVINCE
PROV            .                                          :STATE or PROVINCE
CTRY            .                        Norway            :COUNTRY
CONT_REGION     .                        Europe            :Continent Region
SECT            .                                          :Section
TOWN            .                                          :Township
RANG            .                                          :Range
API             .                                          :API NUMBER
UWI             .                                          :UNIQUE WELL ID
LUL             .                Service Office            :Logging Unit Location
LUN             .                          A615            :Logging Unit Number
LOC             .                Norwegian North Sea       :FIELD LOCATION
FL1             .                Section: 8 1/2 in.        :Field Location Line 1
FL2             .                Job no.: 19SCA0085        :Field Location Line 2
LATI            .deg             60° 34' 35.14" N          :LATITUDE
LONG            .deg             3° 26' 36.13" E           :LONGITUDE
PDAT            .                           MSL            :Local Permanent Datum
LMF             .                            DF            :Logging Measured From
APD             .m                        31.00            :Elevation of Depth Reference (LMF) Above Permanent Datum
EPD             .m                         0.00            :Elevation of Permanent Datum (PDAT) above Mean Sea Level
EKB             .m                      -999.25            :Elevation of Kelly Bushing Above Permanent Datum
EDF             .m                        31.00            :Elevation of Drill Floor Above Permanent Datum
EGL             .m                      -307.00            :Elevation of Ground Level Above Permanent Datum
ECF             .m                      -999.25            :Elevation of Casing Flange above Permanent Datum
#--------------------------------------------------
~CURVE INFORMATION
#MNEM           .UNIT                  API CODE            :DESCRIPTION
#----            ------          --------------            -----------------------------
TIME_1900       .d                                         :                                                        Time Index(OLE Automation date)
TIME            .s                                         :                                (10s)                   Time(hh mm ss/dd-MMM-yyyy)
DEPTH           .m                                         :(RT)    (DnMWorkflow)                                   Depth Index
BLKP            .m                                         :(RT)    (DRILLING_SURFACE)                              Height of block above rig floor
GR              .gAPI                                      :(RT)    (ARC6)                                          Gamma Ray
CRPM            .c/min                                     :(RT)    (TELE675)                                       Collar Rotational Speed
STICK           .c/min                                     :(RT)    (TELE675)                                       Stick Slip Indicator
SHKRSK          .                                          :(RT)    (TELE675)                                       Shock Risk
SHKPK           .gn                                        :(RT)    (TELE675)                                       Shock Peak
DHAT            .degC                                      :(RM)    (ARC6)                                          Downhole Annulus Temperature
DHAP            .bar                                       :(RM)    (ARC6)                                          Downhole Annulus Pressure
ECD             .g/cm3                                     :(RM)    (ARC6)                                          Equivalent Circulating Density
#-------------------------------------------------------------
#       TIME_1900                 TIME        DEPTH         BLKP           GR         CRPM        STICK       SHKRSK        SHKPK         DHAT         DHAP          ECD 
#                                       (DnMWorkfl)  (DRILLING_)       (ARC6)    (TELE675)    (TELE675)    (TELE675)    (TELE675)       (ARC6)       (ARC6)       (ARC6) 
#                                              (RT)         (RT)         (RT)         (RT)         (RT)         (RT)         (RT)         (RM)         (RM)         (RM) 
#                                (10s)                                                                                                                                   
~ASCII
# ...
 43828.8277777778 19:52:00/29-Dec-2019   2569.69995     32.39000      -999.25      -999.25      -999.25      -999.25      -999.25     46.00000    301.64560      1.20109
 43828.8278935185 19:52:10/29-Dec-2019   2569.60986     32.48000      -999.25      -999.25      -999.25      -999.25      -999.25     46.00000    301.36980      1.20016
 43828.8280092593 19:52:20/29-Dec-2019   2569.69995     32.39000      -999.25      -999.25      -999.25      -999.25      -999.25     46.00000    301.02510      1.19873
 43828.8281250000 19:52:30/29-Dec-2019   2570.15991     31.93000      -999.25      -999.25      -999.25      -999.25      -999.25     46.00000    300.74930      1.19740
 43828.8282407407 19:52:40/29-Dec-2019   2569.96997     32.12000      -999.25      -999.25      -999.25      -999.25      -999.25     46.00000    300.40460      1.19620
 43828.8283564815 19:52:50/29-Dec-2019   2569.22998     32.86000      -999.25      -999.25      -999.25      -999.25      -999.25     46.00000    300.12880      1.19530
 43828.8284722222 19:53:00/29-Dec-2019   2569.41992     32.67000      -999.25      -999.25      -999.25      -999.25      -999.25     46.00000    299.85300      1.19403
 43828.8285879630 19:53:10/29-Dec-2019   2569.51025     32.58000      -999.25      -999.25      -999.25      -999.25      -999.25     47.00000    299.57720      1.19302
 43828.8287037037 19:53:20/29-Dec-2019   2569.41992     32.67000      -999.25      -999.25      -999.25      -999.25      -999.25     47.00000    299.30140      1.19186
 43828.8288194444 19:53:30/29-Dec-2019   2569.79004     32.30000      -999.25      -999.25      -999.25      -999.25      -999.25     47.00000    299.02560      1.19061
 43828.8289351852 19:53:40/29-Dec-2019   2569.51025     32.58000      -999.25      -999.25      -999.25      -999.25      -999.25     47.00000    298.81880      1.18991
 43828.8290509259 19:53:50/29-Dec-2019   2569.22998     32.86000      -999.25      -999.25      -999.25      -999.25      -999.25     47.00000    298.74980      1.18975
 43828.8291666667 19:54:00/29-Dec-2019   2569.69995     32.39000      -999.25      -999.25      -999.25      -999.25      -999.25     47.00000    298.81880      1.18987
 43828.8292824074 19:54:10/29-Dec-2019   2569.41992     32.67000      -999.25      -999.25      -999.25      -999.25      -999.25     47.00000    298.88770      1.19027
 43828.8293981481 19:54:20/29-Dec-2019   2569.51025     32.58000      -999.25      -999.25      -999.25      -999.25      -999.25     47.00000    299.02560      1.19078
 43828.8295138889 19:54:30/29-Dec-2019   2569.41992     32.67000      -999.25      -999.25      -999.25      -999.25      -999.25     47.00000    299.71510      1.19349
 43828.8296296296 19:54:40/29-Dec-2019   2569.22998     32.86000      -999.25      -999.25      -999.25      -999.25      -999.25     47.00000    300.74930      1.19776
 43828.8297453704 19:54:50/29-Dec-2019   2569.69995     32.39000      -999.25      -999.25      -999.25      -999.25      -999.25     47.00000    303.30040      1.20771
 43828.8298611111 19:55:00/29-Dec-2019   2569.69995     32.39000      -999.25      -999.25      -999.25      -999.25      -999.25     47.00000    305.16200      1.21522
 43828.8299768518 19:55:10/29-Dec-2019   2569.41992     32.67000      -999.25      -999.25      -999.25      -999.25      -999.25     47.00000    307.36830      1.22409
 43828.8300925926 19:55:20/29-Dec-2019   2569.69995     32.39000      -999.25      -999.25      -999.25      -999.25      -999.25     47.00000    310.26410      1.23547
 43828.8302083333 19:55:30/29-Dec-2019   2569.60986     32.48000      -999.25      -999.25      -999.25      -999.25      -999.25     47.00000    312.19460      1.24317
 43828.8303240741 19:55:40/29-Dec-2019   2569.60986     32.48000      -999.25      -999.25      -999.25      -999.25      -999.25     47.00000    314.88360      1.25388
 43828.8304398148 19:55:50/29-Dec-2019   2569.41992     32.67000      -999.25      -999.25      -999.25      -999.25      -999.25     47.00000    316.81410      1.26166
 43828.8305555556 19:56:00/29-Dec-2019   2569.51025     32.58000      -999.25      -999.25      -999.25      -999.25      -999.25     47.00000    319.15830      1.27099
 43828.8306712963 19:56:10/29-Dec-2019   2569.41992     32.67000      -999.25      -999.25      -999.25      -999.25      -999.25     47.00000    321.98520      1.28222
 43828.8307870370 19:56:20/29-Dec-2019   2569.41992     32.67000      -999.25      -999.25      -999.25      -999.25      -999.25     47.00000    323.84680      1.28962
 43828.8309027778 19:56:30/29-Dec-2019   2569.96997     32.12000      -999.25      -999.25      -999.25      -999.25      -999.25     47.00000    326.53570      1.30004
 43828.8310185185 19:56:40/29-Dec-2019   2569.22998     32.86000      -999.25      -999.25      -999.25      -999.25      -999.25     47.00000    328.46630      1.30831
 43828.8311342593 19:56:50/29-Dec-2019   2568.94995     33.14000      -999.25      -999.25      -999.25      -999.25      -999.25     47.00000    330.81050      1.31748
 43828.8312500000 19:57:00/29-Dec-2019   2569.60986     32.39000      -999.25      -999.25      -999.25      -999.25      -999.25     47.00000    333.63730      1.32869
 43828.8313657407 19:57:10/29-Dec-2019   2569.88013     32.21000      -999.25      -999.25      -999.25      -999.25      -999.25     47.00000    335.43000      1.33555
 43828.8314814815 19:57:20/29-Dec-2019   2569.79004     32.39000      -999.25      -999.25      -999.25      -999.25      -999.25     47.00000    338.18790      1.34653
 43828.8315972222 19:57:30/29-Dec-2019   2569.33008     32.86000      -999.25      -999.25      -999.25      -999.25      -999.25     47.00000    340.04940      1.35429
 43828.8317129630 19:57:40/29-Dec-2019   2569.60986     32.48000      -999.25      -999.25      -999.25      -999.25      -999.25     47.00000    342.32470      1.36321
 43828.8318287037 19:57:50/29-Dec-2019   2569.69995     32.48000      -999.25      -999.25      -999.25      -999.25      -999.25     47.00000    345.15160      1.37429
 43828.8319444444 19:58:00/29-Dec-2019   2569.41992     32.67000      -999.25      -999.25      -999.25      -999.25      -999.25     47.00000    347.01310      1.38197
 43828.8320601852 19:58:10/29-Dec-2019   2569.79004     32.30000      -999.25      -999.25      -999.25      -999.25      -999.25     47.00000    349.70210      1.39248
 43828.8321759259 19:58:20/29-Dec-2019   2569.51025     32.67000      -999.25      -999.25      -999.25      -999.25      -999.25     47.00000    352.04630      1.40186
 43828.8322916667 19:58:30/29-Dec-2019   2569.51025     32.48000      -999.25      -999.25      -999.25      -999.25      -999.25     47.00000    353.90790      1.40927
 43828.8324074074 19:58:40/29-Dec-2019   2569.41992     32.67000      -999.25      -999.25      -999.25      -999.25      -999.25     48.00000    356.59680      1.42009
 43828.8325231481 19:58:50/29-Dec-2019   2569.33008     32.76000      -999.25      -999.25      -999.25      -999.25      -999.25     48.00000    358.38950      1.42723
 43828.8326388889 19:59:00/29-Dec-2019   2569.22998     32.86000      -999.25      -999.25      -999.25      -999.25      -999.25     48.00000    361.21630      1.43862
 43828.8327546296 19:59:10/29-Dec-2019   2569.33008     32.67000      -999.25      -999.25      -999.25      -999.25      -999.25     48.00000    362.94000      1.44532
 43828.8328703704 19:59:20/29-Dec-2019   2569.69995     32.39000      -999.25      -999.25      -999.25      -999.25      -999.25     48.00000    365.28430      1.45452
 43828.8329861111 19:59:30/29-Dec-2019   2569.79004     32.48000      -999.25      -999.25      -999.25      -999.25      -999.25     48.00000    367.97320      1.46513
 43828.8331018519 19:59:40/29-Dec-2019   2569.60986     32.67000      -999.25      -999.25      -999.25      -999.25      -999.25     48.00000    369.62790      1.47205
 43828.8332175926 19:59:50/29-Dec-2019   2568.94995     33.14000      -999.25      -999.25      -999.25      -999.25      -999.25     48.00000    372.45480      1.48338
