~VERSION INFORMATION 
VERS  .    2.0                                     :CWLS Log ASCII Standard - VERSION 2.0
WRAP  .    NO                                      :One Line per Time step
PROD  .    Schlumberger Technology Corp.           :LAS Producer
PROG  .    Horizon LASWriter 9.0.106845.3100       :LAS Program name and version
SOURCE.    Run 1-TimeLogicalAcq                    :Run&Pass Information
CREA  .    12/03/2019                              :LAS Creation date {MM/DD/YYYY}
#--------------------------------------------------
~WELL INFORMATION 
#MNEM           .UNIT                      DATA            :DESCRIPTION
#----            ------          --------------            -----------------------------
STRT            .d               43801.7395833334          :START TIME(OLE Automation date)
STOP            .d               43802.2048611111          :STOP TIME(OLE Automation date)
STEP            .d                            0            :STEP TIME(10s in time)
NULL            .                       -999.25            :NULL VALUE
COMP            .                       Equinor            :COMPANY
WELL            .                        31/5-7            :WELL NAME
FLD             .                           Eos            :FIELD NAME
RIGN            .                 West Hercules            :Rig Name
RIGTYP          .                Semi-Submersible          :Rig Type
SON             .                     19SCA0085            :Service Order Number
SRVC            .                  Schlumberger            :SERVICE COMPANY
DATE            .                    12/02/2019            :LOG DATE(Composite Date for Composite LAP) (MM/DD/YYYY)
CLAB            .                       County:            :County Label
CNTY            .                                          :COUNTY
SLAB            .                                          :State/Province Label
STAT            .                                          :STATE or PROVINCE
PROV            .                                          :STATE or PROVINCE
CTRY            .                        Norway            :COUNTRY
CONT_REGION     .                        Europe            :Continent Region
SECT            .                                          :Section
TOWN            .                                          :Township
RANG            .                                          :Range
API             .                                          :API NUMBER
UWI             .                                          :UNIQUE WELL ID
LUL             .                Service Office            :Logging Unit Location
LUN             .                          A615            :Logging Unit Number
LOC             .                Norwegian North Sea       :FIELD LOCATION
FL1             .                Section: 36 in.           :Field Location Line 1
FL2             .                Job no.: 19SCA0085        :Field Location Line 2
LATI            .deg             60° 34' 35.14" N          :LATITUDE
LONG            .deg             3° 26' 36.13" E           :LONGITUDE
PDAT            .                           MSL            :Local Permanent Datum
LMF             .                            DF            :Logging Measured From
APD             .m                        31.00            :Elevation of Depth Reference (LMF) Above Permanent Datum
EPD             .m                         0.00            :Elevation of Permanent Datum (PDAT) above Mean Sea Level
EKB             .m                      -999.25            :Elevation of Kelly Bushing Above Permanent Datum
EDF             .m                        31.00            :Elevation of Drill Floor Above Permanent Datum
EGL             .m                      -307.00            :Elevation of Ground Level Above Permanent Datum
ECF             .m                      -999.25            :Elevation of Casing Flange above Permanent Datum
#--------------------------------------------------
~CURVE INFORMATION
#MNEM           .UNIT                  API CODE            :DESCRIPTION
#----            ------          --------------            -----------------------------
TIME_1900       .d                                         :                                                        Time Index(OLE Automation date)
TIME            .s                                         :                                (10s)                   Time(hh mm ss/dd-MMM-yyyy)
DEPTH           .m                                         :(RT)    (DnMWorkflow)                                   Depth Index
GR              .gAPI                                      :(RT)    (TELE900)                                       Gamma Ray
BLKP            .m                                         :(RT)    (DRILLING_SURFACE)                              Height of block above rig floor
CRPM            .c/min                                     :(RT)    (TELE900)                                       Collar Rotational Speed
STICK           .c/min                                     :(RT)    (TELE900)                                       Stick Slip Indicator
SHKPK           .gn                                        :(RT)    (TELE900)                                       Shock Peak
SHKRSK          .                                          :(RT)    (TELE900)                                       Shock Risk
TEMP_DNI        .degC                                      :(RM)    (TELE900)                                       Direction and Inclination Sensor Temperature
#-------------------------------------------------------------
#       TIME_1900                 TIME        DEPTH           GR         BLKP         CRPM        STICK        SHKPK       SHKRSK     TEMP_DNI 
#                                       (DnMWorkfl)    (TELE900)  (DRILLING_)    (TELE900)    (TELE900)    (TELE900)    (TELE900)    (TELE900) 
#                                              (RT)         (RT)         (RT)         (RT)         (RT)         (RT)         (RT)         (RM) 
#                                (10s)                                                                                                         
~ASCII
# ...
 43802.0182870370 00:26:20/03-Dec-2019     389.8800      30.4273      12.2700      -999.25      -999.25      -999.25      -999.25      -999.25
 43802.0184027778 00:26:30/03-Dec-2019     389.9200      36.4136      12.2300      -999.25      -999.25      -999.25      -999.25      -999.25
 43802.0185185185 00:26:40/03-Dec-2019     389.9600      30.4273      12.1900      72.0000      -999.25       0.0000       0.0000      -999.25
 43802.0186342593 00:26:50/03-Dec-2019     390.0000      16.5290      12.1500      -999.25      60.0000      -999.25      -999.25      -999.25
 43802.0187500000 00:27:00/03-Dec-2019     390.0400       4.8653      12.1100      -999.25      -999.25      -999.25      -999.25      -999.25
 43802.0188657407 00:27:10/03-Dec-2019     390.0900      28.2512      12.0600      -999.25      -999.25      -999.25      -999.25      -999.25
 43802.0189814815 00:27:20/03-Dec-2019     390.1300      45.2480      12.0200      71.0000      -999.25       0.0000       0.0000      -999.25
 43802.0190972222 00:27:30/03-Dec-2019     390.1700      19.4968      11.9800      -999.25      45.0000      -999.25      -999.25      -999.25
 43802.0192129630 00:27:40/03-Dec-2019     390.2200      10.3500      11.9300      -999.25      -999.25      -999.25      -999.25      -999.25
 43802.0193287037 00:27:50/03-Dec-2019     390.2600      35.2307      11.8900      -999.25      -999.25      -999.25      -999.25      -999.25
 43802.0194444444 00:28:00/03-Dec-2019     390.3000      51.1037      11.8500      72.0000      -999.25      -999.25      -999.25      15.6867
 43802.0195601852 00:28:10/03-Dec-2019     390.2500      42.4720      11.9000      -999.25      69.0000       0.0000       0.0000      -999.25
 43802.0196759259 00:28:20/03-Dec-2019     390.5700      32.9655      11.5800      -999.25      -999.25      -999.25      -999.25      -999.25
 43802.0197916667 00:28:30/03-Dec-2019     390.0600      34.2442      12.0900      -999.25      -999.25      -999.25      -999.25      -999.25
 43802.0199074074 00:28:40/03-Dec-2019     390.3800      40.2305      11.7700      -999.25      -999.25      -999.25      -999.25      -999.25
 43802.0200231481 00:28:50/03-Dec-2019     390.5100      38.3869      11.6400      72.0000      -999.25       0.0000       0.0000      -999.25
 43802.0201388889 00:29:00/03-Dec-2019     390.4700      37.6304      11.6800      -999.25     108.0000      -999.25      -999.25      -999.25
 43802.0202546296 00:29:10/03-Dec-2019     390.7800      41.3255      11.3700      -999.25      -999.25      -999.25      -999.25      -999.25
 43802.0203703704 00:29:20/03-Dec-2019     390.8200      40.5690      11.3300      -999.25      -999.25      -999.25      -999.25      -999.25
 43802.0204861111 00:29:30/03-Dec-2019     390.5900      38.7253      11.5600      72.0000      -999.25      -999.25      -999.25      -999.25
 43802.0206018519 00:29:40/03-Dec-2019     390.6400      44.7116      11.5100      -999.25     102.0000       0.0000       0.0000      -999.25
 43802.0207175926 00:29:50/03-Dec-2019     390.6800      43.2462      11.4700      -999.25      -999.25      -999.25      -999.25      -999.25
 43802.0208333333 00:30:00/03-Dec-2019     390.7200      42.5324      11.4300      -999.25      -999.25      -999.25      -999.25      15.6867
 43802.0209490741 00:30:10/03-Dec-2019     390.7600      48.5187      11.3800      -999.25      -999.25      -999.25      -999.25      -999.25
 43802.0210648148 00:30:20/03-Dec-2019     390.8100      46.6751      11.3400      72.0000      -999.25       0.0000       0.0000      -999.25
 43802.0211805556 00:30:30/03-Dec-2019     390.8500      43.3569      11.3000      -999.25      75.0000      -999.25      -999.25      -999.25
 43802.0212962963 00:30:40/03-Dec-2019     390.8000      46.4437      11.3500      -999.25      -999.25      -999.25      -999.25      -999.25
 43802.0214120370 00:30:50/03-Dec-2019     390.6600      55.8357      11.4900      -999.25      -999.25      -999.25      -999.25      -999.25
 43802.0215277778 00:31:00/03-Dec-2019     391.1600      55.8357      11.1700      74.0000      -999.25       0.0000       0.0000      -999.25
 43802.0216435185 00:31:10/03-Dec-2019     391.0200      51.6930      11.1300      -999.25      30.0000      -999.25      -999.25      -999.25
 43802.0217592593 00:31:20/03-Dec-2019     391.0600      52.7521      11.0900      -999.25      -999.25      -999.25      -999.25      -999.25
 43802.0218750000 00:31:30/03-Dec-2019     391.1000      56.6005      11.0400      -999.25      -999.25      -999.25      -999.25      -999.25
 43802.0219907407 00:31:40/03-Dec-2019     391.2400      62.5868      10.9100      -999.25      -999.25      -999.25      -999.25      -999.25
 43802.0221064815 00:31:50/03-Dec-2019     391.1900      56.6005      10.8700      72.0000      90.0000       0.0000       0.0000      -999.25
 43802.0222222222 00:32:00/03-Dec-2019     391.0500      58.9688      11.1000      -999.25      -999.25      -999.25      -999.25      15.6867
 43802.0223379630 00:32:10/03-Dec-2019     391.2700      63.4069      10.8700      -999.25      -999.25      -999.25      -999.25      -999.25
 43802.0224537037 00:32:20/03-Dec-2019     391.3200      48.0933      10.8300      -999.25      -999.25      -999.25      -999.25      -999.25
 43802.0225694444 00:32:30/03-Dec-2019     391.3600      39.5949      10.7900      71.0000      -999.25       0.0000       0.0000      -999.25
 43802.0226851852 00:32:40/03-Dec-2019     391.4000      41.7992      10.7400      -999.25      90.0000      -999.25      -999.25      -999.25
 43802.0228009259 00:32:50/03-Dec-2019     391.5400      54.3873      10.6100      -999.25      -999.25      -999.25      -999.25      -999.25
 43802.0229166667 00:33:00/03-Dec-2019     391.4900      56.5917      10.6600      -999.25      -999.25      -999.25      -999.25      -999.25
 43802.0230324074 00:33:10/03-Dec-2019     391.5300      39.5949      10.6200      72.0000      -999.25      -999.25      -999.25      -999.25
 43802.0231481481 00:33:20/03-Dec-2019     391.5700      32.7797      10.5700      -999.25     108.0000       0.0000       0.0000      -999.25
 43802.0232638889 00:33:30/03-Dec-2019     391.4300      36.9399      10.5300      -999.25      -999.25      -999.25      -999.25      -999.25
 43802.0233796296 00:33:40/03-Dec-2019     391.5700      42.5324      10.5800      -999.25      -999.25      -999.25      -999.25      -999.25
 43802.0234953704 00:33:50/03-Dec-2019     391.7900      48.5187      10.3600      -999.25      -999.25      -999.25      -999.25      -999.25
 43802.0236111111 00:34:00/03-Dec-2019     391.9200      46.6751      10.2300      73.0000      -999.25       0.0000       0.0000      15.6867
 43802.0237268518 00:34:10/03-Dec-2019     391.6100      49.1758      10.5400      -999.25     105.0000      -999.25      -999.25      -999.25
 43802.0238425926 00:34:20/03-Dec-2019     391.6500      57.0654      10.5000      -999.25      -999.25      -999.25      -999.25      -999.25
 43802.0239583333 00:34:30/03-Dec-2019     391.8700      56.5917      10.2800      -999.25      -999.25      -999.25      -999.25      -999.25
 43802.0240740741 00:34:40/03-Dec-2019     391.9100      39.5949      10.2400      70.0000      -999.25       0.0000       0.0000      -999.25
 43802.0241898148 00:34:50/03-Dec-2019     391.9600      32.7797      10.1900      -999.25      87.0000      -999.25      -999.25      -999.25
 43802.0243055556 00:35:00/03-Dec-2019     391.8200      43.8367      10.3300      -999.25      -999.25      -999.25      -999.25      -999.25
 43802.0244212963 00:35:10/03-Dec-2019     391.8600      49.1829      10.2900      -999.25      -999.25      -999.25      -999.25      -999.25
 43802.0245370370 00:35:20/03-Dec-2019     391.9900      43.1966      10.1600      -999.25      -999.25      -999.25      -999.25      -999.25
 43802.0246527778 00:35:30/03-Dec-2019     391.9500      49.1829      10.2000      71.0000      60.0000       0.0000       0.0000      -999.25
