~VERSION INFORMATION 
VERS  .    2.0                                     :CWLS Log ASCII Standard - VERSION 2.0
WRAP  .    NO                                      :One Line per Time step
PROD  .    Schlumberger Technology Corp.           :LAS Producer
PROG  .    Horizon LASWriter 9.2.113335.3100       :LAS Program name and version
SOURCE.    Run 3-TimeLogicalAcq                    :Run&Pass Information
CREA  .    12/12/2019                              :LAS Creation date {MM/DD/YYYY}
#--------------------------------------------------
~WELL INFORMATION 
#MNEM           .UNIT                      DATA            :DESCRIPTION
#----            ------          --------------            -----------------------------
STRT            .d               43804.6875000000          :START TIME(OLE Automation date)
STOP            .d               43805.8541666667          :STOP TIME(OLE Automation date)
STEP            .d                            0            :STEP TIME(10s in time)
NULL            .                       -999.25            :NULL VALUE
COMP            .                       Equinor            :COMPANY
WELL            .                        31/5-7            :WELL NAME
FLD             .                           Eos            :FIELD NAME
RIGN            .                 West Hercules            :Rig Name
RIGTYP          .                Semi-Submersible          :Rig Type
SON             .                     19SCA0085            :Service Order Number
SRVC            .                  Schlumberger            :SERVICE COMPANY
DATE            .                    12/05/2019            :LOG DATE(Composite Date for Composite LAP) (MM/DD/YYYY)
CLAB            .                       County:            :County Label
CNTY            .                                          :COUNTY
SLAB            .                                          :State/Province Label
STAT            .                                          :STATE or PROVINCE
PROV            .                                          :STATE or PROVINCE
CTRY            .                        Norway            :COUNTRY
CONT_REGION     .                        Europe            :Continent Region
SECT            .                                          :Section
TOWN            .                                          :Township
RANG            .                                          :Range
API             .                                          :API NUMBER
UWI             .                                          :UNIQUE WELL ID
LUL             .                Service Office            :Logging Unit Location
LUN             .                          A615            :Logging Unit Number
LOC             .                Norwegian North Sea       :FIELD LOCATION
FL1             .                Section: 26 in.           :Field Location Line 1
FL2             .                Job no.: 19SCA0085        :Field Location Line 2
LATI            .deg             60° 34' 35.14" N          :LATITUDE
LONG            .deg             3° 26' 36.13" E           :LONGITUDE
PDAT            .                           MSL            :Local Permanent Datum
LMF             .                            DF            :Logging Measured From
APD             .m                        31.00            :Elevation of Depth Reference (LMF) Above Permanent Datum
EPD             .m                         0.00            :Elevation of Permanent Datum (PDAT) above Mean Sea Level
EKB             .m                      -999.25            :Elevation of Kelly Bushing Above Permanent Datum
EDF             .m                        31.00            :Elevation of Drill Floor Above Permanent Datum
EGL             .m                      -307.00            :Elevation of Ground Level Above Permanent Datum
ECF             .m                      -999.25            :Elevation of Casing Flange above Permanent Datum
#--------------------------------------------------
~CURVE INFORMATION
#MNEM           .UNIT                  API CODE            :DESCRIPTION
#----            ------          --------------            -----------------------------
TIME_1900       .d                                         :                                                        Time Index(OLE Automation date)
TIME            .s                                         :                                (10s)                   Time(hh mm ss/dd-MMM-yyyy)
DEPTH           .m                                         :(RT)    (DnMWorkflow)                                   Depth Index
GR_CAL          .gAPI                                      :(RT)    (ARC9)                                          Calibrated Gamma Ray
BLKP            .m                                         :(RT)    (DRILLING_SURFACE)                              Height of block above rig floor
CRPM            .c/min                                     :(RT)    (TELE900)                                       Collar Rotational Speed
STICK           .c/min                                     :(RT)    (TELE900)                                       Stick Slip Indicator
SHKPK           .gn                                        :(RT)    (TELE900)                                       Shock Peak
SHKRSK          .                                          :(RT)    (TELE900)                                       Shock Risk
DHAP            .bar                                       :(RM)    (ARC9)                                          Downhole Annulus Pressure
DHAT            .degC                                      :(RM)    (ARC9)                                          Downhole Annulus Temperature
ECD             .g/cm3                                     :(RM)    (ARC9)                                          Equivalent Circulating Density
#-------------------------------------------------------------
#       TIME_1900                 TIME        DEPTH       GR_CAL         BLKP         CRPM        STICK        SHKPK       SHKRSK         DHAP         DHAT          ECD 
#                                       (DnMWorkfl)       (ARC9)  (DRILLING_)    (TELE900)    (TELE900)    (TELE900)    (TELE900)       (ARC9)       (ARC9)       (ARC9) 
#                                              (RT)         (RT)         (RT)         (RT)         (RT)         (RT)         (RT)         (RM)         (RM)         (RM) 
#                                (10s)                                                                                                                                   
~ASCII
# ...
 43805.8486111111 20:22:00/06-Dec-2019     376.7900      -999.25       4.8800      -999.25      -999.25      -999.25      -999.25      35.7838      16.0000       1.1282
 43805.8487268519 20:22:10/06-Dec-2019     376.7900      -999.25       4.8800      -999.25      -999.25      -999.25      -999.25      35.7148      16.0000       1.1260
 43805.8488425926 20:22:20/06-Dec-2019     376.7900      -999.25       4.8700      -999.25      -999.25      -999.25      -999.25      35.7148      16.0000       1.1260
 43805.8489583333 20:22:30/06-Dec-2019     376.7900      -999.25       4.5000      -999.25      -999.25      -999.25      -999.25      35.7148      16.0000       1.1260
 43805.8490740741 20:22:40/06-Dec-2019     376.7900      -999.25       4.0900      -999.25      -999.25      -999.25      -999.25      35.6459      16.0000       1.1238
 43805.8491898148 20:22:50/06-Dec-2019     376.7900      -999.25       4.0900      -999.25      -999.25      -999.25      -999.25      35.6459      16.0000       1.1238
 43805.8493055556 20:23:00/06-Dec-2019     376.7900      -999.25       4.0900      -999.25      -999.25      -999.25      -999.25      35.7838      16.0000       1.1282
 43805.8494212963 20:23:10/06-Dec-2019     376.7900      -999.25       4.0900      -999.25      -999.25      -999.25      -999.25      35.7838      16.0000       1.1282
 43805.8495370370 20:23:20/06-Dec-2019     376.7900      -999.25       4.0700      -999.25      -999.25      -999.25      -999.25      35.7838      16.0000       1.1282
 43805.8496527778 20:23:30/06-Dec-2019     376.7900      -999.25       4.0700      -999.25      -999.25      -999.25      -999.25      35.7148      16.0000       1.1260
 43805.8497685185 20:23:40/06-Dec-2019     376.7900      -999.25       3.4700      -999.25      -999.25      -999.25      -999.25      35.6459      16.0000       1.1238
 43805.8498842593 20:23:50/06-Dec-2019     376.7900      -999.25       3.4900      -999.25      -999.25      -999.25      -999.25      35.7838      16.0000       1.1282
 43805.8500000000 20:24:00/06-Dec-2019     376.7900      -999.25       3.4900      -999.25      -999.25      -999.25      -999.25      35.7838      16.0000       1.1282
 43805.8501157407 20:24:10/06-Dec-2019     376.7900      -999.25       3.4900      -999.25      -999.25      -999.25      -999.25      35.7148      16.0000       1.1260
 43805.8502314815 20:24:20/06-Dec-2019     376.7900      -999.25       3.4900      -999.25      -999.25      -999.25      -999.25      35.6459      16.0000       1.1238
 43805.8503472222 20:24:30/06-Dec-2019     376.7900      -999.25       3.4900      -999.25      -999.25      -999.25      -999.25      35.7838      16.0000       1.1282
 43805.8504629630 20:24:40/06-Dec-2019     376.7900      -999.25       3.4900      -999.25      -999.25      -999.25      -999.25      35.6459      16.0000       1.1238
 43805.8505787037 20:24:50/06-Dec-2019     376.7900      -999.25       3.4900      -999.25      -999.25      -999.25      -999.25      35.6459      16.0000       1.1238
 43805.8506944444 20:25:00/06-Dec-2019     376.7900      -999.25       3.4900      -999.25      -999.25      -999.25      -999.25      35.6459      16.0000       1.1238
 43805.8508101852 20:25:10/06-Dec-2019     376.7900      -999.25       3.4900      -999.25      -999.25      -999.25      -999.25      35.6459      16.0000       1.1238
 43805.8509259259 20:25:20/06-Dec-2019     376.7900      -999.25       3.4900      -999.25      -999.25      -999.25      -999.25      35.6459      16.0000       1.1238
 43805.8510416667 20:25:30/06-Dec-2019     376.7900      -999.25       3.4900      -999.25      -999.25      -999.25      -999.25      35.6459      16.0000       1.1238
 43805.8511574074 20:25:40/06-Dec-2019     376.7900      -999.25       3.4900      -999.25      -999.25      -999.25      -999.25      35.6459      16.0000       1.1238
 43805.8512731481 20:25:50/06-Dec-2019     376.7900      -999.25       3.4900      -999.25      -999.25      -999.25      -999.25      35.7148      16.0000       1.1260
 43805.8513888889 20:26:00/06-Dec-2019     376.7900      -999.25       3.4900      -999.25      -999.25      -999.25      -999.25      35.5770      16.0000       1.1216
 43805.8515046296 20:26:10/06-Dec-2019     376.7900      -999.25       3.4900      -999.25      -999.25      -999.25      -999.25      35.6459      16.0000       1.1238
 43805.8516203704 20:26:20/06-Dec-2019     376.7900      -999.25       3.4900      -999.25      -999.25      -999.25      -999.25      35.6459      16.0000       1.1238
 43805.8517361111 20:26:30/06-Dec-2019     376.7900      -999.25       3.4900      -999.25      -999.25      -999.25      -999.25      35.6459      16.0000       1.1238
 43805.8518518518 20:26:40/06-Dec-2019     376.7900      -999.25       3.4900      -999.25      -999.25      -999.25      -999.25      35.6459      16.0000       1.1238
 43805.8519675926 20:26:50/06-Dec-2019     376.7900      -999.25       3.4900      -999.25      -999.25      -999.25      -999.25      35.5770      16.0000       1.1216
 43805.8520833333 20:27:00/06-Dec-2019     376.3900      -999.25       3.6900      -999.25      -999.25      -999.25      -999.25      35.6459      16.0000       1.1246
 43805.8521990741 20:27:10/06-Dec-2019     376.3900      -999.25       3.7000      -999.25      -999.25      -999.25      -999.25      35.6459      16.0000       1.1252
 43805.8523148148 20:27:20/06-Dec-2019     376.3900      -999.25       3.7000      -999.25      -999.25      -999.25      -999.25      35.5770      16.0000       1.1230
 43805.8524305556 20:27:30/06-Dec-2019     376.3900      -999.25       3.7000      -999.25      -999.25      -999.25      -999.25      35.7148      16.0000       1.1274
 43805.8525462963 20:27:40/06-Dec-2019     376.3900      -999.25       3.7000      -999.25      -999.25      -999.25      -999.25      35.6459      16.0000       1.1252
 43805.8526620370 20:27:50/06-Dec-2019     376.3900      -999.25       3.7000      -999.25      -999.25      -999.25      -999.25      35.7148      16.0000       1.1274
 43805.8527777778 20:28:00/06-Dec-2019     376.3900      -999.25       3.7000      -999.25      -999.25      -999.25      -999.25      35.6459      16.0000       1.1252
 43805.8528935185 20:28:10/06-Dec-2019     376.3900      -999.25       3.7000      -999.25      -999.25      -999.25      -999.25      35.6459      16.0000       1.1252
 43805.8530092593 20:28:20/06-Dec-2019     376.3900      -999.25       3.7000      -999.25      -999.25      -999.25      -999.25      35.6459      16.0000       1.1252
 43805.8531250000 20:28:30/06-Dec-2019     376.3900      -999.25       3.7000      -999.25      -999.25      -999.25      -999.25      35.6459      16.0000       1.1252
 43805.8532407407 20:28:40/06-Dec-2019     376.3900      -999.25       3.7000      -999.25      -999.25      -999.25      -999.25      35.6459      16.0000       1.1252
 43805.8533564815 20:28:50/06-Dec-2019     376.3900      -999.25       3.7000      -999.25      -999.25      -999.25      -999.25      35.5770      16.0000       1.1230
 43805.8534722222 20:29:00/06-Dec-2019     376.3900      -999.25       3.7000      -999.25      -999.25      -999.25      -999.25      35.5770      16.0000       1.1230
 43805.8535879630 20:29:10/06-Dec-2019     376.3900      -999.25       3.7000      -999.25      -999.25      -999.25      -999.25      35.6459      16.0000       1.1252
 43805.8537037037 20:29:20/06-Dec-2019     376.3900      -999.25       3.7000      -999.25      -999.25      -999.25      -999.25      35.6459      16.0000       1.1252
 43805.8538194444 20:29:30/06-Dec-2019     376.3900      -999.25       3.7000      -999.25      -999.25      -999.25      -999.25      35.6459      16.0000       1.1252
 43805.8539351852 20:29:40/06-Dec-2019     376.3900      -999.25       3.7000      -999.25      -999.25      -999.25      -999.25      35.6459      16.0000       1.1252
 43805.8540509259 20:29:50/06-Dec-2019     376.3900      -999.25       3.7000      -999.25      -999.25      -999.25      -999.25      35.6459      16.0000       1.1252
