~VERSION INFORMATION 
VERS  .    2.0                                     :CWLS Log ASCII Standard - VERSION 2.0
WRAP  .    NO                                      :One Line per Time step
PROD  .    Schlumberger Technology Corp.           :LAS Producer
PROG  .    Horizon LASWriter 9.2.113335.3100       :LAS Program name and version
SOURCE.    Run 8-TimeLogicalAcq                    :Run&Pass Information
CREA  .    12/30/2019                              :LAS Creation date {MM/DD/YYYY}
#--------------------------------------------------
~WELL INFORMATION 
#MNEM           .UNIT                      DATA            :DESCRIPTION
#----            ------          --------------            -----------------------------
STRT            .d               43822.4166666667          :START TIME(OLE Automation date)
STOP            .d               43824.6875000000          :STOP TIME(OLE Automation date)
STEP            .d                            0            :STEP TIME(10s in time)
NULL            .                       -999.25            :NULL VALUE
COMP            .                       Equinor            :COMPANY
WELL            .                        31/5-7            :WELL NAME
FLD             .                           Eos            :FIELD NAME
RIGN            .                 West Hercules            :Rig Name
RIGTYP          .                Semi-Submersible          :Rig Type
SON             .                     19SCA0085            :Service Order Number
SRVC            .                  Schlumberger            :SERVICE COMPANY
DATE            .                    12/23/2019            :LOG DATE(Composite Date for Composite LAP) (MM/DD/YYYY)
CLAB            .                       County:            :County Label
CNTY            .                                          :COUNTY
SLAB            .                                          :State/Province Label
STAT            .                                          :STATE or PROVINCE
PROV            .                                          :STATE or PROVINCE
CTRY            .                        Norway            :COUNTRY
CONT_REGION     .                        Europe            :Continent Region
SECT            .                                          :Section
TOWN            .                                          :Township
RANG            .                                          :Range
API             .                                          :API NUMBER
UWI             .                                          :UNIQUE WELL ID
LUL             .                Service Office            :Logging Unit Location
LUN             .                          A615            :Logging Unit Number
LOC             .                Norwegian North Sea       :FIELD LOCATION
FL1             .                Section: 12 1/4 in.       :Field Location Line 1
FL2             .                Job no.: 19SCA0085        :Field Location Line 2
LATI            .deg             60° 34' 35.14" N          :LATITUDE
LONG            .deg             3° 26' 36.13" E           :LONGITUDE
PDAT            .                           MSL            :Local Permanent Datum
LMF             .                            DF            :Logging Measured From
APD             .m                        31.00            :Elevation of Depth Reference (LMF) Above Permanent Datum
EPD             .m                         0.00            :Elevation of Permanent Datum (PDAT) above Mean Sea Level
EKB             .m                      -999.25            :Elevation of Kelly Bushing Above Permanent Datum
EDF             .m                        31.00            :Elevation of Drill Floor Above Permanent Datum
EGL             .m                      -307.00            :Elevation of Ground Level Above Permanent Datum
ECF             .m                      -999.25            :Elevation of Casing Flange above Permanent Datum
#--------------------------------------------------
~CURVE INFORMATION
#MNEM           .UNIT                  API CODE            :DESCRIPTION
#----            ------          --------------            -----------------------------
TIME_1900       .d                                         :                                                        Time Index(OLE Automation date)
TIME            .s                                         :                                (10s)                   Time(hh mm ss/dd-MMM-yyyy)
DEPTH           .m                                         :(RT)    (DnMWorkflow)                                   Depth Index
GR              .gAPI                                      :(RT)    (ARC9)                                          Gamma Ray
BLKP            .m                                         :(RT)    (DRILLING_SURFACE)                              Height of block above rig floor
CRPM            .c/min                                     :(RT)    (TELE900)                                       Collar Rotational Speed
STICK           .c/min                                     :(RT)    (TELE900)                                       Stick Slip Indicator
SHKPK           .gn                                        :(RT)    (TELE900)                                       Shock Peak
SHKRSK          .                                          :(RT)    (TELE900)                                       Shock Risk
DHAP            .bar                                       :(RM)    (ARC9)                                          Downhole Annulus Pressure
DHAT            .degC                                      :(RM)    (ARC9)                                          Downhole Annulus Temperature
ECD             .g/cm3                                     :(RM)    (ARC9)                                          Equivalent Circulating Density
#-------------------------------------------------------------
#       TIME_1900                 TIME        DEPTH           GR         BLKP         CRPM        STICK        SHKPK       SHKRSK         DHAP         DHAT          ECD 
#                                       (DnMWorkfl)       (ARC9)  (DRILLING_)    (TELE900)    (TELE900)    (TELE900)    (TELE900)       (ARC9)       (ARC9)       (ARC9) 
#                                              (RT)         (RT)         (RT)         (RT)         (RT)         (RT)         (RT)         (RM)         (RM)         (RM) 
#                                (10s)                                                                                                                                   
~ASCII
# ...
 43824.4111111111 09:52:00/25-Dec-2019    2356.7800      -999.25      16.8800      -999.25      -999.25      -999.25      -999.25     291.9240      45.0000       1.2692
 43824.4112268519 09:52:10/25-Dec-2019    2356.7800      -999.25      16.8800      -999.25      -999.25      -999.25      -999.25     292.2688      45.0000       1.2707
 43824.4113425926 09:52:20/25-Dec-2019    2356.7800      -999.25      16.8800      -999.25      -999.25      -999.25      -999.25     292.0619      45.0000       1.2698
 43824.4114583333 09:52:30/25-Dec-2019    2356.7800      -999.25      16.8800      -999.25      -999.25      -999.25      -999.25     291.5793      45.0000       1.2677
 43824.4115740741 09:52:40/25-Dec-2019    2356.7800      -999.25      16.8800      -999.25      -999.25      -999.25      -999.25     291.0277      45.0000       1.2653
 43824.4116898148 09:52:50/25-Dec-2019    2356.7800      -999.25      16.8800      -999.25      -999.25      -999.25      -999.25     291.5103      45.0000       1.2674
 43824.4118055556 09:53:00/25-Dec-2019    2356.7800      -999.25      16.8800      -999.25      -999.25      -999.25      -999.25     292.1309      45.0000       1.2701
 43824.4119212963 09:53:10/25-Dec-2019    2356.7800      -999.25      16.8800      -999.25      -999.25      -999.25      -999.25     291.9240      45.0000       1.2692
 43824.4120370370 09:53:20/25-Dec-2019    2356.7800      -999.25      16.8800      -999.25      -999.25      -999.25      -999.25     291.7861      45.0000       1.2686
 43824.4121527778 09:53:30/25-Dec-2019    2356.7800      -999.25      16.8800      -999.25      -999.25      -999.25      -999.25     292.0619      45.0000       1.2698
 43824.4122685185 09:53:40/25-Dec-2019    2356.7800      -999.25      16.8800      -999.25      -999.25      -999.25      -999.25     292.6824      45.0000       1.2725
 43824.4123842593 09:53:50/25-Dec-2019    2356.7800      -999.25      16.8800      -999.25      -999.25      -999.25      -999.25     291.8551      45.0000       1.2689
 43824.4125000000 09:54:00/25-Dec-2019    2356.7800      -999.25      16.8800      -999.25      -999.25      -999.25      -999.25     291.1656      45.0000       1.2659
 43824.4126157407 09:54:10/25-Dec-2019    2356.7800      -999.25      16.8800      -999.25      -999.25      -999.25      -999.25     291.4414      45.0000       1.2671
 43824.4127314815 09:54:20/25-Dec-2019    2356.7800      -999.25      16.8800      -999.25      -999.25      -999.25      -999.25     292.6135      46.0000       1.2722
 43824.4128472222 09:54:30/25-Dec-2019    2356.7800      -999.25      16.8800      -999.25      -999.25      -999.25      -999.25     293.0272      46.0000       1.2740
 43824.4129629630 09:54:40/25-Dec-2019    2356.7800      -999.25      16.8800      -999.25      -999.25      -999.25      -999.25     291.9930      46.0000       1.2695
 43824.4130787037 09:54:50/25-Dec-2019    2356.7800      -999.25      16.8800      -999.25      -999.25      -999.25      -999.25     291.8551      46.0000       1.2689
 43824.4131944444 09:55:00/25-Dec-2019    2356.7800      -999.25      16.8800      -999.25      -999.25      -999.25      -999.25     292.0619      46.0000       1.2698
 43824.4133101852 09:55:10/25-Dec-2019    2356.7800      -999.25      16.8800      -999.25      -999.25      -999.25      -999.25     291.9930      46.0000       1.2695
 43824.4134259259 09:55:20/25-Dec-2019    2356.7800      -999.25      16.8800      -999.25      -999.25      -999.25      -999.25     292.1309      46.0000       1.2701
 43824.4135416667 09:55:30/25-Dec-2019    2356.7800      -999.25      16.8800      -999.25      -999.25      -999.25      -999.25     291.9930      46.0000       1.2695
 43824.4136574074 09:55:40/25-Dec-2019    2356.7800      -999.25      16.8800      -999.25      -999.25      -999.25      -999.25     291.5793      46.0000       1.2677
 43824.4137731481 09:55:50/25-Dec-2019    2356.7800      -999.25      16.8800      -999.25      -999.25      -999.25      -999.25     291.0967      46.0000       1.2656
 43824.4138888889 09:56:00/25-Dec-2019    2356.7800      -999.25      16.8800      -999.25      -999.25      -999.25      -999.25     291.5793      46.0000       1.2677
 43824.4140046296 09:56:10/25-Dec-2019    2356.7800      -999.25      16.8800      -999.25      -999.25      -999.25      -999.25     292.2688      46.0000       1.2707
 43824.4141203704 09:56:20/25-Dec-2019    2356.7800      -999.25      16.8800      -999.25      -999.25      -999.25      -999.25     292.1998      46.0000       1.2704
 43824.4142361111 09:56:30/25-Dec-2019    2356.7800      -999.25      16.8800      -999.25      -999.25      -999.25      -999.25     291.9240      46.0000       1.2692
 43824.4143518518 09:56:40/25-Dec-2019    2356.7800      -999.25      16.8800      -999.25      -999.25      -999.25      -999.25     292.4756      46.0000       1.2716
 43824.4144675926 09:56:50/25-Dec-2019    2356.7800      -999.25      16.8800      -999.25      -999.25      -999.25      -999.25     292.6824      46.0000       1.2725
 43824.4145833333 09:57:00/25-Dec-2019    2356.7800      -999.25      16.8800      -999.25      -999.25      -999.25      -999.25     291.4414      46.0000       1.2671
 43824.4146990741 09:57:10/25-Dec-2019    2356.7800      -999.25      16.8800      -999.25      -999.25      -999.25      -999.25     291.5793      46.0000       1.2677
 43824.4148148148 09:57:20/25-Dec-2019    2356.7800      -999.25      16.8800      -999.25      -999.25      -999.25      -999.25     292.0619      46.0000       1.2698
 43824.4149305556 09:57:30/25-Dec-2019    2356.7800      -999.25      16.8800      -999.25      -999.25      -999.25      -999.25     292.2688      46.0000       1.2707
 43824.4150462963 09:57:40/25-Dec-2019    2356.7800      -999.25      16.8800      -999.25      -999.25      -999.25      -999.25     292.6824      46.0000       1.2725
 43824.4151620370 09:57:50/25-Dec-2019    2356.7800      -999.25      16.8800      -999.25      -999.25      -999.25      -999.25     292.6135      46.0000       1.2722
 43824.4152777778 09:58:00/25-Dec-2019    2356.7800      -999.25      16.8800      -999.25      -999.25      -999.25      -999.25     290.8209      46.0000       1.2644
 43824.4153935185 09:58:10/25-Dec-2019    2356.7800      -999.25      16.8800      -999.25      -999.25      -999.25      -999.25     290.8898      46.0000       1.2647
 43824.4155092593 09:58:20/25-Dec-2019    2356.7800      -999.25      16.8800      -999.25      -999.25      -999.25      -999.25     292.9582      46.0000       1.2737
 43824.4156250000 09:58:30/25-Dec-2019    2356.7800      -999.25      16.8800      -999.25      -999.25      -999.25      -999.25     292.9582      46.0000       1.2737
 43824.4157407407 09:58:40/25-Dec-2019    2356.7800      -999.25      16.8800      -999.25      -999.25      -999.25      -999.25     291.2346      46.0000       1.2662
 43824.4158564815 09:58:50/25-Dec-2019    2356.7800      -999.25      16.8800      -999.25      -999.25      -999.25      -999.25     291.1656      46.0000       1.2659
 43824.4159722222 09:59:00/25-Dec-2019    2356.7800      -999.25      16.8800      -999.25      -999.25      -999.25      -999.25     293.0961      46.0000       1.2743
 43824.4160879630 09:59:10/25-Dec-2019    2356.7800      -999.25      16.8800      -999.25      -999.25      -999.25      -999.25     292.8204      46.0000       1.2731
 43824.4162037037 09:59:20/25-Dec-2019    2356.7800      -999.25      16.8800      -999.25      -999.25      -999.25      -999.25     291.2346      46.0000       1.2662
 43824.4163194444 09:59:30/25-Dec-2019    2356.7800      -999.25      16.8800      -999.25      -999.25      -999.25      -999.25     291.6482      46.0000       1.2680
 43824.4164351852 09:59:40/25-Dec-2019    2356.7800      -999.25      16.8800      -999.25      -999.25      -999.25      -999.25     291.9240      46.0000       1.2692
 43824.4165509259 09:59:50/25-Dec-2019    2356.7800      -999.25      16.8800      -999.25      -999.25      -999.25      -999.25     291.5103      46.0000       1.2674
