~VERSION INFORMATION 
VERS  .    2.0                                     :CWLS Log ASCII Standard - VERSION 2.0
WRAP  .    NO                                      :One Line per Time step
PROD  .    Schlumberger Technology Corp.           :LAS Producer
PROG  .    Horizon LASWriter 9.0.106845.3100       :LAS Program name and version
SOURCE.    Run 1-TimeLogicalAcq                    :Run&Pass Information
CREA  .    12/03/2019                              :LAS Creation date {MM/DD/YYYY}
#--------------------------------------------------
~WELL INFORMATION 
#MNEM           .UNIT                      DATA            :DESCRIPTION
#----            ------          --------------            -----------------------------
STRT            .d               43801.7395833334          :START TIME(OLE Automation date)
STOP            .d               43802.2048611111          :STOP TIME(OLE Automation date)
STEP            .d                            0            :STEP TIME(10s in time)
NULL            .                       -999.25            :NULL VALUE
COMP            .                       Equinor            :COMPANY
WELL            .                        31/5-7            :WELL NAME
FLD             .                           Eos            :FIELD NAME
RIGN            .                 West Hercules            :Rig Name
RIGTYP          .                Semi-Submersible          :Rig Type
SON             .                     19SCA0085            :Service Order Number
SRVC            .                  Schlumberger            :SERVICE COMPANY
DATE            .                    12/02/2019            :LOG DATE(Composite Date for Composite LAP) (MM/DD/YYYY)
CLAB            .                       County:            :County Label
CNTY            .                                          :COUNTY
SLAB            .                                          :State/Province Label
STAT            .                                          :STATE or PROVINCE
PROV            .                                          :STATE or PROVINCE
CTRY            .                        Norway            :COUNTRY
CONT_REGION     .                        Europe            :Continent Region
SECT            .                                          :Section
TOWN            .                                          :Township
RANG            .                                          :Range
API             .                                          :API NUMBER
UWI             .                                          :UNIQUE WELL ID
LUL             .                Service Office            :Logging Unit Location
LUN             .                          A615            :Logging Unit Number
LOC             .                Norwegian North Sea       :FIELD LOCATION
FL1             .                Section: 36 in.           :Field Location Line 1
FL2             .                Job no.: 19SCA0085        :Field Location Line 2
LATI            .deg             60° 34' 35.14" N          :LATITUDE
LONG            .deg             3° 26' 36.13" E           :LONGITUDE
PDAT            .                           MSL            :Local Permanent Datum
LMF             .                            DF            :Logging Measured From
APD             .m                        31.00            :Elevation of Depth Reference (LMF) Above Permanent Datum
EPD             .m                         0.00            :Elevation of Permanent Datum (PDAT) above Mean Sea Level
EKB             .m                      -999.25            :Elevation of Kelly Bushing Above Permanent Datum
EDF             .m                        31.00            :Elevation of Drill Floor Above Permanent Datum
EGL             .m                      -307.00            :Elevation of Ground Level Above Permanent Datum
ECF             .m                      -999.25            :Elevation of Casing Flange above Permanent Datum
#--------------------------------------------------
~CURVE INFORMATION
#MNEM           .UNIT                  API CODE            :DESCRIPTION
#----            ------          --------------            -----------------------------
TIME_1900       .d                                         :                                                        Time Index(OLE Automation date)
TIME            .s                                         :                                (10s)                   Time(hh mm ss/dd-MMM-yyyy)
DEPTH           .m                                         :(RT)    (DnMWorkflow)                                   Depth Index
GR              .gAPI                                      :(RT)    (TELE900)                                       Gamma Ray
BLKP            .m                                         :(RT)    (DRILLING_SURFACE)                              Height of block above rig floor
CRPM            .c/min                                     :(RT)    (TELE900)                                       Collar Rotational Speed
STICK           .c/min                                     :(RT)    (TELE900)                                       Stick Slip Indicator
SHKPK           .gn                                        :(RT)    (TELE900)                                       Shock Peak
SHKRSK          .                                          :(RT)    (TELE900)                                       Shock Risk
TEMP_DNI        .degC                                      :(RM)    (TELE900)                                       Direction and Inclination Sensor Temperature
#-------------------------------------------------------------
#       TIME_1900                 TIME        DEPTH           GR         BLKP         CRPM        STICK        SHKPK       SHKRSK     TEMP_DNI 
#                                       (DnMWorkfl)    (TELE900)  (DRILLING_)    (TELE900)    (TELE900)    (TELE900)    (TELE900)    (TELE900) 
#                                              (RT)         (RT)         (RT)         (RT)         (RT)         (RT)         (RT)         (RM) 
#                                (10s)                                                                                                         
~ASCII
# ...
 43802.0766203704 01:50:20/03-Dec-2019     403.0500      26.2715      37.8200      68.0000      -999.25      -999.25      -999.25      -999.25
 43802.0767361111 01:50:30/03-Dec-2019     403.1000      20.2852      37.6800      -999.25      60.0000       0.0000       0.0000      -999.25
 43802.0768518519 01:50:40/03-Dec-2019     403.0400      22.0322      37.8300      -999.25      -999.25      -999.25      -999.25      -999.25
 43802.0769675926 01:50:50/03-Dec-2019     402.9900      25.6270      37.8800      -999.25      -999.25      -999.25      -999.25      -999.25
 43802.0770833333 01:51:00/03-Dec-2019     403.0400      19.6407      37.7400      -999.25      -999.25      -999.25      -999.25      -999.25
 43802.0771990741 01:51:10/03-Dec-2019     403.2700      21.4843      37.6000      65.0000      -999.25       0.0000       0.0000      -999.25
 43802.0773148148 01:51:20/03-Dec-2019     403.2200      22.0696      37.6500      -999.25      45.0000      -999.25      -999.25      -999.25
 43802.0774305556 01:51:30/03-Dec-2019     403.1700      18.1717      37.6100      -999.25      -999.25      -999.25      -999.25      -999.25
 43802.0775462963 01:51:40/03-Dec-2019     403.3100      18.7570      37.5600      -999.25      -999.25      -999.25      -999.25      -999.25
 43802.0776620370 01:51:50/03-Dec-2019     403.4500      20.6006      37.4200      67.0000      -999.25      -999.25      -999.25      -999.25
 43802.0777777778 01:52:00/03-Dec-2019     403.4900      14.6143      37.3800      -999.25      39.0000       0.0000       0.0000      14.9023
 43802.0778935185 01:52:10/03-Dec-2019     403.5400      22.0696      37.4300      -999.25      -999.25      -999.25      -999.25      -999.25
 43802.0780092593 01:52:20/03-Dec-2019     403.1000      25.6270      37.7700      -999.25      -999.25      -999.25      -999.25      -999.25
 43802.0781250000 01:52:30/03-Dec-2019     403.3400      19.6407      37.5300      -999.25      -999.25      -999.25      -999.25      -999.25
 43802.0782407407 01:52:40/03-Dec-2019     403.6700      21.4843      37.2000      68.0000      -999.25       0.0000       0.0000      -999.25
 43802.0783564815 01:52:50/03-Dec-2019     403.4300      24.9132      37.4400      -999.25      33.0000      -999.25      -999.25      -999.25
 43802.0784722222 01:53:00/03-Dec-2019     403.3800      24.1616      37.4900      -999.25      -999.25      -999.25      -999.25      -999.25
 43802.0785879630 01:53:10/03-Dec-2019     403.5200      27.5904      37.3500      -999.25      -999.25      -999.25      -999.25      -999.25
 43802.0787037037 01:53:20/03-Dec-2019     403.3700      27.5904      37.5000      66.0000      -999.25       0.0000       0.0000      -999.25
 43802.0788194444 01:53:30/03-Dec-2019     403.6000      23.4478      37.2700      -999.25      30.0000      -999.25      -999.25      -999.25
 43802.0789351852 01:53:40/03-Dec-2019     403.6500      25.8940      37.2200      -999.25      -999.25      -999.25      -999.25      -999.25
 43802.0790509259 01:53:50/03-Dec-2019     403.4000      30.4273      37.4700      -999.25      -999.25      -999.25      -999.25      -999.25
 43802.0791666667 01:54:00/03-Dec-2019     403.5500      36.4136      37.3200      -999.25      -999.25      -999.25      -999.25      14.9023
 43802.0792824074 01:54:10/03-Dec-2019     403.5900      30.4273      37.2800      68.0000      -999.25       0.0000       0.0000      -999.25
 43802.0793981481 01:54:20/03-Dec-2019     403.8300      23.9061      37.0400      -999.25      36.0000      -999.25      -999.25      -999.25
 43802.0795138889 01:54:30/03-Dec-2019     403.9700      17.3407      36.9000      -999.25      -999.25      -999.25      -999.25      -999.25
 43802.0796296296 01:54:40/03-Dec-2019     403.6300      21.4834      37.2400      -999.25      -999.25      -999.25      -999.25      -999.25
 43802.0797453704 01:54:50/03-Dec-2019     403.3800      21.4834      37.4900      70.0000      -999.25       0.0000       0.0000      -999.25
 43802.0798611111 01:55:00/03-Dec-2019     403.7200      19.6069      37.1500      -999.25      27.0000      -999.25      -999.25      -999.25
 43802.0799768518 01:55:10/03-Dec-2019     403.8600      24.0535      37.0100      -999.25      -999.25      -999.25      -999.25      -999.25
 43802.0800925926 01:55:20/03-Dec-2019     403.8000      33.7921      37.0700      -999.25      -999.25      -999.25      -999.25      -999.25
 43802.0802083333 01:55:30/03-Dec-2019     403.8500      35.4343      37.0200      69.0000      -999.25      -999.25      -999.25      -999.25
 43802.0803240741 01:55:40/03-Dec-2019     403.8000      30.9467      37.1700      -999.25      27.0000       0.0000       0.0000      -999.25
 43802.0804398148 01:55:50/03-Dec-2019     403.7400      26.2307      37.1300      -999.25      -999.25      -999.25      -999.25      -999.25
 43802.0805555556 01:56:00/03-Dec-2019     403.7900      26.8285      37.0900      -999.25      -999.25      -999.25      -999.25      14.9023
 43802.0806712963 01:56:10/03-Dec-2019     403.8300      32.8148      37.0400      -999.25      -999.25      -999.25      -999.25      -999.25
 43802.0807870370 01:56:20/03-Dec-2019     403.7800      30.9711      37.0900      66.0000      -999.25       0.0000       0.0000      -999.25
 43802.0809027778 01:56:30/03-Dec-2019     403.7300      23.5063      37.1400      -999.25      27.0000      -999.25      -999.25      -999.25
 43802.0810185185 01:56:40/03-Dec-2019     403.4800      23.5063      37.2900      -999.25      -999.25      -999.25      -999.25      -999.25
 43802.0811342593 01:56:50/03-Dec-2019     403.8200      30.9711      36.8600      -999.25      -999.25      -999.25      -999.25      -999.25
 43802.0812500000 01:57:00/03-Dec-2019     404.3400      30.9711      36.3400      66.0000      -999.25       0.0000       0.0000      -999.25
 43802.0813657407 01:57:10/03-Dec-2019     404.0800      26.8285      36.7900      -999.25      36.0000      -999.25      -999.25      -999.25
 43802.0814814815 01:57:20/03-Dec-2019     404.0800      38.2649      36.7900      -999.25      -999.25      -999.25      -999.25      -999.25
 43802.0815972222 01:57:30/03-Dec-2019     404.0800      47.0037      36.7900      -999.25      -999.25      -999.25      -999.25      -999.25
 43802.0817129630 01:57:40/03-Dec-2019     404.0800      52.9900      36.7900      -999.25      -999.25      -999.25      -999.25      -999.25
 43802.0818287037 01:57:50/03-Dec-2019     403.9800      47.0037      36.7900      66.0000      -999.25       0.0000       0.0000      -999.25
 43802.0819444444 01:58:00/03-Dec-2019     404.0800      41.8971      36.7900      -999.25      30.0000      -999.25      -999.25      14.9023
 43802.0820601852 01:58:10/03-Dec-2019     404.0800      38.2793      36.7000      -999.25      -999.25      -999.25      -999.25      -999.25
 43802.0821759259 01:58:20/03-Dec-2019     404.3700      42.4219      36.5000      -999.25      -999.25      -999.25      -999.25      -999.25
 43802.0822916667 01:58:30/03-Dec-2019     404.2700      42.4219      36.6000      68.0000      -999.25       0.0000       0.0000      -999.25
 43802.0824074074 01:58:40/03-Dec-2019     404.3700      38.9731      36.5000      -999.25      39.0000      -999.25      -999.25      -999.25
 43802.0825231481 01:58:50/03-Dec-2019     404.7500      42.0759      36.1200      -999.25      -999.25      -999.25      -999.25      -999.25
 43802.0826388889 01:59:00/03-Dec-2019     404.3700      54.3173      36.6000      -999.25      -999.25      -999.25      -999.25      -999.25
 43802.0827546296 01:59:10/03-Dec-2019     404.2700      62.8157      36.5000      70.0000      -999.25      -999.25      -999.25      -999.25
 43802.0828703704 01:59:20/03-Dec-2019     404.8400      78.1293      36.0300      -999.25      36.0000       0.0000       0.0000      -999.25
 43802.0829861111 01:59:30/03-Dec-2019     404.4600      78.1330      36.5000      -999.25      -999.25      -999.25      -999.25      -999.25
