~VERSION INFORMATION 
VERS  .    2.0                                     :CWLS Log ASCII Standard - VERSION 2.0
WRAP  .    NO                                      :One Line per Time step
PROD  .    Schlumberger Technology Corp.           :LAS Producer
PROG  .    Horizon LASWriter 9.2.113335.3100       :LAS Program name and version
SOURCE.    Run 5-TimeLogicalAcq                    :Run&Pass Information
CREA  .    12/20/2019                              :LAS Creation date {MM/DD/YYYY}
#--------------------------------------------------
~WELL INFORMATION 
#MNEM           .UNIT                      DATA            :DESCRIPTION
#----            ------          --------------            -----------------------------
STRT            .d               43815.4062500000          :START TIME(OLE Automation date)
STOP            .d               43816.7395833333          :STOP TIME(OLE Automation date)
STEP            .d                            0            :STEP TIME(10s in time)
NULL            .                       -999.25            :NULL VALUE
COMP            .                       Equinor            :COMPANY
WELL            .                        31/5-7            :WELL NAME
FLD             .                           Eos            :FIELD NAME
RIGN            .                 West Hercules            :Rig Name
RIGTYP          .                Semi-Submersible          :Rig Type
SON             .                     19SCA0085            :Service Order Number
SRVC            .                  Schlumberger            :SERVICE COMPANY
DATE            .                    12/16/2019            :LOG DATE(Composite Date for Composite LAP) (MM/DD/YYYY)
CLAB            .                       County:            :County Label
CNTY            .                                          :COUNTY
SLAB            .                                          :State/Province Label
STAT            .                                          :STATE or PROVINCE
PROV            .                                          :STATE or PROVINCE
CTRY            .                        Norway            :COUNTRY
CONT_REGION     .                        Europe            :Continent Region
SECT            .                                          :Section
TOWN            .                                          :Township
RANG            .                                          :Range
API             .                                          :API NUMBER
UWI             .                                          :UNIQUE WELL ID
LUL             .                Service Office            :Logging Unit Location
LUN             .                          A615            :Logging Unit Number
LOC             .                Norwegian North Sea       :FIELD LOCATION
FL1             .                Section: 12 1/4 in. pilot :Field Location Line 1
FL2             .                Job no.: 19SCA0085        :Field Location Line 2
LATI            .deg             60° 34' 35.14" N          :LATITUDE
LONG            .deg             3° 26' 36.13" E           :LONGITUDE
PDAT            .                           MSL            :Local Permanent Datum
LMF             .                            DF            :Logging Measured From
APD             .m                        31.00            :Elevation of Depth Reference (LMF) Above Permanent Datum
EPD             .m                         0.00            :Elevation of Permanent Datum (PDAT) above Mean Sea Level
EKB             .m                      -999.25            :Elevation of Kelly Bushing Above Permanent Datum
EDF             .m                        31.00            :Elevation of Drill Floor Above Permanent Datum
EGL             .m                      -307.00            :Elevation of Ground Level Above Permanent Datum
ECF             .m                      -999.25            :Elevation of Casing Flange above Permanent Datum
#--------------------------------------------------
~CURVE INFORMATION
#MNEM           .UNIT                  API CODE            :DESCRIPTION
#----            ------          --------------            -----------------------------
TIME_1900       .d                                         :                                                        Time Index(OLE Automation date)
TIME            .s                                         :                                (10s)                   Time(hh mm ss/dd-MMM-yyyy)
DEPTH           .m                                         :(RT)    (DnMWorkflow)                                   Depth Index
GR              .gAPI                                      :(RT)    (ARC9)                                          Gamma Ray
BLKP            .m                                         :(RT)    (DRILLING_SURFACE)                              Height of block above rig floor
STICK           .c/min                                     :(RT)    (TELE900)                                       Stick Slip Indicator
CRPM            .c/min                                     :(RT)    (TELE900)                                       Collar Rotational Speed
SHKRSK          .                                          :(RT)    (TELE900)                                       Shock Risk
SHKPK           .gn                                        :(RT)    (TELE900)                                       Shock Peak
ECD             .g/cm3                                     :(RM)    (ARC9)                                          Equivalent Circulating Density
DHAP            .bar                                       :(RM)    (ARC9)                                          Downhole Annulus Pressure
DHAT            .degC                                      :(RM)    (ARC9)                                          Downhole Annulus Temperature
#-------------------------------------------------------------
#       TIME_1900                 TIME        DEPTH           GR         BLKP        STICK         CRPM       SHKRSK        SHKPK          ECD         DHAP         DHAT 
#                                       (DnMWorkfl)       (ARC9)  (DRILLING_)    (TELE900)    (TELE900)    (TELE900)    (TELE900)       (ARC9)       (ARC9)       (ARC9) 
#                                              (RT)         (RT)         (RT)         (RT)         (RT)         (RT)         (RT)         (RM)         (RM)         (RM) 
#                                (10s)                                                                                                                                   
~ASCII
# ...
 43816.5618055556 13:29:00/17-Dec-2019    1224.7500      75.8547      27.5300      54.0000      -999.25      -999.25      -999.25       1.3076     155.5457      26.0000
 43816.5619212963 13:29:10/17-Dec-2019    1223.1200      79.8010      29.0600      -999.25      -999.25       0.0000       0.0000       1.3084     155.4768      26.0000
 43816.5620370370 13:29:20/17-Dec-2019    1221.5000      90.0877      30.7300      -999.25      -999.25      -999.25      -999.25       1.3056     154.9252      26.0000
 43816.5621527778 13:29:30/17-Dec-2019    1219.8000      93.1479      32.3900      -999.25      -999.25      -999.25      -999.25       1.3048     154.5805      26.0000
 43816.5622685185 13:29:40/17-Dec-2019    1218.1700      91.7451      34.0500      -999.25      -999.25      -999.25      -999.25       1.3097     154.9941      26.0000
 43816.5623842593 13:29:50/17-Dec-2019    1216.5801      85.2937      35.6500      -999.25      -999.25      -999.25      -999.25       1.3095     154.7183      26.0000
 43816.5625000000 13:30:00/17-Dec-2019    1214.8301      83.4430      37.4200      -999.25      -999.25      -999.25      -999.25       1.3075     154.3047      26.0000
 43816.5626157407 13:30:10/17-Dec-2019    1213.0900      -999.25      39.1000      -999.25      -999.25      -999.25      -999.25       1.3059     153.8910      26.0000
 43816.5627314815 13:30:20/17-Dec-2019    1211.4000      -999.25      40.8400      -999.25      -999.25      -999.25      -999.25       1.3052     153.5462      26.0000
 43816.5628472222 13:30:30/17-Dec-2019    1209.6000      -999.25      42.6300      -999.25      -999.25      -999.25      -999.25       1.3044     153.2705      26.0000
 43816.5629629630 13:30:40/17-Dec-2019    1208.6000      -999.25      43.6000      -999.25      -999.25      -999.25      -999.25       1.3058     153.2705      26.0000
 43816.5630787037 13:30:50/17-Dec-2019    1208.2600      -999.25      43.8200      -999.25      -999.25      -999.25      -999.25       1.3161     154.4426      26.0000
 43816.5631944444 13:31:00/17-Dec-2019    1209.0000      -999.25      43.1900      -999.25      -999.25      -999.25      -999.25       1.3046     153.2015      26.0000
 43816.5633101852 13:31:10/17-Dec-2019    1208.9200      -999.25      43.2200      -999.25      -999.25      -999.25      -999.25       1.2718     149.3404      26.0000
 43816.5634259259 13:31:20/17-Dec-2019    1208.9200      -999.25      43.2200      -999.25      -999.25      -999.25      -999.25       1.2877     151.2020      26.0000
 43816.5635416667 13:31:30/17-Dec-2019    1208.9601      -999.25      43.1800      -999.25      -999.25      -999.25      -999.25       1.2929     151.8226      26.0000
 43816.5636574074 13:31:40/17-Dec-2019    1208.9700      -999.25      43.1700      -999.25      -999.25      -999.25      -999.25       1.2923     151.7536      26.0000
 43816.5637731481 13:31:50/17-Dec-2019    1208.9700      -999.25      43.1700      -999.25      -999.25      -999.25      -999.25       1.2917     151.6847      26.0000
 43816.5638888889 13:32:00/17-Dec-2019    1208.9700      -999.25      43.1700      -999.25      -999.25      -999.25      -999.25       1.2935     151.8915      26.0000
 43816.5640046296 13:32:10/17-Dec-2019    1208.9700      -999.25      43.1700      -999.25      -999.25      -999.25      -999.25       1.2847     150.8573      26.0000
 43816.5641203704 13:32:20/17-Dec-2019    1208.9700      -999.25      43.1700      -999.25      -999.25      -999.25      -999.25       1.2865     151.0641      26.0000
 43816.5642361111 13:32:30/17-Dec-2019    1208.9700      -999.25      43.2500      -999.25      -999.25      -999.25      -999.25       1.2923     151.7536      26.0000
 43816.5643518518 13:32:40/17-Dec-2019    1208.9700      -999.25      43.6300      -999.25      -999.25      -999.25      -999.25       1.2906     151.5468      26.0000
 43816.5644675926 13:32:50/17-Dec-2019    1208.9700      -999.25      33.9700      -999.25      -999.25      -999.25      -999.25       1.2917     151.6847      26.0000
 43816.5645833333 13:33:00/17-Dec-2019    1208.9700      -999.25      30.9000      -999.25      -999.25      -999.25      -999.25       1.2888     151.3399      26.0000
 43816.5646990741 13:33:10/17-Dec-2019    1208.9700      -999.25      30.9000      -999.25      -999.25      -999.25      -999.25       1.2935     151.8915      26.0000
 43816.5648148148 13:33:20/17-Dec-2019    1208.9700      -999.25      30.9000      -999.25      -999.25      -999.25      -999.25       1.2859     150.9952      26.0000
 43816.5649305556 13:33:30/17-Dec-2019    1208.9700      -999.25      30.9000      -999.25      -999.25      -999.25      -999.25       1.2865     151.0641      26.0000
 43816.5650462963 13:33:40/17-Dec-2019    1208.9700      -999.25      30.9000      -999.25      -999.25      -999.25      -999.25       1.2853     150.9262      26.0000
 43816.5651620370 13:33:50/17-Dec-2019    1208.9700      -999.25      30.9000      -999.25      -999.25      -999.25      -999.25       1.2853     150.9262      26.0000
 43816.5652777778 13:34:00/17-Dec-2019    1208.9700      -999.25      30.9000      -999.25      -999.25      -999.25      -999.25       1.2853     150.9262      26.0000
 43816.5653935185 13:34:10/17-Dec-2019    1208.9700      -999.25      30.9000      -999.25      -999.25      -999.25      -999.25       1.2923     151.7536      26.0000
 43816.5655092593 13:34:20/17-Dec-2019    1208.9700      -999.25      30.9000      -999.25      -999.25      -999.25      -999.25       1.2841     150.7883      26.0000
 43816.5656250000 13:34:30/17-Dec-2019    1208.9700      -999.25      30.9000      -999.25      -999.25      -999.25      -999.25       1.2841     150.7883      26.0000
 43816.5657407407 13:34:40/17-Dec-2019    1208.9700      -999.25      30.9000      -999.25      -999.25      -999.25      -999.25       1.2923     151.7536      26.0000
 43816.5658564815 13:34:50/17-Dec-2019    1208.9700      -999.25      30.9000      -999.25      -999.25      -999.25      -999.25       1.2888     151.3399      26.0000
 43816.5659722222 13:35:00/17-Dec-2019    1208.9700      -999.25      30.9000      -999.25      -999.25      -999.25      -999.25       1.2923     151.7536      26.0000
 43816.5660879630 13:35:10/17-Dec-2019    1208.9700      -999.25      30.9000      -999.25      -999.25      -999.25      -999.25       1.2906     151.5468      26.0000
 43816.5662037037 13:35:20/17-Dec-2019    1208.9700      -999.25      30.9000      -999.25      -999.25      -999.25      -999.25       1.2847     150.8573      26.0000
 43816.5663194444 13:35:30/17-Dec-2019    1208.9700      -999.25      30.9000      -999.25      -999.25      -999.25      -999.25       1.2870     151.1331      26.0000
 43816.5664351852 13:35:40/17-Dec-2019    1208.9700      -999.25      30.9000      -999.25      -999.25      -999.25      -999.25       1.2859     150.9952      26.0000
 43816.5665509259 13:35:50/17-Dec-2019    1208.9700      -999.25      30.9000      -999.25      -999.25      -999.25      -999.25       1.2847     150.8573      26.0000
 43816.5666666667 13:36:00/17-Dec-2019    1208.9700      -999.25      30.9000      -999.25      -999.25      -999.25      -999.25       1.2912     151.6157      26.0000
 43816.5667824074 13:36:10/17-Dec-2019    1208.9700      -999.25      30.9000      -999.25      -999.25      -999.25      -999.25       1.2929     151.8226      26.0000
 43816.5668981481 13:36:20/17-Dec-2019    1208.9700      -999.25      30.9000      -999.25      -999.25      -999.25      -999.25       1.2941     151.9604      26.0000
 43816.5670138889 13:36:30/17-Dec-2019    1208.9700      -999.25      30.9000      -999.25      -999.25      -999.25      -999.25       1.2964     152.2362      26.0000
 43816.5671296296 13:36:40/17-Dec-2019    1208.9700      -999.25      30.9000      -999.25      -999.25      -999.25      -999.25       1.2841     150.7883      26.0000
 43816.5672453704 13:36:50/17-Dec-2019    1208.9700      -999.25      30.9000      -999.25      -999.25      -999.25      -999.25       1.2870     151.1331      26.0000
