~VERSION INFORMATION 
VERS  .    2.0                                     :CWLS Log ASCII Standard - VERSION 2.0
WRAP  .    NO                                      :One Line per Time step
PROD  .    Schlumberger Technology Corp.           :LAS Producer
PROG  .    Horizon LASWriter 9.2.113335.3100       :LAS Program name and version
SOURCE.    Run 10-TimeLogicalAcq                   :Run&Pass Information
CREA  .    01/21/2020                              :LAS Creation date {MM/DD/YYYY}
#--------------------------------------------------
~WELL INFORMATION 
#MNEM           .UNIT                      DATA            :DESCRIPTION
#----            ------          --------------            -----------------------------
STRT            .d               43830.7500000000          :START TIME(OLE Automation date)
STOP            .d               43831.2291666667          :STOP TIME(OLE Automation date)
STEP            .d                            0            :STEP TIME(10s in time)
NULL            .                       -999.25            :NULL VALUE
COMP            .                       Equinor            :COMPANY
WELL            .                        31/5-7            :WELL NAME
FLD             .                           Eos            :FIELD NAME
RIGN            .                 West Hercules            :Rig Name
RIGTYP          .                Semi-Submersible          :Rig Type
SON             .                     19SCA0085            :Service Order Number
SRVC            .                  Schlumberger            :SERVICE COMPANY
DATE            .                    12/31/2019            :LOG DATE(Composite Date for Composite LAP) (MM/DD/YYYY)
CLAB            .                       County:            :County Label
CNTY            .                                          :COUNTY
SLAB            .                                          :State/Province Label
STAT            .                                          :STATE or PROVINCE
PROV            .                                          :STATE or PROVINCE
CTRY            .                        Norway            :COUNTRY
CONT_REGION     .                        Europe            :Continent Region
SECT            .                                          :Section
TOWN            .                                          :Township
RANG            .                                          :Range
API             .                                          :API NUMBER
UWI             .                                          :UNIQUE WELL ID
LUL             .                Service Office            :Logging Unit Location
LUN             .                          A615            :Logging Unit Number
LOC             .                Norwegian North Sea       :FIELD LOCATION
FL1             .                Section: 8 1/2 in.        :Field Location Line 1
FL2             .                Job no.: 19SCA0085        :Field Location Line 2
LATI            .deg             60° 34' 35.14" N          :LATITUDE
LONG            .deg             3° 26' 36.13" E           :LONGITUDE
PDAT            .                           MSL            :Local Permanent Datum
LMF             .                            DF            :Logging Measured From
APD             .m                        31.00            :Elevation of Depth Reference (LMF) Above Permanent Datum
EPD             .m                         0.00            :Elevation of Permanent Datum (PDAT) above Mean Sea Level
EKB             .m                      -999.25            :Elevation of Kelly Bushing Above Permanent Datum
EDF             .m                        31.00            :Elevation of Drill Floor Above Permanent Datum
EGL             .m                      -307.00            :Elevation of Ground Level Above Permanent Datum
ECF             .m                      -999.25            :Elevation of Casing Flange above Permanent Datum
#--------------------------------------------------
~CURVE INFORMATION
#MNEM           .UNIT                  API CODE            :DESCRIPTION
#----            ------          --------------            -----------------------------
TIME_1900       .d                                         :                                                        Time Index(OLE Automation date)
TIME            .s                                         :                                (10s)                   Time(hh mm ss/dd-MMM-yyyy)
DEPTH           .m                                         :(RT)    (DnMWorkflow)                                   Depth Index
BLKP            .m                                         :(RT)    (DRILLING_SURFACE)                              Height of block above rig floor
GR              .gAPI                                      :(RT)    (ARC6)                                          Gamma Ray
CRPM            .c/min                                     :(RT)    (TELE675)                                       Collar Rotational Speed
STICK           .c/min                                     :(RT)    (TELE675)                                       Stick Slip Indicator
SHKRSK          .                                          :(RT)    (TELE675)                                       Shock Risk
SHKPK           .gn                                        :(RT)    (TELE675)                                       Shock Peak
DHAT            .degC                                      :(RM)    (ARC6)                                          Downhole Annulus Temperature
DHAP            .bar                                       :(RM)    (ARC6)                                          Downhole Annulus Pressure
ECD             .g/cm3                                     :(RM)    (ARC6)                                          Equivalent Circulating Density
#-------------------------------------------------------------
#       TIME_1900                 TIME        DEPTH         BLKP           GR         CRPM        STICK       SHKRSK        SHKPK         DHAT         DHAP          ECD 
#                                       (DnMWorkfl)  (DRILLING_)       (ARC6)    (TELE675)    (TELE675)    (TELE675)    (TELE675)       (ARC6)       (ARC6)       (ARC6) 
#                                              (RT)         (RT)         (RT)         (RT)         (RT)         (RT)         (RT)         (RM)         (RM)         (RM) 
#                                (10s)                                                                                                                                   
~ASCII
# ...
 43830.9277777778 22:16:00/31-Dec-2019   2615.84985     24.97000    132.94670      -999.25      -999.25      -999.25      -999.25     42.00000    309.50570      1.21062
 43830.9278935185 22:16:10/31-Dec-2019   2615.90991     24.91000    131.72590    139.00000      -999.25      -999.25      -999.25     42.00000    309.29880      1.20983
 43830.9280092593 22:16:20/31-Dec-2019   2615.97998     24.84000    131.00900      -999.25    339.00000      -999.25      -999.25     42.00000    309.57460      1.21078
 43830.9281250000 22:16:30/31-Dec-2019   2615.84985     24.97000    131.00900      -999.25      -999.25      0.00000      0.00000     42.00000    310.81570      1.21565
 43830.9282407407 22:16:40/31-Dec-2019   2615.90991     24.91000    131.72590      -999.25      -999.25      -999.25      -999.25     42.00000    309.29880      1.20974
 43830.9283564815 22:16:50/31-Dec-2019   2616.07007     24.75000    134.86160      -999.25      -999.25      -999.25      -999.25     42.00000    309.36780      1.20993
 43830.9284722222 22:17:00/31-Dec-2019   2616.22021     24.60000    142.08490      -999.25      -999.25      -999.25      -999.25     42.00000    308.54040      1.20667
 43830.9285879630 22:17:10/31-Dec-2019   2616.27026     24.55000    146.47070    166.00000      -999.25      -999.25      -999.25     42.00000    309.22990      1.20934
 43830.9287037037 22:17:20/31-Dec-2019   2616.04004     24.78000    146.72700      -999.25    321.00000      0.00000      0.00000     42.00000    309.91930      1.21210
 43830.9288194444 22:17:30/31-Dec-2019   2616.17993     24.64000    140.16570      -999.25      -999.25      -999.25      -999.25     42.00000    308.74720      1.20750
 43830.9289351852 22:17:40/31-Dec-2019   2616.26001     24.56000    132.48770      -999.25      -999.25      -999.25      -999.25     42.00000    308.54040      1.20661
 43830.9290509259 22:17:50/31-Dec-2019   2616.51978     24.30000    116.52600      -999.25      -999.25      -999.25      -999.25     42.00000    308.05780      1.20465
 43830.9291666667 22:18:00/31-Dec-2019   2616.58008     24.24000    113.01630    149.00000      -999.25      -999.25      -999.25     42.00000    308.47140      1.20623
 43830.9292824074 22:18:10/31-Dec-2019   2616.53003     24.29000    108.28750      -999.25    225.00000      -999.25      -999.25     42.00000    309.43670      1.20999
 43830.9293981481 22:18:20/31-Dec-2019   2616.47998     24.33000    103.55860      -999.25      -999.25      0.00000      0.00000     42.00000    310.05720      1.21252
 43830.9295138889 22:18:30/31-Dec-2019   2616.46997     24.35000     99.92817      -999.25      -999.25      -999.25      -999.25     42.00000    308.88510      1.20790
 43830.9296296296 22:18:40/31-Dec-2019   2616.72998     24.09000     95.04754      -999.25      -999.25      -999.25      -999.25     42.00000    308.40250      1.20586
 43830.9297453704 22:18:50/31-Dec-2019   2616.78003     24.04000     92.22171      -999.25      -999.25      -999.25      -999.25     42.00000    308.33360      1.20564
 43830.9298611111 22:19:00/31-Dec-2019   2616.91992     23.90000     91.50480    185.00000      -999.25      -999.25      -999.25     42.00000    308.54040      1.20639
 43830.9299768518 22:19:10/31-Dec-2019   2616.77002     24.04000     91.50480      -999.25    321.00000      0.00000      0.00000     42.00000    309.09200      1.20858
 43830.9300925926 22:19:20/31-Dec-2019   2616.86987     23.95000     92.22171      -999.25      -999.25      -999.25      -999.25     42.00000    309.64360      1.21068
 43830.9302083333 22:19:30/31-Dec-2019   2616.85010     23.97000     93.71173      -999.25      -999.25      -999.25      -999.25     42.00000    308.74720      1.20715
 43830.9303240741 22:19:40/31-Dec-2019   2617.10010     23.73000     97.13335      -999.25      -999.25      -999.25      -999.25     42.00000    309.78140      1.21111
 43830.9304398148 22:19:50/31-Dec-2019   2617.18018     23.64000    107.57050    158.00000      -999.25      -999.25      -999.25     42.00000    308.26460      1.20514
 43830.9305555556 22:20:00/31-Dec-2019   2616.96997     23.85000    114.25990      -999.25    324.00000      0.00000      0.00000     42.00000    309.50570      1.21005
 43830.9306712963 22:20:10/31-Dec-2019   2617.40991     23.49000    110.72300      -999.25      -999.25      -999.25      -999.25     42.00000    308.54040      1.20604
 43830.9307870370 22:20:20/31-Dec-2019   2617.57007     23.26000    102.43750      -999.25      -999.25      -999.25      -999.25     42.00000    309.57460      1.21009
 43830.9309027778 22:20:30/31-Dec-2019   2617.54004     23.28000     98.23971      -999.25      -999.25      -999.25      -999.25     42.00000    310.26410      1.21270
 43830.9310185185 22:20:40/31-Dec-2019   2617.33984     23.48000     94.73634      -999.25      -999.25      -999.25      -999.25     42.00000    310.33300      1.21312
 43830.9311342593 22:20:50/31-Dec-2019   2617.40991     23.41000     90.48666    165.00000      -999.25      -999.25      -999.25     42.00000    309.02300      1.20796
 43830.9312500000 22:21:00/31-Dec-2019   2617.85986     22.87000     88.84385      -999.25    192.00000      0.00000      0.00000     42.00000    309.16090      1.20830
 43830.9313657407 22:21:10/31-Dec-2019   2617.92017     22.90000     90.32948      -999.25      -999.25      -999.25      -999.25     42.00000    310.53990      1.21374
 43830.9314814815 22:21:20/31-Dec-2019   2617.80005     23.12000     92.37881      -999.25      -999.25      -999.25      -999.25     42.00000    310.26410      1.21263
 43830.9315972222 22:21:30/31-Dec-2019   2618.00024     22.82000     93.65330      -999.25      -999.25      -999.25      -999.25     42.00000    309.29880      1.20881
 43830.9317129630 22:21:40/31-Dec-2019   2618.05005     22.77000     94.12007    177.00000      -999.25      -999.25      -999.25     42.00000    309.16090      1.20825
 43830.9318287037 22:21:50/31-Dec-2019   2618.29980     22.52000     97.14449      -999.25    225.00000      0.00000      0.00000     42.00000    310.05720      1.21173
 43830.9319444444 22:22:00/31-Dec-2019   2618.28003     22.64000    103.57770      -999.25      -999.25      -999.25      -999.25     42.00000    310.60880      1.21390
 43830.9320601852 22:22:10/31-Dec-2019   2618.06006     22.77000    107.81640      -999.25      -999.25      -999.25      -999.25     42.00000    310.67780      1.21413
 43830.9321759259 22:22:20/31-Dec-2019   2618.34985     22.48000    106.67900      -999.25      -999.25      -999.25      -999.25     42.00000    309.16090      1.20815
 43830.9322916667 22:22:30/31-Dec-2019   2618.50000     22.32000    102.67840      -999.25      -999.25      -999.25      -999.25     42.00000    309.16090      1.20805
 43830.9324074074 22:22:40/31-Dec-2019   2618.65991     22.17000     98.42873    183.00000      -999.25      -999.25      -999.25     42.00000    310.60880      1.21363
 43830.9325231481 22:22:50/31-Dec-2019   2618.53003     22.29000     96.78592      -999.25    360.00000      0.00000      0.00000     42.00000    310.53990      1.21346
 43830.9326388889 22:23:00/31-Dec-2019   2618.59985     22.31000     98.27154      -999.25      -999.25      -999.25      -999.25     42.00000    310.88460      1.21473
 43830.9327546296 22:23:10/31-Dec-2019   2618.37988     22.44000     99.97162      -999.25      -999.25      -999.25      -999.25     42.00000    309.16090      1.20810
 43830.9328703704 22:23:20/31-Dec-2019   2618.64014     22.09000    100.80280      -999.25      -999.25      -999.25      -999.25     42.00000    308.74720      1.20632
 43830.9329861111 22:23:30/31-Dec-2019   2618.69995     22.13000    102.84750    165.00000      -999.25      -999.25      -999.25     42.00000    309.36780      1.20876
 43830.9331018519 22:23:40/31-Dec-2019   2618.81006     22.01000    102.97560      -999.25    366.00000      0.00000      0.00000     42.00000    310.12620      1.21167
 43830.9332175926 22:23:50/31-Dec-2019   2618.84009     21.98000     99.69494      -999.25      -999.25      -999.25      -999.25     42.00000    309.22990      1.20815
