~VERSION INFORMATION 
VERS  .    2.0                                     :CWLS Log ASCII Standard - VERSION 2.0
WRAP  .    NO                                      :One Line per Time step
PROD  .    Schlumberger Technology Corp.           :LAS Producer
PROG  .    Horizon LASWriter 9.2.113335.3100       :LAS Program name and version
SOURCE.    Run 8-TimeLogicalAcq                    :Run&Pass Information
CREA  .    12/30/2019                              :LAS Creation date {MM/DD/YYYY}
#--------------------------------------------------
~WELL INFORMATION 
#MNEM           .UNIT                      DATA            :DESCRIPTION
#----            ------          --------------            -----------------------------
STRT            .d               43822.4166666667          :START TIME(OLE Automation date)
STOP            .d               43824.6875000000          :STOP TIME(OLE Automation date)
STEP            .d                            0            :STEP TIME(10s in time)
NULL            .                       -999.25            :NULL VALUE
COMP            .                       Equinor            :COMPANY
WELL            .                        31/5-7            :WELL NAME
FLD             .                           Eos            :FIELD NAME
RIGN            .                 West Hercules            :Rig Name
RIGTYP          .                Semi-Submersible          :Rig Type
SON             .                     19SCA0085            :Service Order Number
SRVC            .                  Schlumberger            :SERVICE COMPANY
DATE            .                    12/23/2019            :LOG DATE(Composite Date for Composite LAP) (MM/DD/YYYY)
CLAB            .                       County:            :County Label
CNTY            .                                          :COUNTY
SLAB            .                                          :State/Province Label
STAT            .                                          :STATE or PROVINCE
PROV            .                                          :STATE or PROVINCE
CTRY            .                        Norway            :COUNTRY
CONT_REGION     .                        Europe            :Continent Region
SECT            .                                          :Section
TOWN            .                                          :Township
RANG            .                                          :Range
API             .                                          :API NUMBER
UWI             .                                          :UNIQUE WELL ID
LUL             .                Service Office            :Logging Unit Location
LUN             .                          A615            :Logging Unit Number
LOC             .                Norwegian North Sea       :FIELD LOCATION
FL1             .                Section: 12 1/4 in.       :Field Location Line 1
FL2             .                Job no.: 19SCA0085        :Field Location Line 2
LATI            .deg             60° 34' 35.14" N          :LATITUDE
LONG            .deg             3° 26' 36.13" E           :LONGITUDE
PDAT            .                           MSL            :Local Permanent Datum
LMF             .                            DF            :Logging Measured From
APD             .m                        31.00            :Elevation of Depth Reference (LMF) Above Permanent Datum
EPD             .m                         0.00            :Elevation of Permanent Datum (PDAT) above Mean Sea Level
EKB             .m                      -999.25            :Elevation of Kelly Bushing Above Permanent Datum
EDF             .m                        31.00            :Elevation of Drill Floor Above Permanent Datum
EGL             .m                      -307.00            :Elevation of Ground Level Above Permanent Datum
ECF             .m                      -999.25            :Elevation of Casing Flange above Permanent Datum
#--------------------------------------------------
~CURVE INFORMATION
#MNEM           .UNIT                  API CODE            :DESCRIPTION
#----            ------          --------------            -----------------------------
TIME_1900       .d                                         :                                                        Time Index(OLE Automation date)
TIME            .s                                         :                                (10s)                   Time(hh mm ss/dd-MMM-yyyy)
DEPTH           .m                                         :(RT)    (DnMWorkflow)                                   Depth Index
GR              .gAPI                                      :(RT)    (ARC9)                                          Gamma Ray
BLKP            .m                                         :(RT)    (DRILLING_SURFACE)                              Height of block above rig floor
CRPM            .c/min                                     :(RT)    (TELE900)                                       Collar Rotational Speed
STICK           .c/min                                     :(RT)    (TELE900)                                       Stick Slip Indicator
SHKPK           .gn                                        :(RT)    (TELE900)                                       Shock Peak
SHKRSK          .                                          :(RT)    (TELE900)                                       Shock Risk
DHAP            .bar                                       :(RM)    (ARC9)                                          Downhole Annulus Pressure
DHAT            .degC                                      :(RM)    (ARC9)                                          Downhole Annulus Temperature
ECD             .g/cm3                                     :(RM)    (ARC9)                                          Equivalent Circulating Density
#-------------------------------------------------------------
#       TIME_1900                 TIME        DEPTH           GR         BLKP         CRPM        STICK        SHKPK       SHKRSK         DHAP         DHAT          ECD 
#                                       (DnMWorkfl)       (ARC9)  (DRILLING_)    (TELE900)    (TELE900)    (TELE900)    (TELE900)       (ARC9)       (ARC9)       (ARC9) 
#                                              (RT)         (RT)         (RT)         (RT)         (RT)         (RT)         (RT)         (RM)         (RM)         (RM) 
#                                (10s)                                                                                                                                   
~ASCII
# ...
 43824.0000000000 00:00:00/25-Dec-2019    2479.6299     102.6016      13.6200      -999.25      -999.25      -999.25      -999.25     313.7804      43.0000       1.2964
 43824.0001157407 00:00:10/25-Dec-2019    2479.6899     106.4784      13.5600      -999.25      -999.25      -999.25      -999.25     313.6425      44.0000       1.2958
 43824.0002314815 00:00:20/25-Dec-2019    2479.6699     107.4476      13.5800      -999.25     381.0000      -999.25      -999.25     313.6425      44.0000       1.2958
 43824.0003472222 00:00:30/25-Dec-2019    2479.6599     107.4476      13.5900      -999.25      -999.25       0.0000       0.0000     313.8494      44.0000       1.2966
 43824.0004629630 00:00:40/25-Dec-2019    2479.8899     106.4784      13.4400      -999.25      -999.25      -999.25      -999.25     313.8494      44.0000       1.2965
 43824.0005787037 00:00:50/25-Dec-2019    2479.8999     108.1439      13.3500      -999.25      -999.25      -999.25      -999.25     313.7115      44.0000       1.2959
 43824.0006944444 00:01:00/25-Dec-2019    2480.0400     106.9504      13.2100      -999.25      -999.25      -999.25      -999.25     313.7115      44.0000       1.2959
 43824.0008101852 00:01:10/25-Dec-2019    2480.0901     102.3532      13.1600     182.0000      -999.25      -999.25      -999.25     313.9183      44.0000       1.2967
 43824.0009259259 00:01:20/25-Dec-2019    2480.0901      98.4559      13.1500      -999.25      -999.25      -999.25      -999.25     313.5736      44.0000       1.2953
 43824.0010416667 00:01:30/25-Dec-2019    2480.1599      93.9335      13.0800      -999.25      -999.25      -999.25      -999.25     313.8494      44.0000       1.2964
 43824.0011574074 00:01:40/25-Dec-2019    2480.0801      96.8633      13.1700      -999.25     354.0000      -999.25      -999.25     313.8494      44.0000       1.2964
 43824.0012731481 00:01:50/25-Dec-2019    2480.4099     103.3302      12.8300      -999.25      -999.25       0.0000       0.0000     313.7804      44.0000       1.2959
 43824.0013888889 00:02:00/25-Dec-2019    2480.2900     104.7364      12.9600      -999.25      -999.25      -999.25      -999.25     313.7115      44.0000       1.2957
 43824.0015046296 00:02:10/25-Dec-2019    2480.3699     102.7316      12.8800      -999.25      -999.25      -999.25      -999.25     313.9183      44.0000       1.2965
 43824.0016203704 00:02:20/25-Dec-2019    2480.5200     100.3624      12.8200      -999.25      -999.25      -999.25      -999.25     313.9183      44.0000       1.2965
 43824.0017361111 00:02:30/25-Dec-2019    2480.5801      99.6694      12.6700     157.0000      -999.25      -999.25      -999.25     313.6425      44.0000       1.2953
 43824.0018518518 00:02:40/25-Dec-2019    2480.7200     100.1273      12.5200      -999.25      -999.25      -999.25      -999.25     313.9183      44.0000       1.2963
 43824.0019675926 00:02:50/25-Dec-2019    2480.8000      92.6299      12.4500      -999.25      -999.25      -999.25      -999.25     313.6425      44.0000       1.2952
 43824.0020833333 00:03:00/25-Dec-2019    2480.8000      88.3046      12.5400      -999.25      -999.25      -999.25      -999.25     313.8494      44.0000       1.2960
 43824.0021990741 00:03:10/25-Dec-2019    2480.9399      84.3681      12.3100      -999.25     309.0000      -999.25      -999.25     313.9872      44.0000       1.2965
 43824.0023148148 00:03:20/25-Dec-2019    2481.0000      80.4315      12.2500      -999.25      -999.25       0.0000       0.0000     313.9872      44.0000       1.2965
 43824.0024305556 00:03:30/25-Dec-2019    2481.0698      77.6133      12.1800      -999.25      -999.25      -999.25      -999.25     313.7115      44.0000       1.2953
 43824.0025462963 00:03:40/25-Dec-2019    2481.1099      76.7299      12.1300      -999.25      -999.25      -999.25      -999.25     313.8494      44.0000       1.2959
 43824.0026620370 00:03:50/25-Dec-2019    2481.2000      82.5759      12.0500     165.0000      -999.25      -999.25      -999.25     313.9872      44.0000       1.2964
 43824.0027777778 00:04:00/25-Dec-2019    2481.2400      89.4717      12.0000      -999.25      -999.25      -999.25      -999.25     313.7804      44.0000       1.2955
 43824.0028935185 00:04:10/25-Dec-2019    2481.2200      93.8389      12.0300      -999.25      -999.25      -999.25      -999.25     313.9872      44.0000       1.2964
 43824.0030092593 00:04:20/25-Dec-2019    2481.2900      93.0315      11.9600      -999.25      -999.25      -999.25      -999.25     313.9872      44.0000       1.2963
 43824.0031250000 00:04:30/25-Dec-2019    2481.3599      81.1319      11.8900      -999.25     285.0000      -999.25      -999.25     313.9872      44.0000       1.2963
 43824.0032407407 00:04:40/25-Dec-2019    2481.4299      70.6589      11.8200      -999.25      -999.25       0.0000       0.0000     313.8494      44.0000       1.2957
 43824.0033564815 00:04:50/25-Dec-2019    2481.4900      66.5129      11.7500      -999.25      -999.25      -999.25      -999.25     313.9872      44.0000       1.2962
 43824.0034722222 00:05:00/25-Dec-2019    2481.5798      70.7067      11.6700      -999.25      -999.25      -999.25      -999.25     313.9872      44.0000       1.2962
 43824.0035879630 00:05:10/25-Dec-2019    2481.6299      74.8387      11.6200      -999.25      -999.25      -999.25      -999.25     313.9872      44.0000       1.2962
 43824.0037037037 00:05:20/25-Dec-2019    2481.7100      79.4359      11.5400     154.0000      -999.25      -999.25      -999.25     314.0562      44.0000       1.2964
 43824.0038194444 00:05:30/25-Dec-2019    2481.7800      83.3332      11.4700      -999.25      -999.25      -999.25      -999.25     313.9872      44.0000       1.2961
 43824.0039351852 00:05:40/25-Dec-2019    2481.8398      89.6253      11.4000      -999.25      -999.25      -999.25      -999.25     313.9872      44.0000       1.2960
 43824.0040509259 00:05:50/25-Dec-2019    2481.9199      95.1066      11.3300      -999.25     234.0000      -999.25      -999.25     313.9872      44.0000       1.2960
 43824.0041666667 00:06:00/25-Dec-2019    2482.0500      97.2012      11.1900      -999.25      -999.25       0.0000       0.0000     314.1251      44.0000       1.2965
 43824.0042824074 00:06:10/25-Dec-2019    2482.1099      94.9290      11.1400      -999.25      -999.25      -999.25      -999.25     313.8494      44.0000       1.2953
 43824.0043981481 00:06:20/25-Dec-2019    2482.1702      91.1752      11.0800      -999.25      -999.25      -999.25      -999.25     314.0562      44.0000       1.2962
 43824.0045138889 00:06:30/25-Dec-2019    2482.2100      87.7551      11.0300      -999.25      -999.25      -999.25      -999.25     314.0562      44.0000       1.2961
 43824.0046296296 00:06:40/25-Dec-2019    2482.2600      88.3966      10.9900     205.0000      -999.25      -999.25      -999.25     313.8494      44.0000       1.2953
 43824.0047453704 00:06:50/25-Dec-2019    2482.2700      94.3460      10.9800      -999.25      -999.25      -999.25      -999.25     314.0562      44.0000       1.2961
 43824.0048611111 00:07:00/25-Dec-2019    2482.4199      95.6321      10.8300      -999.25      -999.25      -999.25      -999.25     314.3320      44.0000       1.2972
 43824.0049768519 00:07:10/25-Dec-2019    2482.4700     104.2778      10.7800      -999.25      -999.25      -999.25      -999.25     314.0562      44.0000       1.2960
 43824.0050925926 00:07:20/25-Dec-2019    2482.4399     116.6496      10.8100      -999.25     324.0000      -999.25      -999.25     314.1251      44.0000       1.2963
 43824.0052083333 00:07:30/25-Dec-2019    2482.5798     123.9606      10.6600      -999.25      -999.25       0.0000       0.0000     314.2630      44.0000       1.2968
 43824.0053240741 00:07:40/25-Dec-2019    2482.6501     126.4290      10.6000      -999.25      -999.25      -999.25      -999.25     314.0562      44.0000       1.2959
 43824.0054398148 00:07:50/25-Dec-2019    2482.7200     125.4840      10.5300      -999.25      -999.25      -999.25      -999.25     314.0562      44.0000       1.2959
