~VERSION INFORMATION 
VERS  .    2.0                                     :CWLS Log ASCII Standard - VERSION 2.0
WRAP  .    NO                                      :One Line per Time step
PROD  .    Schlumberger Technology Corp.           :LAS Producer
PROG  .    Horizon LASWriter 9.2.113335.3100       :LAS Program name and version
SOURCE.    Run 5-TimeLogicalAcq                    :Run&Pass Information
CREA  .    12/20/2019                              :LAS Creation date {MM/DD/YYYY}
#--------------------------------------------------
~WELL INFORMATION 
#MNEM           .UNIT                      DATA            :DESCRIPTION
#----            ------          --------------            -----------------------------
STRT            .d               43815.4062500000          :START TIME(OLE Automation date)
STOP            .d               43816.7395833333          :STOP TIME(OLE Automation date)
STEP            .d                            0            :STEP TIME(10s in time)
NULL            .                       -999.25            :NULL VALUE
COMP            .                       Equinor            :COMPANY
WELL            .                        31/5-7            :WELL NAME
FLD             .                           Eos            :FIELD NAME
RIGN            .                 West Hercules            :Rig Name
RIGTYP          .                Semi-Submersible          :Rig Type
SON             .                     19SCA0085            :Service Order Number
SRVC            .                  Schlumberger            :SERVICE COMPANY
DATE            .                    12/16/2019            :LOG DATE(Composite Date for Composite LAP) (MM/DD/YYYY)
CLAB            .                       County:            :County Label
CNTY            .                                          :COUNTY
SLAB            .                                          :State/Province Label
STAT            .                                          :STATE or PROVINCE
PROV            .                                          :STATE or PROVINCE
CTRY            .                        Norway            :COUNTRY
CONT_REGION     .                        Europe            :Continent Region
SECT            .                                          :Section
TOWN            .                                          :Township
RANG            .                                          :Range
API             .                                          :API NUMBER
UWI             .                                          :UNIQUE WELL ID
LUL             .                Service Office            :Logging Unit Location
LUN             .                          A615            :Logging Unit Number
LOC             .                Norwegian North Sea       :FIELD LOCATION
FL1             .                Section: 12 1/4 in. pilot :Field Location Line 1
FL2             .                Job no.: 19SCA0085        :Field Location Line 2
LATI            .deg             60° 34' 35.14" N          :LATITUDE
LONG            .deg             3° 26' 36.13" E           :LONGITUDE
PDAT            .                           MSL            :Local Permanent Datum
LMF             .                            DF            :Logging Measured From
APD             .m                        31.00            :Elevation of Depth Reference (LMF) Above Permanent Datum
EPD             .m                         0.00            :Elevation of Permanent Datum (PDAT) above Mean Sea Level
EKB             .m                      -999.25            :Elevation of Kelly Bushing Above Permanent Datum
EDF             .m                        31.00            :Elevation of Drill Floor Above Permanent Datum
EGL             .m                      -307.00            :Elevation of Ground Level Above Permanent Datum
ECF             .m                      -999.25            :Elevation of Casing Flange above Permanent Datum
#--------------------------------------------------
~CURVE INFORMATION
#MNEM           .UNIT                  API CODE            :DESCRIPTION
#----            ------          --------------            -----------------------------
TIME_1900       .d                                         :                                                        Time Index(OLE Automation date)
TIME            .s                                         :                                (10s)                   Time(hh mm ss/dd-MMM-yyyy)
DEPTH           .m                                         :(RT)    (DnMWorkflow)                                   Depth Index
GR              .gAPI                                      :(RT)    (ARC9)                                          Gamma Ray
BLKP            .m                                         :(RT)    (DRILLING_SURFACE)                              Height of block above rig floor
STICK           .c/min                                     :(RT)    (TELE900)                                       Stick Slip Indicator
CRPM            .c/min                                     :(RT)    (TELE900)                                       Collar Rotational Speed
SHKRSK          .                                          :(RT)    (TELE900)                                       Shock Risk
SHKPK           .gn                                        :(RT)    (TELE900)                                       Shock Peak
ECD             .g/cm3                                     :(RM)    (ARC9)                                          Equivalent Circulating Density
DHAP            .bar                                       :(RM)    (ARC9)                                          Downhole Annulus Pressure
DHAT            .degC                                      :(RM)    (ARC9)                                          Downhole Annulus Temperature
#-------------------------------------------------------------
#       TIME_1900                 TIME        DEPTH           GR         BLKP        STICK         CRPM       SHKRSK        SHKPK          ECD         DHAP         DHAT 
#                                       (DnMWorkfl)       (ARC9)  (DRILLING_)    (TELE900)    (TELE900)    (TELE900)    (TELE900)       (ARC9)       (ARC9)       (ARC9) 
#                                              (RT)         (RT)         (RT)         (RT)         (RT)         (RT)         (RT)         (RM)         (RM)         (RM) 
#                                (10s)                                                                                                                                   
~ASCII
# ...
 43815.8006944444 19:13:00/16-Dec-2019    1311.2200     101.2997      28.2800      -999.25      -999.25      -999.25      -999.25       1.3275     169.1973      25.0000
 43815.8008101852 19:13:10/16-Dec-2019    1311.5399     111.8801      27.9600      -999.25      -999.25      -999.25      -999.25       1.3299     169.5421      25.0000
 43815.8009259259 19:13:20/16-Dec-2019    1311.5300     112.3217      27.9700      -999.25      -999.25      -999.25      -999.25       1.3265     169.1284      25.0000
 43815.8010416667 19:13:30/16-Dec-2019    1311.9700     102.9861      27.5300     342.0000      -999.25      -999.25      -999.25       1.3268     169.1973      25.0000
 43815.8011574074 19:13:40/16-Dec-2019    1312.1000     100.8965      27.4000      -999.25      -999.25       0.0000       0.0000       1.3266     169.1973      25.0000
 43815.8012731481 19:13:50/16-Dec-2019    1312.3800     107.0307      27.1200      -999.25      -999.25      -999.25      -999.25       1.3253     169.0595      25.0000
 43815.8013888889 19:14:00/16-Dec-2019    1312.6399     112.2984      26.8600      -999.25      -999.25      -999.25      -999.25       1.3260     169.1973      25.0000
 43815.8015046296 19:14:10/16-Dec-2019    1312.9399     114.7404      26.5600      -999.25      -999.25      -999.25      -999.25       1.3264     169.2663      25.0000
 43815.8016203704 19:14:20/16-Dec-2019    1313.2100     117.0335      26.2900      -999.25     200.0000      -999.25      -999.25       1.3277     169.4731      25.0000
 43815.8017361111 19:14:30/16-Dec-2019    1313.4901     118.9775      26.0100      -999.25      -999.25      -999.25      -999.25       1.3290     169.6800      25.0000
 43815.8018518519 19:14:40/16-Dec-2019    1313.9601     121.8817      25.5400      -999.25      -999.25      -999.25      -999.25       1.3291     169.7489      25.0000
 43815.8019675926 19:14:50/16-Dec-2019    1314.1700     114.0350      25.3300      -999.25      -999.25      -999.25      -999.25       1.3293     169.8179      25.0000
 43815.8020833333 19:15:00/16-Dec-2019    1314.2800     107.0228      25.2200     237.0000      -999.25      -999.25      -999.25       1.3282     169.6800      25.0000
 43815.8021990741 19:15:10/16-Dec-2019    1314.6600     110.1078      24.8400      -999.25      -999.25       0.0000       0.0000       1.3294     169.8868      25.0000
 43815.8023148148 19:15:20/16-Dec-2019    1314.9601     113.9126      24.5400      -999.25      -999.25      -999.25      -999.25       1.3285     169.8179      25.0000
 43815.8024305556 19:15:30/16-Dec-2019    1315.2000     109.6647      24.3000      -999.25      -999.25      -999.25      -999.25       1.3278     169.7489      25.0000
 43815.8025462963 19:15:40/16-Dec-2019    1315.3700     101.7855      24.1200      -999.25     178.0000      -999.25      -999.25       1.3265     169.6110      25.0000
 43815.8026620370 19:15:50/16-Dec-2019    1315.6000      98.8526      23.8900      -999.25      -999.25      -999.25      -999.25       1.3274     169.7489      25.0000
 43815.8027777778 19:16:00/16-Dec-2019    1315.9299     101.7656      23.5600      -999.25      -999.25      -999.25      -999.25       1.3281     169.8868      25.0000
 43815.8028935185 19:16:10/16-Dec-2019    1316.1799     103.8251      23.2900      -999.25      -999.25      -999.25      -999.25       1.3294     170.0937      25.0000
 43815.8030092593 19:16:20/16-Dec-2019    1316.3500      97.6909      23.0500      72.0000      -999.25      -999.25      -999.25       1.3288     170.0247      25.0000
 43815.8031250000 19:16:30/16-Dec-2019    1316.6100      99.7805      22.8700      -999.25      -999.25       0.0000       0.0000       1.3279     169.9558      25.0000
 43815.8032407407 19:16:40/16-Dec-2019    1316.8700     109.1161      22.5300      -999.25      -999.25      -999.25      -999.25       1.3277     169.9558      25.0000
 43815.8033564815 19:16:50/16-Dec-2019    1317.1300     114.3600      22.3600      -999.25      -999.25      -999.25      -999.25       1.3285     170.0937      25.0000
 43815.8034722222 19:17:00/16-Dec-2019    1317.4100     113.2545      22.0800      -999.25      -999.25      -999.25      -999.25       1.3271     169.9558      25.0000
 43815.8035879630 19:17:10/16-Dec-2019    1317.7000     108.6684      21.8700      -999.25     181.0000      -999.25      -999.25       1.3285     170.1626      25.0000
 43815.8037037037 19:17:20/16-Dec-2019    1317.8900     104.7804      21.5900      -999.25      -999.25      -999.25      -999.25       1.3282     170.1626      25.0000
 43815.8038194444 19:17:30/16-Dec-2019    1318.1699     105.4658      21.3200      -999.25      -999.25      -999.25      -999.25       1.3285     170.2316      25.0000
 43815.8039351852 19:17:40/16-Dec-2019    1318.6600     105.3794      20.8300      -999.25      -999.25      -999.25      -999.25       1.3302     170.5073      25.0000
 43815.8040509259 19:17:50/16-Dec-2019    1318.7899     103.4158      20.7000     168.0000      -999.25      -999.25      -999.25       1.3306     170.5763      25.0000
 43815.8041666667 19:18:00/16-Dec-2019    1318.9600     101.4523      20.5400      -999.25      -999.25       0.0000       0.0000       1.3309     170.6452      25.0000
 43815.8042824074 19:18:10/16-Dec-2019    1319.4100     103.0189      20.0700      -999.25      -999.25      -999.25      -999.25       1.3300     170.5763      25.0000
 43815.8043981481 19:18:20/16-Dec-2019    1319.5800     117.7638      19.8300      -999.25      -999.25      -999.25      -999.25       1.3298     170.5763      25.0000
 43815.8045138889 19:18:30/16-Dec-2019    1319.5100     127.5870      19.9900      -999.25     142.0000      -999.25      -999.25       1.3299     170.5763      25.0000
 43815.8046296296 19:18:40/16-Dec-2019    1320.0200     132.8130      19.4800      -999.25      -999.25      -999.25      -999.25       1.3315     170.8521      25.0000
 43815.8047453704 19:18:50/16-Dec-2019    1320.3400     133.7934      19.1600      -999.25      -999.25      -999.25      -999.25       1.3312     170.8521      25.0000
 43815.8048611111 19:19:00/16-Dec-2019    1320.6600     133.0455      18.8400      -999.25      -999.25      -999.25      -999.25       1.3340     171.2658      25.0000
 43815.8049768518 19:19:10/16-Dec-2019    1320.9501     125.3106      18.4600     324.0000      -999.25      -999.25      -999.25       1.3290     170.6452      25.0000
 43815.8050925926 19:19:20/16-Dec-2019    1321.0399     125.3106      18.4600      -999.25      -999.25      -999.25      -999.25       1.3304     170.8521      25.0000
 43815.8052083333 19:19:30/16-Dec-2019    1321.6699     133.0455      17.8200      -999.25      -999.25       0.0000       0.0000       1.3293     170.7831      26.0000
 43815.8053240741 19:19:40/16-Dec-2019    1321.9900     131.2440      17.5000      -999.25      -999.25      -999.25      -999.25       1.3276     170.5763      26.0000
 43815.8054398148 19:19:50/16-Dec-2019    1322.2499     122.0571      17.2400      -999.25      -999.25      -999.25      -999.25       1.3249     170.3005      26.0000
 43815.8055555556 19:20:00/16-Dec-2019    1322.6400     111.2315      16.8600      -999.25     158.0000      -999.25      -999.25       1.3263     170.5073      26.0000
 43815.8056712963 19:20:10/16-Dec-2019    1322.7600     107.4468      16.6300      -999.25      -999.25      -999.25      -999.25       1.3331     171.4037      26.0000
 43815.8057870370 19:20:20/16-Dec-2019    1323.1600     108.0540      16.3200      -999.25      -999.25      -999.25      -999.25       1.3336     171.5416      26.0000
 43815.8059027778 19:20:30/16-Dec-2019    1323.4700     109.4428      16.0200      -999.25      -999.25      -999.25      -999.25       1.3339     171.6105      26.0000
 43815.8060185185 19:20:40/16-Dec-2019    1323.7999     109.4802      15.6800     342.0000      -999.25      -999.25      -999.25       1.3297     171.1279      26.0000
 43815.8061342593 19:20:50/16-Dec-2019    1324.0300     109.8981      15.4600      -999.25      -999.25       0.0000       0.0000       1.3291     171.0589      26.0000
