~VERSION INFORMATION 
VERS  .    2.0                                     :CWLS Log ASCII Standard - VERSION 2.0
WRAP  .    NO                                      :One Line per Time step
PROD  .    Schlumberger Technology Corp.           :LAS Producer
PROG  .    Horizon LASWriter 9.2.113335.3100       :LAS Program name and version
SOURCE.    Run 10-TimeLogicalAcq                   :Run&Pass Information
CREA  .    01/21/2020                              :LAS Creation date {MM/DD/YYYY}
#--------------------------------------------------
~WELL INFORMATION 
#MNEM           .UNIT                      DATA            :DESCRIPTION
#----            ------          --------------            -----------------------------
STRT            .d               43830.7500000000          :START TIME(OLE Automation date)
STOP            .d               43831.2291666667          :STOP TIME(OLE Automation date)
STEP            .d                            0            :STEP TIME(10s in time)
NULL            .                       -999.25            :NULL VALUE
COMP            .                       Equinor            :COMPANY
WELL            .                        31/5-7            :WELL NAME
FLD             .                           Eos            :FIELD NAME
RIGN            .                 West Hercules            :Rig Name
RIGTYP          .                Semi-Submersible          :Rig Type
SON             .                     19SCA0085            :Service Order Number
SRVC            .                  Schlumberger            :SERVICE COMPANY
DATE            .                    12/31/2019            :LOG DATE(Composite Date for Composite LAP) (MM/DD/YYYY)
CLAB            .                       County:            :County Label
CNTY            .                                          :COUNTY
SLAB            .                                          :State/Province Label
STAT            .                                          :STATE or PROVINCE
PROV            .                                          :STATE or PROVINCE
CTRY            .                        Norway            :COUNTRY
CONT_REGION     .                        Europe            :Continent Region
SECT            .                                          :Section
TOWN            .                                          :Township
RANG            .                                          :Range
API             .                                          :API NUMBER
UWI             .                                          :UNIQUE WELL ID
LUL             .                Service Office            :Logging Unit Location
LUN             .                          A615            :Logging Unit Number
LOC             .                Norwegian North Sea       :FIELD LOCATION
FL1             .                Section: 8 1/2 in.        :Field Location Line 1
FL2             .                Job no.: 19SCA0085        :Field Location Line 2
LATI            .deg             60° 34' 35.14" N          :LATITUDE
LONG            .deg             3° 26' 36.13" E           :LONGITUDE
PDAT            .                           MSL            :Local Permanent Datum
LMF             .                            DF            :Logging Measured From
APD             .m                        31.00            :Elevation of Depth Reference (LMF) Above Permanent Datum
EPD             .m                         0.00            :Elevation of Permanent Datum (PDAT) above Mean Sea Level
EKB             .m                      -999.25            :Elevation of Kelly Bushing Above Permanent Datum
EDF             .m                        31.00            :Elevation of Drill Floor Above Permanent Datum
EGL             .m                      -307.00            :Elevation of Ground Level Above Permanent Datum
ECF             .m                      -999.25            :Elevation of Casing Flange above Permanent Datum
#--------------------------------------------------
~CURVE INFORMATION
#MNEM           .UNIT                  API CODE            :DESCRIPTION
#----            ------          --------------            -----------------------------
TIME_1900       .d                                         :                                                        Time Index(OLE Automation date)
TIME            .s                                         :                                (10s)                   Time(hh mm ss/dd-MMM-yyyy)
DEPTH           .m                                         :(RT)    (DnMWorkflow)                                   Depth Index
BLKP            .m                                         :(RT)    (DRILLING_SURFACE)                              Height of block above rig floor
GR              .gAPI                                      :(RT)    (ARC6)                                          Gamma Ray
CRPM            .c/min                                     :(RT)    (TELE675)                                       Collar Rotational Speed
STICK           .c/min                                     :(RT)    (TELE675)                                       Stick Slip Indicator
SHKRSK          .                                          :(RT)    (TELE675)                                       Shock Risk
SHKPK           .gn                                        :(RT)    (TELE675)                                       Shock Peak
DHAT            .degC                                      :(RM)    (ARC6)                                          Downhole Annulus Temperature
DHAP            .bar                                       :(RM)    (ARC6)                                          Downhole Annulus Pressure
ECD             .g/cm3                                     :(RM)    (ARC6)                                          Equivalent Circulating Density
#-------------------------------------------------------------
#       TIME_1900                 TIME        DEPTH         BLKP           GR         CRPM        STICK       SHKRSK        SHKPK         DHAT         DHAP          ECD 
#                                       (DnMWorkfl)  (DRILLING_)       (ARC6)    (TELE675)    (TELE675)    (TELE675)    (TELE675)       (ARC6)       (ARC6)       (ARC6) 
#                                              (RT)         (RT)         (RT)         (RT)         (RT)         (RT)         (RT)         (RM)         (RM)         (RM) 
#                                (10s)                                                                                                                                   
~ASCII
# ...
 43830.7777777778 18:40:00/31-Dec-2019   1214.59998      6.02000      -999.25      -999.25      -999.25      -999.25      -999.25      -999.25      -999.25      -999.25
 43830.7778935185 18:40:10/31-Dec-2019   1214.59998      6.02000      -999.25      -999.25      -999.25      -999.25      -999.25      -999.25      -999.25      -999.25
 43830.7780092593 18:40:20/31-Dec-2019   1214.59998      6.02000      -999.25      -999.25      -999.25      -999.25      -999.25      -999.25      -999.25      -999.25
 43830.7781250000 18:40:30/31-Dec-2019   1214.59998      6.02000      -999.25      -999.25      -999.25      -999.25      -999.25      -999.25      -999.25      -999.25
 43830.7782407407 18:40:40/31-Dec-2019   1214.59998      6.02000      -999.25      -999.25      -999.25      -999.25      -999.25     34.00000      1.51685      0.01283
 43830.7783564815 18:40:50/31-Dec-2019   1214.59998      6.02000      -999.25      -999.25      -999.25      -999.25      -999.25     34.00000    145.96200      1.23441
 43830.7784722222 18:41:00/31-Dec-2019   1214.60999      6.01000      -999.25      -999.25      -999.25      -999.25      -999.25     34.00000    145.82410      1.23323
 43830.7785879630 18:41:10/31-Dec-2019   1214.63000      5.99000      -999.25      -999.25      -999.25      -999.25      -999.25     34.00000    145.06570      1.22680
 43830.7787037037 18:41:20/31-Dec-2019   1214.63000      5.99000      -999.25      -999.25      -999.25      -999.25      -999.25     34.00000    145.68620      1.23205
 43830.7788194444 18:41:30/31-Dec-2019   1214.63000      5.99000      -999.25      -999.25      -999.25      -999.25      -999.25     34.00000    146.23780      1.23672
 43830.7789351852 18:41:40/31-Dec-2019   1214.63000      5.99000      -999.25      -999.25      -999.25      -999.25      -999.25     34.00000    145.82410      1.23322
 43830.7790509259 18:41:50/31-Dec-2019   1214.63000      5.99000      -999.25      -999.25      -999.25      -999.25      -999.25     34.00000    146.03100      1.23497
 43830.7791666667 18:42:00/31-Dec-2019   1214.63000      6.02000      -999.25      -999.25      -999.25      -999.25      -999.25     34.00000    144.85880      1.22505
 43830.7792824074 18:42:10/31-Dec-2019   1214.63000      6.08000      -999.25      -999.25      -999.25      -999.25      -999.25     34.00000    145.41040      1.22972
 43830.7793981481 18:42:20/31-Dec-2019   1214.63000      6.16000      -999.25      -999.25      -999.25      -999.25      -999.25     34.00000    145.75520      1.23263
 43830.7795138889 18:42:30/31-Dec-2019   1214.63000      7.27000      -999.25      -999.25      -999.25      -999.25      -999.25     34.00000    145.47940      1.23030
 43830.7796296296 18:42:40/31-Dec-2019   1214.31006      8.66000      -999.25      -999.25      -999.25      -999.25      -999.25     34.00000    145.54830      1.23121
 43830.7797453704 18:42:50/31-Dec-2019   1214.79993      8.17000      -999.25      -999.25      -999.25      -999.25      -999.25     34.00000    146.16890      1.23609
 43830.7798611111 18:43:00/31-Dec-2019   1218.38000      4.59000      -999.25      -999.25      -999.25      -999.25      -999.25     34.00000    147.13410      1.24076
 43830.7799768519 18:43:10/31-Dec-2019   1219.41003      3.56000      -999.25      -999.25      -999.25      -999.25      -999.25     34.00000    147.68570      1.24403
 43830.7800925926 18:43:20/31-Dec-2019   1219.41003      3.56000      -999.25      -999.25      -999.25      -999.25      -999.25     34.00000    146.09990      1.23067
 43830.7802083333 18:43:30/31-Dec-2019   1219.41003      3.56000      -999.25      -999.25      -999.25      -999.25      -999.25     34.00000    146.85830      1.23706
 43830.7803240741 18:43:40/31-Dec-2019   1219.41003      3.56000      -999.25      -999.25      -999.25      -999.25      -999.25     34.00000    146.99620      1.23822
 43830.7804398148 18:43:50/31-Dec-2019   1219.41003      3.56000      -999.25      -999.25      -999.25      -999.25      -999.25     34.00000    147.06520      1.23880
 43830.7805555556 18:44:00/31-Dec-2019   1219.41003      3.56000      -999.25      -999.25      -999.25      -999.25      -999.25     34.00000    146.37570      1.23299
 43830.7806712963 18:44:10/31-Dec-2019   1219.41003      3.56000      -999.25      -999.25      -999.25      -999.25      -999.25     34.00000    146.92730      1.23764
 43830.7807870370 18:44:20/31-Dec-2019   1219.41003      3.56000      -999.25      -999.25      -999.25      -999.25      -999.25     34.00000    145.68620      1.22719
 43830.7809027778 18:44:30/31-Dec-2019   1219.41003      3.56000      -999.25      -999.25      -999.25      -999.25      -999.25     34.00000    147.27200      1.24054
 43830.7810185185 18:44:40/31-Dec-2019   1219.41003      3.56000      -999.25      -999.25      -999.25      -999.25      -999.25     34.00000    147.27200      1.24054
 43830.7811342593 18:44:50/31-Dec-2019   1219.41003      3.56000      -999.25      -999.25      -999.25      -999.25      -999.25     34.00000    146.78940      1.23648
 43830.7812500000 18:45:00/31-Dec-2019   1219.41003      3.56000      -999.25      -999.25      -999.25      -999.25      -999.25     34.00000    146.51360      1.23416
 43830.7813657407 18:45:10/31-Dec-2019   1219.41003      3.56000      -999.25      -999.25      -999.25      -999.25      -999.25     34.00000    146.51360      1.23416
 43830.7814814815 18:45:20/31-Dec-2019   1219.41003      3.56000      -999.25      -999.25      -999.25      -999.25      -999.25     35.00000    146.16890      1.23125
 43830.7815972222 18:45:30/31-Dec-2019   1219.41003      3.56000      -999.25      -999.25      -999.25      -999.25      -999.25     35.00000    147.27200      1.24054
 43830.7817129630 18:45:40/31-Dec-2019   1219.47998      4.01000      -999.25      -999.25      -999.25      -999.25      -999.25     35.00000    146.58250      1.23466
 43830.7818287037 18:45:50/31-Dec-2019   1219.47998     16.33000      -999.25      -999.25      -999.25      -999.25      -999.25     35.00000    146.92730      1.23757
 43830.7819444444 18:46:00/31-Dec-2019   1219.47998     33.48000      -999.25      -999.25      -999.25      -999.25      -999.25     35.00000    145.47940      1.22537
 43830.7820601852 18:46:10/31-Dec-2019   1219.47998     41.45000      -999.25      -999.25      -999.25      -999.25      -999.25     35.00000    146.78940      1.23641
 43830.7821759259 18:46:20/31-Dec-2019   1219.47998     42.12000      -999.25      -999.25      -999.25      -999.25      -999.25     35.00000    146.72040      1.23583
 43830.7822916667 18:46:30/31-Dec-2019   1219.47998     42.12000      -999.25      -999.25      -999.25      -999.25      -999.25     35.00000    145.61730      1.22653
 43830.7824074074 18:46:40/31-Dec-2019   1219.47998     42.32000      -999.25      -999.25      -999.25      -999.25      -999.25     35.00000    146.72040      1.23583
 43830.7825231481 18:46:50/31-Dec-2019   1225.17004     36.23000      -999.25      -999.25      -999.25      -999.25      -999.25     35.00000    145.34150      1.21703
 43830.7826388889 18:47:00/31-Dec-2019   1242.48999     18.91000      -999.25      -999.25      -999.25      -999.25      -999.25     35.00000    148.85780      1.22912
 43830.7827546296 18:47:10/31-Dec-2019   1255.83008      5.57000      -999.25      -999.25      -999.25      -999.25      -999.25     35.00000    150.23680      1.22766
 43830.7828703704 18:47:20/31-Dec-2019   1257.85999      3.54000      -999.25      -999.25      -999.25      -999.25      -999.25     35.00000    150.23680      1.22660
 43830.7829861111 18:47:30/31-Dec-2019   1257.81995      3.58000      -999.25      -999.25      -999.25      -999.25      -999.25     35.00000    151.20200      1.23448
 43830.7831018518 18:47:40/31-Dec-2019   1257.88000      3.52000      -999.25      -999.25      -999.25      -999.25      -999.25     35.00000    150.23680      1.22659
 43830.7832175926 18:47:50/31-Dec-2019   1257.87000      4.51000      -999.25      -999.25      -999.25      -999.25      -999.25     35.00000    150.78830      1.23105
