~VERSION INFORMATION 
VERS  .    2.0                                     :CWLS Log ASCII Standard - VERSION 2.0
WRAP  .    NO                                      :One Line per Time step
PROD  .    Schlumberger Technology Corp.           :LAS Producer
PROG  .    Horizon LASWriter 9.2.113335.3100       :LAS Program name and version
SOURCE.    Run 9-TimeLogicalAcq                    :Run&Pass Information
CREA  .    01/21/2020                              :LAS Creation date {MM/DD/YYYY}
#--------------------------------------------------
~WELL INFORMATION 
#MNEM           .UNIT                      DATA            :DESCRIPTION
#----            ------          --------------            -----------------------------
STRT            .d               43828.3333333334          :START TIME(OLE Automation date)
STOP            .d               43829.1041666667          :STOP TIME(OLE Automation date)
STEP            .d                            0            :STEP TIME(10s in time)
NULL            .                       -999.25            :NULL VALUE
COMP            .                       Equinor            :COMPANY
WELL            .                        31/5-7            :WELL NAME
FLD             .                           Eos            :FIELD NAME
RIGN            .                 West Hercules            :Rig Name
RIGTYP          .                Semi-Submersible          :Rig Type
SON             .                     19SCA0085            :Service Order Number
SRVC            .                  Schlumberger            :SERVICE COMPANY
DATE            .                    12/29/2019            :LOG DATE(Composite Date for Composite LAP) (MM/DD/YYYY)
CLAB            .                       County:            :County Label
CNTY            .                                          :COUNTY
SLAB            .                                          :State/Province Label
STAT            .                                          :STATE or PROVINCE
PROV            .                                          :STATE or PROVINCE
CTRY            .                        Norway            :COUNTRY
CONT_REGION     .                        Europe            :Continent Region
SECT            .                                          :Section
TOWN            .                                          :Township
RANG            .                                          :Range
API             .                                          :API NUMBER
UWI             .                                          :UNIQUE WELL ID
LUL             .                Service Office            :Logging Unit Location
LUN             .                          A615            :Logging Unit Number
LOC             .                Norwegian North Sea       :FIELD LOCATION
FL1             .                Section: 8 1/2 in.        :Field Location Line 1
FL2             .                Job no.: 19SCA0085        :Field Location Line 2
LATI            .deg             60° 34' 35.14" N          :LATITUDE
LONG            .deg             3° 26' 36.13" E           :LONGITUDE
PDAT            .                           MSL            :Local Permanent Datum
LMF             .                            DF            :Logging Measured From
APD             .m                        31.00            :Elevation of Depth Reference (LMF) Above Permanent Datum
EPD             .m                         0.00            :Elevation of Permanent Datum (PDAT) above Mean Sea Level
EKB             .m                      -999.25            :Elevation of Kelly Bushing Above Permanent Datum
EDF             .m                        31.00            :Elevation of Drill Floor Above Permanent Datum
EGL             .m                      -307.00            :Elevation of Ground Level Above Permanent Datum
ECF             .m                      -999.25            :Elevation of Casing Flange above Permanent Datum
#--------------------------------------------------
~CURVE INFORMATION
#MNEM           .UNIT                  API CODE            :DESCRIPTION
#----            ------          --------------            -----------------------------
TIME_1900       .d                                         :                                                        Time Index(OLE Automation date)
TIME            .s                                         :                                (10s)                   Time(hh mm ss/dd-MMM-yyyy)
DEPTH           .m                                         :(RT)    (DnMWorkflow)                                   Depth Index
BLKP            .m                                         :(RT)    (DRILLING_SURFACE)                              Height of block above rig floor
GR              .gAPI                                      :(RT)    (ARC6)                                          Gamma Ray
CRPM            .c/min                                     :(RT)    (TELE675)                                       Collar Rotational Speed
STICK           .c/min                                     :(RT)    (TELE675)                                       Stick Slip Indicator
SHKRSK          .                                          :(RT)    (TELE675)                                       Shock Risk
SHKPK           .gn                                        :(RT)    (TELE675)                                       Shock Peak
DHAT            .degC                                      :(RM)    (ARC6)                                          Downhole Annulus Temperature
DHAP            .bar                                       :(RM)    (ARC6)                                          Downhole Annulus Pressure
ECD             .g/cm3                                     :(RM)    (ARC6)                                          Equivalent Circulating Density
#-------------------------------------------------------------
#       TIME_1900                 TIME        DEPTH         BLKP           GR         CRPM        STICK       SHKRSK        SHKPK         DHAT         DHAP          ECD 
#                                       (DnMWorkfl)  (DRILLING_)       (ARC6)    (TELE675)    (TELE675)    (TELE675)    (TELE675)       (ARC6)       (ARC6)       (ARC6) 
#                                              (RT)         (RT)         (RT)         (RT)         (RT)         (RT)         (RT)         (RM)         (RM)         (RM) 
#                                (10s)                                                                                                                                   
~ASCII
# ...
 43829.1000000000 02:24:00/30-Dec-2019   1739.27002     42.21000      -999.25      -999.25      -999.25      -999.25      -999.25     43.00000    198.29320      1.16850
 43829.1001157407 02:24:10/30-Dec-2019   1739.27002     32.76000      -999.25      -999.25      -999.25      -999.25      -999.25     43.00000    198.77590      1.17134
 43829.1002314815 02:24:20/30-Dec-2019   1739.27002     15.34000      -999.25      -999.25      -999.25      -999.25      -999.25     43.00000    197.94850      1.16647
 43829.1003472222 02:24:30/30-Dec-2019   1739.27002     12.05000      -999.25      -999.25      -999.25      -999.25      -999.25     43.00000    198.43110      1.16931
 43829.1004629630 02:24:40/30-Dec-2019   1739.27002     11.96000      -999.25      -999.25      -999.25      -999.25      -999.25     43.00000    197.60380      1.16443
 43829.1005787037 02:24:50/30-Dec-2019   1739.27002      4.31000      -999.25      -999.25      -999.25      -999.25      -999.25     43.00000    197.05220      1.16118
 43829.1006944444 02:25:00/30-Dec-2019   1739.27002      3.40000      -999.25      -999.25      -999.25      -999.25      -999.25     43.00000    193.81160      1.14209
 43829.1008101852 02:25:10/30-Dec-2019   1734.45996      7.94000      -999.25      -999.25      -999.25      -999.25      -999.25     43.00000    194.57010      1.14903
 43829.1009259259 02:25:20/30-Dec-2019   1719.70007     22.70000      -999.25      -999.25      -999.25      -999.25      -999.25     43.00000    192.77740      1.14962
 43829.1010416667 02:25:30/30-Dec-2019   1704.17004     38.23000      -999.25      -999.25      -999.25      -999.25      -999.25     43.00000    191.95000      1.15330
 43829.1011574074 02:25:40/30-Dec-2019   1699.79993     42.60000      -999.25      -999.25      -999.25      -999.25      -999.25     43.00000    193.94950      1.16947
 43829.1012731481 02:25:50/30-Dec-2019   1700.08997     42.31001      -999.25      -999.25      -999.25      -999.25      -999.25     43.00000    195.32850      1.17769
 43829.1013888889 02:26:00/30-Dec-2019   1700.21997     42.18000      -999.25      -999.25      -999.25      -999.25      -999.25     43.00000    193.88060      1.16893
 43829.1015046296 02:26:10/30-Dec-2019   1700.26001     42.10000      -999.25      -999.25      -999.25      -999.25      -999.25     43.00000    193.74270      1.16801
 43829.1016203704 02:26:20/30-Dec-2019   1700.26001     39.61000      -999.25      -999.25      -999.25      -999.25      -999.25     43.00000    194.50110      1.17258
 43829.1017361111 02:26:30/30-Dec-2019   1700.26001     23.47000      -999.25      -999.25      -999.25      -999.25      -999.25     43.00000    194.43210      1.17217
 43829.1018518518 02:26:40/30-Dec-2019   1700.26001     12.74000      -999.25      -999.25      -999.25      -999.25      -999.25     43.00000    193.19110      1.16469
 43829.1019675926 02:26:50/30-Dec-2019   1700.26001     12.72000      -999.25      -999.25      -999.25      -999.25      -999.25     43.00000    194.01850      1.16967
 43829.1020833333 02:27:00/30-Dec-2019   1700.26001      9.48000      -999.25      -999.25      -999.25      -999.25      -999.25     42.00000    195.05270      1.17591
 43829.1021990741 02:27:10/30-Dec-2019   1700.26001      3.35000      -999.25      -999.25      -999.25      -999.25      -999.25     42.00000    192.43270      1.16011
 43829.1023148148 02:27:20/30-Dec-2019   1698.84998      4.51000      -999.25      -999.25      -999.25      -999.25      -999.25     42.00000    189.39900      1.14305
 43829.1024305556 02:27:30/30-Dec-2019   1686.88000     16.48000      -999.25      -999.25      -999.25      -999.25      -999.25     42.00000    188.77850      1.14589
 43829.1025462963 02:27:40/30-Dec-2019   1670.59998     32.76000      -999.25      -999.25      -999.25      -999.25      -999.25     42.00000    189.33000      1.16031
 43829.1026620370 02:27:50/30-Dec-2019   1661.66003     41.70000      -999.25      -999.25      -999.25      -999.25      -999.25     42.00000    189.67480      1.17032
 43829.1027777778 02:28:00/30-Dec-2019   1660.95996     42.40000      -999.25      -999.25      -999.25      -999.25      -999.25     42.00000    189.60580      1.17028
 43829.1028935185 02:28:10/30-Dec-2019   1661.09009     42.20000      -999.25      -999.25      -999.25      -999.25      -999.25     42.00000    189.26110      1.16804
 43829.1030092593 02:28:20/30-Dec-2019   1661.09009     40.33000      -999.25      -999.25      -999.25      -999.25      -999.25     42.00000    189.53690      1.16975
 43829.1031250000 02:28:30/30-Dec-2019   1661.09009     24.08000      -999.25      -999.25      -999.25      -999.25      -999.25     42.00000    190.29530      1.17443
 43829.1032407407 02:28:40/30-Dec-2019   1661.09009     13.17000      -999.25      -999.25      -999.25      -999.25      -999.25     42.00000    190.29530      1.17443
 43829.1033564815 02:28:50/30-Dec-2019   1661.09009     13.06000      -999.25      -999.25      -999.25      -999.25      -999.25     42.00000    188.98530      1.16634
 43829.1034722222 02:29:00/30-Dec-2019   1661.09009     13.06000      -999.25      -999.25      -999.25      -999.25      -999.25     42.00000    188.98530      1.16634
 43829.1035879630 02:29:10/30-Dec-2019   1661.09009     13.06000      -999.25      -999.25      -999.25      -999.25      -999.25     42.00000    189.39900      1.16889
 43829.1037037037 02:29:20/30-Dec-2019   1661.09009     13.06000      -999.25      -999.25      -999.25      -999.25      -999.25     42.00000    188.70950      1.16464
 43829.1038194444 02:29:30/30-Dec-2019   1661.09009     13.06000      -999.25      -999.25      -999.25      -999.25      -999.25     42.00000    189.67480      1.17060
 43829.1039351852 02:29:40/30-Dec-2019   1661.09009     13.06000      -999.25      -999.25      -999.25      -999.25      -999.25     42.00000    188.22690      1.16166
 43829.1040509259 02:29:50/30-Dec-2019   1661.09009     13.06000      -999.25      -999.25      -999.25      -999.25      -999.25     42.00000    189.60580      1.17017
 43829.1041666667 02:30:00/30-Dec-2019   1661.09009     13.06000      -999.25      -999.25      -999.25      -999.25      -999.25     42.00000    188.77850      1.16506
