~VERSION INFORMATION 
VERS  .    2.0                                     :CWLS Log ASCII Standard - VERSION 2.0
WRAP  .    NO                                      :One Line per Time step
PROD  .    Schlumberger Technology Corp.           :LAS Producer
PROG  .    Horizon LASWriter 9.2.113335.3100       :LAS Program name and version
SOURCE.    Run 2-TimeLogicalAcq                    :Run&Pass Information
CREA  .    12/11/2019                              :LAS Creation date {MM/DD/YYYY}
#--------------------------------------------------
~WELL INFORMATION 
#MNEM           .UNIT                      DATA            :DESCRIPTION
#----            ------          --------------            -----------------------------
STRT            .d               43803.0416666667          :START TIME(OLE Automation date)
STOP            .d               43803.8437500000          :STOP TIME(OLE Automation date)
STEP            .d                            0            :STEP TIME(10s in time)
NULL            .                       -999.25            :NULL VALUE
COMP            .                       Equinor            :COMPANY
WELL            .                        31/5-7            :WELL NAME
FLD             .                           Eos            :FIELD NAME
RIGN            .                 West Hercules            :Rig Name
RIGTYP          .                Semi-Submersible          :Rig Type
SON             .                     19SCA0085            :Service Order Number
SRVC            .                  Schlumberger            :SERVICE COMPANY
DATE            .                    12/04/2019            :LOG DATE(Composite Date for Composite LAP) (MM/DD/YYYY)
CLAB            .                       County:            :County Label
CNTY            .                                          :COUNTY
SLAB            .                                          :State/Province Label
STAT            .                                          :STATE or PROVINCE
PROV            .                                          :STATE or PROVINCE
CTRY            .                        Norway            :COUNTRY
CONT_REGION     .                        Europe            :Continent Region
SECT            .                                          :Section
TOWN            .                                          :Township
RANG            .                                          :Range
API             .                                          :API NUMBER
UWI             .                                          :UNIQUE WELL ID
LUL             .                Service Office            :Logging Unit Location
LUN             .                          A615            :Logging Unit Number
LOC             .                Norwegian North Sea       :FIELD LOCATION
FL1             .                Section: 8 1/2 in. pilot  :Field Location Line 1
FL2             .                Job no.: 19SCA0085        :Field Location Line 2
LATI            .deg             60° 34' 35.14" N          :LATITUDE
LONG            .deg             3° 26' 36.13" E           :LONGITUDE
PDAT            .                           MSL            :Local Permanent Datum
LMF             .                            DF            :Logging Measured From
APD             .m                        31.00            :Elevation of Depth Reference (LMF) Above Permanent Datum
EPD             .m                         0.00            :Elevation of Permanent Datum (PDAT) above Mean Sea Level
EKB             .m                      -999.25            :Elevation of Kelly Bushing Above Permanent Datum
EDF             .m                        31.00            :Elevation of Drill Floor Above Permanent Datum
EGL             .m                      -307.00            :Elevation of Ground Level Above Permanent Datum
ECF             .m                      -999.25            :Elevation of Casing Flange above Permanent Datum
#--------------------------------------------------
~CURVE INFORMATION
#MNEM           .UNIT                  API CODE            :DESCRIPTION
#----            ------          --------------            -----------------------------
TIME_1900       .d                                         :                                                        Time Index(OLE Automation date)
TIME            .s                                         :                                (10s)                   Time(hh mm ss/dd-MMM-yyyy)
DEPTH           .m                                         :(RT)    (DnMWorkflow)                                   Depth Index
GR              .gAPI                                      :(RT)    (DV6MT)                                         Gamma Ray
BLKP            .m                                         :(RT)    (DRILLING_SURFACE)                              Height of block above rig floor
STICK           .c/min                                     :(RT)    (TELE675)                                       Stick Slip Indicator
CRPM            .c/min                                     :(RT)    (TELE675)                                       Collar Rotational Speed
SHKRSK          .                                          :(RT)    (TELE675)                                       Shock Risk
SHKPK           .gn                                        :(RT)    (TELE675)                                       Shock Peak
ECD             .g/cm3                                     :(RM)    (DV6MT)                                         Equivalent Circulating Density
DHAT            .degC                                      :(RM)    (DV6MT)                                         Downhole Annulus Temperature
DHAP            .bar                                       :(RM)    (DV6MT)                                         Downhole Annulus Pressure
#-------------------------------------------------------------
#       TIME_1900                 TIME        DEPTH           GR         BLKP        STICK         CRPM       SHKRSK        SHKPK          ECD         DHAT         DHAP 
#                                       (DnMWorkfl)      (DV6MT)  (DRILLING_)    (TELE675)    (TELE675)    (TELE675)    (TELE675)      (DV6MT)      (DV6MT)      (DV6MT) 
#                                              (RT)         (RT)         (RT)         (RT)         (RT)         (RT)         (RT)         (RM)         (RM)         (RM) 
#                                (10s)                                                                                                                                   
~ASCII
 43803.0416666667 01:00:00/04-Dec-2019     401.9100       8.6079      14.8400      -999.25      -999.25      -999.25      -999.25       1.0711      12.0000      38.1280
 43803.0417824074 01:00:10/04-Dec-2019     401.8200       8.3741      14.9300      -999.25      -999.25      -999.25      -999.25       1.0672      12.0000      37.9901
 43803.0418981481 01:00:20/04-Dec-2019     401.7300       9.1009      14.8400      -999.25      -999.25      -999.25      -999.25       1.0716      12.0000      38.1280
 43803.0420138889 01:00:30/04-Dec-2019     402.1000       9.7216      14.6500      -999.25      -999.25      -999.25      -999.25       1.0723      12.0000      38.1970
 43803.0421296296 01:00:40/04-Dec-2019     402.1900       9.4244      14.5600      -999.25      -999.25      -999.25      -999.25       1.0645      12.0000      37.9212
 43803.0422453704 01:00:50/04-Dec-2019     402.2000       8.3741      14.5500      -999.25      -999.25      -999.25      -999.25       1.0709      12.0000      38.1280
 43803.0423611111 01:01:00/04-Dec-2019     402.1400       8.4048      14.6100      -999.25      -999.25       0.0000      23.9837       1.0763      12.0000      38.3349
 43803.0424768519 01:01:10/04-Dec-2019     401.9100       8.4521      14.8400      -999.25      -999.25      -999.25      -999.25       1.0673      12.0000      37.9901
 43803.0425925926 01:01:20/04-Dec-2019     402.0100       7.4018      14.7400      -999.25      -999.25      -999.25      -999.25       1.0650      12.0000      37.9212
 43803.0427083333 01:01:30/04-Dec-2019     402.1000       7.1046      14.6500      -999.25      59.0000      -999.25      -999.25       1.0706      12.0000      38.1280
 43803.0428240741 01:01:40/04-Dec-2019     402.0100       7.7254      14.7400      90.0000      -999.25      -999.25      -999.25       1.0645      12.0000      37.9212
 43803.0429398148 01:01:50/04-Dec-2019     401.9600       8.4521      14.7900      -999.25      -999.25      -999.25      -999.25       1.0730      12.0000      38.1970
 43803.0430555556 01:02:00/04-Dec-2019     402.0000       9.3889      14.7500      -999.25      -999.25      -999.25      -999.25       1.0748      12.0000      38.2659
 43803.0431712963 01:02:10/04-Dec-2019     401.8600       9.8738      14.8900      -999.25      -999.25      -999.25      -999.25       1.0635      12.0000      37.8522
 43803.0432870370 01:02:20/04-Dec-2019     401.9500      10.4091      14.8000      -999.25      -999.25      -999.25      -999.25       1.0651      12.0000      37.9212
 43803.0434027778 01:02:30/04-Dec-2019     402.0700      10.7595      14.6800      -999.25      -999.25      -999.25      -999.25       1.0687      12.0000      38.0591
 43803.0435185185 01:02:40/04-Dec-2019     402.2900      11.0606      14.4600      -999.25      -999.25      -999.25      -999.25       1.0663      12.0000      37.9901
 43803.0436342593 01:02:50/04-Dec-2019     402.2300      11.1186      14.5300      -999.25      -999.25      -999.25      -999.25       1.0721      12.0000      38.1970
 43803.0437500000 01:03:00/04-Dec-2019     401.8500       9.6537      14.9000      -999.25      -999.25       0.0000      15.9892       1.0733      12.0000      38.1970
 43803.0438657407 01:03:10/04-Dec-2019     401.9500       8.0969      14.7100      -999.25      -999.25      -999.25      -999.25       1.0729      12.0000      38.1970
 43803.0439814815 01:03:20/04-Dec-2019     402.0400       7.4018      14.7100      -999.25      -999.25      -999.25      -999.25       1.0708      12.0000      38.1280
 43803.0440972222 01:03:30/04-Dec-2019     402.1300       7.1823      14.6200      -999.25      56.0000      -999.25      -999.25       1.0724      12.0000      38.1970
 43803.0442129630 01:03:40/04-Dec-2019     402.2200       7.7254      14.5300     192.0000      -999.25      -999.25      -999.25       1.0802      12.0000      38.4728
 43803.0443287037 01:03:50/04-Dec-2019     402.1300       8.7720      14.7100      -999.25      -999.25      -999.25      -999.25       1.0744      12.0000      38.2659
 43803.0444444444 01:04:00/04-Dec-2019     402.1300       9.2278      14.6200      -999.25      -999.25      -999.25      -999.25       1.0749      12.0000      38.2659
 43803.0445601852 01:04:10/04-Dec-2019     402.2200       8.9172      14.5300      -999.25      -999.25      -999.25      -999.25       1.0741      12.0000      38.2659
 43803.0446759259 01:04:20/04-Dec-2019     402.4100       8.2222      14.3400      -999.25      -999.25      -999.25      -999.25       1.0798      12.0000      38.4728
 43803.0447916667 01:04:30/04-Dec-2019     402.2200       8.0026      14.6200      -999.25      -999.25      -999.25      -999.25       1.0684      12.0000      38.0591
 43803.0449074074 01:04:40/04-Dec-2019     402.0400       8.5457      14.8000      -999.25      -999.25      -999.25      -999.25       1.0710      12.0000      38.1280
 43803.0450231481 01:04:50/04-Dec-2019     402.1300       9.6002      14.6200      -999.25      -999.25      -999.25      -999.25       1.0628      12.0000      37.8522
 43803.0451388889 01:05:00/04-Dec-2019     402.0700      10.1173      14.5900      -999.25      -999.25       0.0000      23.9837       1.0723      12.0000      38.1970
 43803.0452546296 01:05:10/04-Dec-2019     402.2100       9.7775      14.5400      -999.25      -999.25      -999.25      -999.25       1.0664      12.0000      37.9901
 43803.0453703704 01:05:20/04-Dec-2019     402.3100       8.8629      14.4400      -999.25      60.0000      -999.25      -999.25       1.0681      12.0000      38.0591
 43803.0454861111 01:05:30/04-Dec-2019     402.2100       8.8629      14.5400      -999.25      -999.25      -999.25      -999.25       1.0722      12.0000      38.1970
 43803.0456018519 01:05:40/04-Dec-2019     402.2100       9.7775      14.5400     114.0000      -999.25      -999.25      -999.25       1.0698      12.0000      38.1280
 43803.0457175926 01:05:50/04-Dec-2019     402.0300      10.4685      14.7200      -999.25      -999.25      -999.25      -999.25       1.0689      12.0000      38.0591
 43803.0458333333 01:06:00/04-Dec-2019     402.2200      11.0096      14.5400      -999.25      -999.25      -999.25      -999.25       1.0761      12.0000      38.3349
 43803.0459490741 01:06:10/04-Dec-2019     402.1100      10.6778      14.6400      -999.25      -999.25      -999.25      -999.25       1.0725      12.0000      38.1970
 43803.0460648148 01:06:20/04-Dec-2019     402.3000       9.7632      14.4500      -999.25      -999.25      -999.25      -999.25       1.0681      12.0000      38.0591
 43803.0461805556 01:06:30/04-Dec-2019     402.3000       9.7632      14.4500      -999.25      -999.25      -999.25      -999.25       1.0719      12.0000      38.1970
 43803.0462962963 01:06:40/04-Dec-2019     402.3000      10.6778      14.4500      -999.25      -999.25      -999.25      -999.25       1.0701      12.0000      38.1280
 43803.0464120370 01:06:50/04-Dec-2019     402.4800      10.7411      14.2700      -999.25      -999.25       0.0000      15.9892       1.0637      12.0000      37.9212
 43803.0465277778 01:07:00/04-Dec-2019     406.1900       9.3818      14.4500      -999.25      -999.25      -999.25      -999.25       1.0576      12.0000      38.0591
 43803.0466435185 01:07:10/04-Dec-2019     405.9100       8.0712      14.8200      -999.25      -999.25      -999.25      -999.25       1.0576      11.0000      38.0591
 43803.0467592593 01:07:20/04-Dec-2019     405.9100       7.4491      14.7300      -999.25      58.0000      -999.25      -999.25       1.0614      11.0000      38.1970
 43803.0468750000 01:07:30/04-Dec-2019     406.1000       7.3212      14.5400      -999.25      -999.25      -999.25      -999.25       1.0535      11.0000      37.9212
 43803.0469907407 01:07:40/04-Dec-2019     406.2800       7.7110      14.3600     126.0000      -999.25      -999.25      -999.25       1.0565      11.0000      38.0591
 43803.0471064815 01:07:50/04-Dec-2019     406.3700       8.3748      14.2700      -999.25      -999.25      -999.25      -999.25       1.0566      12.0000      38.0591
