~VERSION INFORMATION 
VERS  .    2.0                                     :CWLS Log ASCII Standard - VERSION 2.0
WRAP  .    NO                                      :One Line per Time step
PROD  .    Schlumberger Technology Corp.           :LAS Producer
PROG  .    Horizon LASWriter 9.2.113335.3100       :LAS Program name and version
SOURCE.    Run 5-TimeLogicalAcq                    :Run&Pass Information
CREA  .    12/20/2019                              :LAS Creation date {MM/DD/YYYY}
#--------------------------------------------------
~WELL INFORMATION 
#MNEM           .UNIT                      DATA            :DESCRIPTION
#----            ------          --------------            -----------------------------
STRT            .d               43815.4062500000          :START TIME(OLE Automation date)
STOP            .d               43816.7395833333          :STOP TIME(OLE Automation date)
STEP            .d                            0            :STEP TIME(10s in time)
NULL            .                       -999.25            :NULL VALUE
COMP            .                       Equinor            :COMPANY
WELL            .                        31/5-7            :WELL NAME
FLD             .                           Eos            :FIELD NAME
RIGN            .                 West Hercules            :Rig Name
RIGTYP          .                Semi-Submersible          :Rig Type
SON             .                     19SCA0085            :Service Order Number
SRVC            .                  Schlumberger            :SERVICE COMPANY
DATE            .                    12/16/2019            :LOG DATE(Composite Date for Composite LAP) (MM/DD/YYYY)
CLAB            .                       County:            :County Label
CNTY            .                                          :COUNTY
SLAB            .                                          :State/Province Label
STAT            .                                          :STATE or PROVINCE
PROV            .                                          :STATE or PROVINCE
CTRY            .                        Norway            :COUNTRY
CONT_REGION     .                        Europe            :Continent Region
SECT            .                                          :Section
TOWN            .                                          :Township
RANG            .                                          :Range
API             .                                          :API NUMBER
UWI             .                                          :UNIQUE WELL ID
LUL             .                Service Office            :Logging Unit Location
LUN             .                          A615            :Logging Unit Number
LOC             .                Norwegian North Sea       :FIELD LOCATION
FL1             .                Section: 12 1/4 in. pilot :Field Location Line 1
FL2             .                Job no.: 19SCA0085        :Field Location Line 2
LATI            .deg             60° 34' 35.14" N          :LATITUDE
LONG            .deg             3° 26' 36.13" E           :LONGITUDE
PDAT            .                           MSL            :Local Permanent Datum
LMF             .                            DF            :Logging Measured From
APD             .m                        31.00            :Elevation of Depth Reference (LMF) Above Permanent Datum
EPD             .m                         0.00            :Elevation of Permanent Datum (PDAT) above Mean Sea Level
EKB             .m                      -999.25            :Elevation of Kelly Bushing Above Permanent Datum
EDF             .m                        31.00            :Elevation of Drill Floor Above Permanent Datum
EGL             .m                      -307.00            :Elevation of Ground Level Above Permanent Datum
ECF             .m                      -999.25            :Elevation of Casing Flange above Permanent Datum
#--------------------------------------------------
~CURVE INFORMATION
#MNEM           .UNIT                  API CODE            :DESCRIPTION
#----            ------          --------------            -----------------------------
TIME_1900       .d                                         :                                                        Time Index(OLE Automation date)
TIME            .s                                         :                                (10s)                   Time(hh mm ss/dd-MMM-yyyy)
DEPTH           .m                                         :(RT)    (DnMWorkflow)                                   Depth Index
GR              .gAPI                                      :(RT)    (ARC9)                                          Gamma Ray
BLKP            .m                                         :(RT)    (DRILLING_SURFACE)                              Height of block above rig floor
STICK           .c/min                                     :(RT)    (TELE900)                                       Stick Slip Indicator
CRPM            .c/min                                     :(RT)    (TELE900)                                       Collar Rotational Speed
SHKRSK          .                                          :(RT)    (TELE900)                                       Shock Risk
SHKPK           .gn                                        :(RT)    (TELE900)                                       Shock Peak
ECD             .g/cm3                                     :(RM)    (ARC9)                                          Equivalent Circulating Density
DHAP            .bar                                       :(RM)    (ARC9)                                          Downhole Annulus Pressure
DHAT            .degC                                      :(RM)    (ARC9)                                          Downhole Annulus Temperature
#-------------------------------------------------------------
#       TIME_1900                 TIME        DEPTH           GR         BLKP        STICK         CRPM       SHKRSK        SHKPK          ECD         DHAP         DHAT 
#                                       (DnMWorkfl)       (ARC9)  (DRILLING_)    (TELE900)    (TELE900)    (TELE900)    (TELE900)       (ARC9)       (ARC9)       (ARC9) 
#                                              (RT)         (RT)         (RT)         (RT)         (RT)         (RT)         (RT)         (RM)         (RM)         (RM) 
#                                (10s)                                                                                                                                   
~ASCII
# ...
 43816.0562500000 01:21:00/17-Dec-2019    1733.6100      67.0558      28.5400      -999.25      -999.25      -999.25      -999.25       1.3351     225.4586      32.0000
 43816.0563657407 01:21:10/17-Dec-2019    1733.6901      67.3623      28.4500      -999.25     187.0000      -999.25      -999.25       1.3354     225.5275      32.0000
 43816.0564814815 01:21:20/17-Dec-2019    1734.1600      67.8550      28.0800      -999.25      -999.25      -999.25      -999.25       1.3371     225.8722      32.0000
 43816.0565972222 01:21:30/17-Dec-2019    1734.5200      67.1803      27.6100      -999.25      -999.25      -999.25      -999.25       1.3372     225.9412      32.0000
 43816.0567129630 01:21:40/17-Dec-2019    1734.7200      63.4910      27.4200      -999.25      -999.25      -999.25      -999.25       1.3354     225.6654      32.0000
 43816.0568287037 01:21:50/17-Dec-2019    1734.7200      58.0228      27.3300     135.0000      -999.25      -999.25      -999.25       1.3358     225.7344      32.0000
 43816.0569444444 01:22:00/17-Dec-2019    1734.9100      55.9332      27.2300      -999.25      -999.25       0.0000       0.0000       1.3365     225.8722      32.0000
 43816.0570601852 01:22:10/17-Dec-2019    1735.4601      58.2000      26.6700      -999.25      -999.25      -999.25      -999.25       1.3364     225.9412      32.0000
 43816.0571759259 01:22:20/17-Dec-2019    1735.8400      57.4067      26.2900      -999.25      -999.25      -999.25      -999.25       1.3374     226.1480      32.0000
 43816.0572916667 01:22:30/17-Dec-2019    1735.9500      57.6210      26.1800      -999.25     181.0000      -999.25      -999.25       1.3373     226.1480      32.0000
 43816.0574074074 01:22:40/17-Dec-2019    1736.2900      59.9140      25.8300      -999.25      -999.25      -999.25      -999.25       1.3371     226.1480      32.0000
 43816.0575231481 01:22:50/17-Dec-2019    1736.5100      61.8580      25.6300      -999.25      -999.25      -999.25      -999.25       1.3388     226.4928      32.0000
 43816.0576388889 01:23:00/17-Dec-2019    1736.8201      57.6587      25.3100      -999.25      -999.25      -999.25      -999.25       1.3395     226.6307      32.0000
 43816.0577546296 01:23:10/17-Dec-2019    1737.1300      56.3331      25.0100     108.0000      -999.25      -999.25      -999.25       1.3401     226.7686      32.0000
 43816.0578703704 01:23:20/17-Dec-2019    1737.6100      57.1149      24.5200      -999.25      -999.25      -999.25      -999.25       1.3397     226.7686      32.0000
 43816.0579861111 01:23:30/17-Dec-2019    1737.8400      57.1185      24.3000      -999.25      -999.25       0.0000       0.0000       1.3387     226.6307      32.0000
 43816.0581018519 01:23:40/17-Dec-2019    1738.1201      59.1175      24.0100      -999.25      -999.25      -999.25      -999.25       1.3393     226.7686      32.0000
 43816.0582175926 01:23:50/17-Dec-2019    1738.4100      65.9363      23.7300      -999.25      -999.25      -999.25      -999.25       1.3403     226.9754      32.0000
 43816.0583333333 01:24:00/17-Dec-2019    1738.6799      66.0396      23.4400      -999.25     190.0000      -999.25      -999.25       1.3405     227.0444      32.0000
 43816.0584490741 01:24:10/17-Dec-2019    1738.9601      59.8001      23.1700      -999.25      -999.25      -999.25      -999.25       1.3399     226.9754      32.0000
 43816.0585648148 01:24:20/17-Dec-2019    1739.2500      53.2110      22.9000      -999.25      -999.25      -999.25      -999.25       1.3416     227.3202      32.0000
 43816.0586805556 01:24:30/17-Dec-2019    1739.5100      51.3530      22.6100      -999.25      -999.25      -999.25      -999.25       1.3451     227.9407      32.0000
 43816.0587962963 01:24:40/17-Dec-2019    1739.8101      54.5544      22.3300     102.0000      -999.25      -999.25      -999.25       1.3421     227.4580      32.0000
 43816.0589120370 01:24:50/17-Dec-2019    1740.0601      58.7336      22.0600      -999.25      -999.25       0.0000       0.0000       1.3422     227.5270      32.0000
 43816.0590277778 01:25:00/17-Dec-2019    1740.3300      61.9350      21.8100      -999.25      -999.25      -999.25      -999.25       1.3437     227.8028      32.0000
 43816.0591435185 01:25:10/17-Dec-2019    1740.7600      64.0985      21.3800      -999.25      -999.25      -999.25      -999.25       1.3413     227.4580      32.0000
 43816.0592592593 01:25:20/17-Dec-2019    1740.8401      66.9524      21.3100      -999.25      -999.25      -999.25      -999.25       1.3429     227.7338      32.0000
 43816.0593750000 01:25:30/17-Dec-2019    1740.9901      71.5386      21.1400      -999.25     186.0000      -999.25      -999.25       1.3439     227.9407      32.0000
 43816.0594907407 01:25:40/17-Dec-2019    1741.5101      75.4266      20.6300      -999.25      -999.25      -999.25      -999.25       1.3460     228.3544      32.0000
 43816.0596064815 01:25:50/17-Dec-2019    1741.5900      69.5678      20.4700      -999.25      -999.25      -999.25      -999.25       1.3432     227.8717      32.0000
 43816.0597222222 01:26:00/17-Dec-2019    1741.5000      63.4585      20.6500      -999.25      -999.25      -999.25      -999.25       1.3383     227.0444      32.0000
 43816.0598379630 01:26:10/17-Dec-2019    1741.6801      58.9707      20.4700     114.0000      -999.25      -999.25      -999.25       1.3374     226.9065      32.0000
 43816.0599537037 01:26:20/17-Dec-2019    1742.0199      59.5314      20.2200      -999.25      -999.25       0.0000       0.0000       1.3383     227.1133      32.0000
 43816.0600694444 01:26:30/17-Dec-2019    1742.0800      61.8876      20.0500      -999.25      -999.25      -999.25      -999.25       1.3378     227.0444      32.0000
 43816.0601851852 01:26:40/17-Dec-2019    1742.1699      61.8580      19.8800      -999.25      -999.25      -999.25      -999.25       1.3378     227.0444      32.0000
 43816.0603009259 01:26:50/17-Dec-2019    1742.3300      59.9140      19.8100      -999.25     186.0000      -999.25      -999.25       1.3377     227.0444      32.0000
 43816.0604166667 01:27:00/17-Dec-2019    1742.3101      57.6210      19.8300      -999.25      -999.25      -999.25      -999.25       1.3369     226.9065      32.0000
 43816.0605324074 01:27:10/17-Dec-2019    1742.5399      58.1077      19.6000      -999.25      -999.25      -999.25      -999.25       1.3366     226.9065      32.0000
 43816.0606481481 01:27:20/17-Dec-2019    1742.6899      61.0023      19.4600      -999.25      -999.25      -999.25      -999.25       1.3362     226.8375      32.0000
 43816.0607638889 01:27:30/17-Dec-2019    1742.7300      60.3363      19.4100     381.0000      -999.25      -999.25      -999.25       1.3365     226.9065      32.0000
 43816.0608796296 01:27:40/17-Dec-2019    1743.0599      64.5154      19.0900      -999.25      -999.25       0.0000       0.0000       1.3363     226.9065      32.0000
 43816.0609953704 01:27:50/17-Dec-2019    1743.0100      71.5843      19.1400      -999.25      -999.25      -999.25      -999.25       1.3354     226.7686      32.0000
 43816.0611111111 01:28:00/17-Dec-2019    1743.0801      69.7576      19.0700      -999.25      -999.25      -999.25      -999.25       1.3359     226.8375      32.0000
 43816.0612268519 01:28:10/17-Dec-2019    1743.2301      67.2475      18.9200      -999.25      -999.25      -999.25      -999.25       1.3349     226.6996      32.0000
 43816.0613425926 01:28:20/17-Dec-2019    1743.2001      66.8341      18.9500      -999.25     185.0000      -999.25      -999.25       1.3361     226.9065      32.0000
 43816.0614583333 01:28:30/17-Dec-2019    1743.5299      67.8320      18.6200      -999.25      -999.25      -999.25      -999.25       1.3368     227.0444      32.0000
 43816.0615740741 01:28:40/17-Dec-2019    1743.5900      71.9088      18.5600      -999.25      -999.25      -999.25      -999.25       1.3358     226.9065      32.0000
 43816.0616898148 01:28:50/17-Dec-2019    1743.6399      73.6318      18.5100      -999.25      -999.25      -999.25      -999.25       1.3363     226.9754      32.0000
