~VERSION INFORMATION 
VERS  .    2.0                                     :CWLS Log ASCII Standard - VERSION 2.0
WRAP  .    NO                                      :One Line per Time step
PROD  .    Schlumberger Technology Corp.           :LAS Producer
PROG  .    Horizon LASWriter 9.2.113335.3100       :LAS Program name and version
SOURCE.    Run 10-TimeLogicalAcq                   :Run&Pass Information
CREA  .    01/21/2020                              :LAS Creation date {MM/DD/YYYY}
#--------------------------------------------------
~WELL INFORMATION 
#MNEM           .UNIT                      DATA            :DESCRIPTION
#----            ------          --------------            -----------------------------
STRT            .d               43830.7500000000          :START TIME(OLE Automation date)
STOP            .d               43831.2291666667          :STOP TIME(OLE Automation date)
STEP            .d                            0            :STEP TIME(10s in time)
NULL            .                       -999.25            :NULL VALUE
COMP            .                       Equinor            :COMPANY
WELL            .                        31/5-7            :WELL NAME
FLD             .                           Eos            :FIELD NAME
RIGN            .                 West Hercules            :Rig Name
RIGTYP          .                Semi-Submersible          :Rig Type
SON             .                     19SCA0085            :Service Order Number
SRVC            .                  Schlumberger            :SERVICE COMPANY
DATE            .                    12/31/2019            :LOG DATE(Composite Date for Composite LAP) (MM/DD/YYYY)
CLAB            .                       County:            :County Label
CNTY            .                                          :COUNTY
SLAB            .                                          :State/Province Label
STAT            .                                          :STATE or PROVINCE
PROV            .                                          :STATE or PROVINCE
CTRY            .                        Norway            :COUNTRY
CONT_REGION     .                        Europe            :Continent Region
SECT            .                                          :Section
TOWN            .                                          :Township
RANG            .                                          :Range
API             .                                          :API NUMBER
UWI             .                                          :UNIQUE WELL ID
LUL             .                Service Office            :Logging Unit Location
LUN             .                          A615            :Logging Unit Number
LOC             .                Norwegian North Sea       :FIELD LOCATION
FL1             .                Section: 8 1/2 in.        :Field Location Line 1
FL2             .                Job no.: 19SCA0085        :Field Location Line 2
LATI            .deg             60° 34' 35.14" N          :LATITUDE
LONG            .deg             3° 26' 36.13" E           :LONGITUDE
PDAT            .                           MSL            :Local Permanent Datum
LMF             .                            DF            :Logging Measured From
APD             .m                        31.00            :Elevation of Depth Reference (LMF) Above Permanent Datum
EPD             .m                         0.00            :Elevation of Permanent Datum (PDAT) above Mean Sea Level
EKB             .m                      -999.25            :Elevation of Kelly Bushing Above Permanent Datum
EDF             .m                        31.00            :Elevation of Drill Floor Above Permanent Datum
EGL             .m                      -307.00            :Elevation of Ground Level Above Permanent Datum
ECF             .m                      -999.25            :Elevation of Casing Flange above Permanent Datum
#--------------------------------------------------
~CURVE INFORMATION
#MNEM           .UNIT                  API CODE            :DESCRIPTION
#----            ------          --------------            -----------------------------
TIME_1900       .d                                         :                                                        Time Index(OLE Automation date)
TIME            .s                                         :                                (10s)                   Time(hh mm ss/dd-MMM-yyyy)
DEPTH           .m                                         :(RT)    (DnMWorkflow)                                   Depth Index
BLKP            .m                                         :(RT)    (DRILLING_SURFACE)                              Height of block above rig floor
GR              .gAPI                                      :(RT)    (ARC6)                                          Gamma Ray
CRPM            .c/min                                     :(RT)    (TELE675)                                       Collar Rotational Speed
STICK           .c/min                                     :(RT)    (TELE675)                                       Stick Slip Indicator
SHKRSK          .                                          :(RT)    (TELE675)                                       Shock Risk
SHKPK           .gn                                        :(RT)    (TELE675)                                       Shock Peak
DHAT            .degC                                      :(RM)    (ARC6)                                          Downhole Annulus Temperature
DHAP            .bar                                       :(RM)    (ARC6)                                          Downhole Annulus Pressure
ECD             .g/cm3                                     :(RM)    (ARC6)                                          Equivalent Circulating Density
#-------------------------------------------------------------
#       TIME_1900                 TIME        DEPTH         BLKP           GR         CRPM        STICK       SHKRSK        SHKPK         DHAT         DHAP          ECD 
#                                       (DnMWorkfl)  (DRILLING_)       (ARC6)    (TELE675)    (TELE675)    (TELE675)    (TELE675)       (ARC6)       (ARC6)       (ARC6) 
#                                              (RT)         (RT)         (RT)         (RT)         (RT)         (RT)         (RT)         (RM)         (RM)         (RM) 
#                                (10s)                                                                                                                                   
~ASCII
# ...
 43830.8388888889 20:08:00/31-Dec-2019   2560.28003     41.97000      -999.25      -999.25      -999.25      -999.25      -999.25     68.00000    286.68400      1.14577
 43830.8390046296 20:08:10/31-Dec-2019   2560.28003     41.97000      -999.25      -999.25      -999.25      -999.25      -999.25     68.00000    285.51190      1.14109
 43830.8391203704 20:08:20/31-Dec-2019   2560.28003     41.97000      -999.25      -999.25      -999.25      -999.25      -999.25     68.00000    290.54510      1.16121
 43830.8392361111 20:08:30/31-Dec-2019   2560.28003     41.97000      -999.25      -999.25      -999.25      -999.25      -999.25     68.00000    289.99350      1.15900
 43830.8393518519 20:08:40/31-Dec-2019   2560.28003     41.97000      -999.25      -999.25      -999.25      -999.25      -999.25     68.00000    290.95880      1.16286
 43830.8394675926 20:08:50/31-Dec-2019   2560.28003     41.97000      -999.25      -999.25      -999.25      -999.25      -999.25     68.00000    292.82040      1.17030
 43830.8395833333 20:09:00/31-Dec-2019   2560.28003     41.97000      -999.25      -999.25      -999.25      -999.25      -999.25     68.00000    292.68240      1.16975
 43830.8396990741 20:09:10/31-Dec-2019   2560.28003     41.97000      -999.25      -999.25      -999.25      -999.25      -999.25     68.00000    285.30510      1.14026
 43830.8398148148 20:09:20/31-Dec-2019   2560.28003     41.97000      -999.25      -999.25      -999.25      -999.25      -999.25     68.00000    286.68400      1.14577
 43830.8399305556 20:09:30/31-Dec-2019   2560.28003     41.97000      -999.25      -999.25      -999.25      -999.25      -999.25     68.00000    290.13140      1.15955
 43830.8400462963 20:09:40/31-Dec-2019   2560.28003     41.97000      -999.25      -999.25      -999.25      -999.25      -999.25     68.00000    290.47610      1.16093
 43830.8401620370 20:09:50/31-Dec-2019   2560.28003     41.97000      -999.25      -999.25      -999.25      -999.25      -999.25     68.00000    291.16560      1.16369
 43830.8402777778 20:10:00/31-Dec-2019   2560.28003     41.97000      -999.25      -999.25      -999.25      -999.25      -999.25     68.00000    287.23560      1.14798
 43830.8403935185 20:10:10/31-Dec-2019   2560.28003     41.97000      -999.25      -999.25      -999.25      -999.25      -999.25     68.00000    289.71770      1.15790
 43830.8405092593 20:10:20/31-Dec-2019   2560.28003     41.97000      -999.25      -999.25      -999.25      -999.25      -999.25     68.00000    292.95820      1.17085
 43830.8406250000 20:10:30/31-Dec-2019   2560.28003     41.97000      -999.25      -999.25      -999.25      -999.25      -999.25     68.00000    291.30350      1.16424
 43830.8407407407 20:10:40/31-Dec-2019   2560.28003     41.97000      -999.25      -999.25      -999.25      -999.25      -999.25     68.00000    291.85510      1.16644
 43830.8408564815 20:10:50/31-Dec-2019   2560.28003     41.97000      -999.25      -999.25      -999.25      -999.25      -999.25     68.00000    286.82190      1.14633
 43830.8409722222 20:11:00/31-Dec-2019   2560.28003     41.97000      -999.25      -999.25      -999.25      -999.25      -999.25     68.00000    286.54610      1.14522
 43830.8410879630 20:11:10/31-Dec-2019   2560.28003     41.97000      -999.25      -999.25      -999.25      -999.25      -999.25     68.00000    287.30450      1.14825
 43830.8412037037 20:11:20/31-Dec-2019   2560.28003     41.97000      -999.25      -999.25      -999.25      -999.25      -999.25     68.00000    289.02820      1.15514
 43830.8413194444 20:11:30/31-Dec-2019   2560.28003     41.97000      -999.25      -999.25      -999.25      -999.25      -999.25     68.00000    286.95980      1.14688
 43830.8414351852 20:11:40/31-Dec-2019   2560.28003     41.97000      -999.25      -999.25      -999.25      -999.25      -999.25     68.00000    289.57980      1.15735
 43830.8415509259 20:11:50/31-Dec-2019   2560.28003     41.97000      -999.25      -999.25      -999.25      -999.25      -999.25     68.00000    292.82040      1.17030
 43830.8416666667 20:12:00/31-Dec-2019   2560.28003     41.97000      -999.25      -999.25      -999.25      -999.25      -999.25     68.00000    290.88980      1.16258
 43830.8417824074 20:12:10/31-Dec-2019   2560.28003     41.97000      -999.25      -999.25      -999.25      -999.25      -999.25     68.00000    290.61400      1.16148
 43830.8418981481 20:12:20/31-Dec-2019   2560.28003     41.97000      -999.25      -999.25      -999.25      -999.25      -999.25     68.00000    288.82140      1.15432
 43830.8420138889 20:12:30/31-Dec-2019   2560.28003     41.97000      -999.25      -999.25      -999.25      -999.25      -999.25     68.00000    290.47610      1.16093
 43830.8421296296 20:12:40/31-Dec-2019   2560.28003     41.97000      -999.25      -999.25      -999.25      -999.25      -999.25     68.00000    293.16510      1.17168
 43830.8422453704 20:12:50/31-Dec-2019   2560.28003     41.97000      -999.25      -999.25      -999.25      -999.25      -999.25     68.00000    293.50980      1.17305
 43830.8423611111 20:13:00/31-Dec-2019   2560.28003     41.97000      -999.25      -999.25      -999.25      -999.25      -999.25     68.00000    292.95820      1.17085
 43830.8424768519 20:13:10/31-Dec-2019   2560.28003     41.97000      -999.25      -999.25      -999.25      -999.25      -999.25     68.00000    293.09610      1.17140
 43830.8425925926 20:13:20/31-Dec-2019   2560.28003     41.97000      -999.25      -999.25      -999.25      -999.25      -999.25     68.00000    294.33720      1.17636
 43830.8427083333 20:13:30/31-Dec-2019   2560.28003     41.97000      -999.25      -999.25      -999.25      -999.25      -999.25     68.00000    293.85460      1.17443
 43830.8428240741 20:13:40/31-Dec-2019   2560.28003     41.97000      -999.25      -999.25      -999.25      -999.25      -999.25     68.00000    294.13040      1.17553
 43830.8429398148 20:13:50/31-Dec-2019   2560.28003     41.97000      -999.25      -999.25      -999.25      -999.25      -999.25     67.00000    294.54400      1.17719
 43830.8430555556 20:14:00/31-Dec-2019   2560.28003     41.97000      -999.25      -999.25      -999.25      -999.25      -999.25     67.00000    294.26820      1.17609
 43830.8431712963 20:14:10/31-Dec-2019   2560.28003     41.97000      -999.25      -999.25      -999.25      -999.25      -999.25     67.00000    293.99240      1.17498
 43830.8432870370 20:14:20/31-Dec-2019   2560.38013     41.87000      -999.25      -999.25      -999.25      -999.25      -999.25     67.00000    296.12980      1.18348
 43830.8434027778 20:14:30/31-Dec-2019   2560.38013     41.87000      -999.25      -999.25      -999.25      -999.25      -999.25     66.00000    294.06140      1.17521
 43830.8435185185 20:14:40/31-Dec-2019   2560.38013     41.87000      -999.25      -999.25      -999.25      -999.25      -999.25     66.00000    294.33720      1.17631
 43830.8436342593 20:14:50/31-Dec-2019   2560.38013     41.87000      -999.25      -999.25      -999.25      -999.25      -999.25     66.00000    292.13090      1.16750
 43830.8437500000 20:15:00/31-Dec-2019   2560.38013     41.87000      -999.25      -999.25      -999.25      -999.25      -999.25     65.00000    294.13040      1.17549
 43830.8438657407 20:15:10/31-Dec-2019   2560.38013     41.87000      -999.25      -999.25      -999.25      -999.25      -999.25     65.00000    295.37140      1.18045
 43830.8439814815 20:15:20/31-Dec-2019   2560.38013     41.87000      -999.25      -999.25      -999.25      -999.25      -999.25     65.00000    295.85400      1.18238
 43830.8440972222 20:15:30/31-Dec-2019   2560.38013     41.87000      -999.25      -999.25      -999.25      -999.25      -999.25     64.00000    293.37190      1.17246
 43830.8442129630 20:15:40/31-Dec-2019   2560.38013     41.87000      -999.25      -999.25      -999.25      -999.25      -999.25     64.00000    294.33720      1.17631
 43830.8443287037 20:15:50/31-Dec-2019   2560.38013     41.87000      -999.25      -999.25      -999.25      -999.25      -999.25     64.00000    295.44040      1.18072
