~VERSION INFORMATION 
VERS  .    2.0                                     :CWLS Log ASCII Standard - VERSION 2.0
WRAP  .    NO                                      :One Line per Time step
PROD  .    Schlumberger Technology Corp.           :LAS Producer
PROG  .    Horizon LASWriter 9.2.113335.3100       :LAS Program name and version
SOURCE.    Run 13-TimeLogicalAcq                   :Run&Pass Information
CREA  .    01/21/2020                              :LAS Creation date {MM/DD/YYYY}
#--------------------------------------------------
~WELL INFORMATION 
#MNEM           .UNIT                      DATA            :DESCRIPTION
#----            ------          --------------            -----------------------------
STRT            .d               43844.3958333334          :START TIME(OLE Automation date)
STOP            .d               43845.1666666667          :STOP TIME(OLE Automation date)
STEP            .d                            0            :STEP TIME(10s in time)
NULL            .                       -999.25            :NULL VALUE
COMP            .                       Equinor            :COMPANY
WELL            .                        31/5-7            :WELL NAME
FLD             .                           Eos            :FIELD NAME
RIGN            .                 West Hercules            :Rig Name
RIGTYP          .                Semi-Submersible          :Rig Type
SON             .                     19SCA0085            :Service Order Number
SRVC            .                  Schlumberger            :SERVICE COMPANY
DATE            .                    01/13/2020            :LOG DATE(Composite Date for Composite LAP) (MM/DD/YYYY)
CLAB            .                       County:            :County Label
CNTY            .                                          :COUNTY
SLAB            .                                          :State/Province Label
STAT            .                                          :STATE or PROVINCE
PROV            .                                          :STATE or PROVINCE
CTRY            .                        Norway            :COUNTRY
CONT_REGION     .                        Europe            :Continent Region
SECT            .                                          :Section
TOWN            .                                          :Township
RANG            .                                          :Range
API             .                                          :API NUMBER
UWI             .                                          :UNIQUE WELL ID
LUL             .                Service Office            :Logging Unit Location
LUN             .                          A615            :Logging Unit Number
LOC             .                Norwegian North Sea       :FIELD LOCATION
FL1             .                Section: 8 1/2 in.        :Field Location Line 1
FL2             .                Job no.: 19SCA0085        :Field Location Line 2
LATI            .deg             60° 34' 35.14" N          :LATITUDE
LONG            .deg             3° 26' 36.13" E           :LONGITUDE
PDAT            .                           MSL            :Local Permanent Datum
LMF             .                            DF            :Logging Measured From
APD             .m                        31.00            :Elevation of Depth Reference (LMF) Above Permanent Datum
EPD             .m                         0.00            :Elevation of Permanent Datum (PDAT) above Mean Sea Level
EKB             .m                      -999.25            :Elevation of Kelly Bushing Above Permanent Datum
EDF             .m                        31.00            :Elevation of Drill Floor Above Permanent Datum
EGL             .m                      -307.00            :Elevation of Ground Level Above Permanent Datum
ECF             .m                      -999.25            :Elevation of Casing Flange above Permanent Datum
#--------------------------------------------------
~CURVE INFORMATION
#MNEM           .UNIT                  API CODE            :DESCRIPTION
#----            ------          --------------            -----------------------------
TIME_1900       .d                                         :                                                        Time Index(OLE Automation date)
TIME            .s                                         :                                (10s)                   Time(hh mm ss/dd-MMM-yyyy)
DEPTH           .m                                         :(RT)    (DnMWorkflow)                                   Depth Index
BLKP            .m                                         :(RT)    (DRILLING_SURFACE)                              Height of block above rig floor
GR              .gAPI                                      :(RT)    (ARC6)                                          Gamma Ray
CRPM            .c/min                                     :(RT)    (TELE675)                                       Collar Rotational Speed
STICK           .c/min                                     :(RT)    (TELE675)                                       Stick Slip Indicator
SHKRSK          .                                          :(RT)    (TELE675)                                       Shock Risk
SHKPK           .gn                                        :(RT)    (TELE675)                                       Shock Peak
DHAT            .degC                                      :(RM)    (ARC6)                                          Downhole Annulus Temperature
DHAP            .bar                                       :(RM)    (ARC6)                                          Downhole Annulus Pressure
ECD             .g/cm3                                     :(RM)    (ARC6)                                          Equivalent Circulating Density
#-------------------------------------------------------------
#       TIME_1900                 TIME        DEPTH         BLKP           GR         CRPM        STICK       SHKRSK        SHKPK         DHAT         DHAP          ECD 
#                                       (DnMWorkfl)  (DRILLING_)       (ARC6)    (TELE675)    (TELE675)    (TELE675)    (TELE675)       (ARC6)       (ARC6)       (ARC6) 
#                                              (RT)         (RT)         (RT)         (RT)         (RT)         (RT)         (RT)         (RM)         (RM)         (RM) 
#                                (10s)                                                                                                                                   
~ASCII
# ...
 43844.9569444444 22:58:00/14-Jan-2020   2875.84985     33.81000    107.22120      -999.25      -999.25      -999.25      -999.25     41.00000    339.56680      1.20776
 43844.9570601852 22:58:10/14-Jan-2020   2875.76001     33.89000    102.36340      -999.25      -999.25      -999.25      -999.25     41.00000    339.56680      1.20780
 43844.9571759259 22:58:20/14-Jan-2020   2875.69995     33.96000    103.60300     89.00000      -999.25      -999.25      -999.25     41.00000    345.91000      1.23039
 43844.9572916667 22:58:30/14-Jan-2020   2875.62988     34.03000    110.51310      -999.25     12.00000      -999.25      -999.25     41.00000    343.08310      1.22036
 43844.9574074074 22:58:40/14-Jan-2020   2875.61011     34.04000    118.72720      -999.25      -999.25      0.00000      0.00000     41.00000    345.77210      1.22993
 43844.9575231481 22:58:50/14-Jan-2020   2875.47998     34.18000    125.63730      -999.25      -999.25      -999.25      -999.25     41.00000    343.77260      1.22288
 43844.9576388889 22:59:00/14-Jan-2020   2875.43994     34.22000    126.53030      -999.25      -999.25      -999.25      -999.25     41.00000    338.53260      1.20425
 43844.9577546296 22:59:10/14-Jan-2020   2875.40991     34.25000    112.25990      -999.25      -999.25      -999.25      -999.25     41.00000    340.25630      1.21040
 43844.9578703704 22:59:20/14-Jan-2020   2875.32983     34.33000    111.47980     88.00000      -999.25      -999.25      -999.25     41.00000    344.94470      1.22711
 43844.9579861111 22:59:30/14-Jan-2020   2875.23999     34.42000    111.05370      -999.25     12.00000      0.00000      0.00000     41.00000    350.52950      1.24702
 43844.9581018519 22:59:40/14-Jan-2020   2875.09009     34.57000    111.47980      -999.25      -999.25      -999.25      -999.25     41.00000    350.46050      1.24684
 43844.9582175926 22:59:50/14-Jan-2020   2874.95996     34.70000    112.25990      -999.25      -999.25      -999.25      -999.25     41.00000    341.70420      1.21574
 43844.9583333333 23:00:00/14-Jan-2020   2874.85986     34.80000    110.12160      -999.25      -999.25      -999.25      -999.25     41.00000    344.94470      1.22731
 43844.9584490741 23:00:10/14-Jan-2020   2874.78003     34.88000    107.86690     88.00000      -999.25      -999.25      -999.25     41.00000    340.67000      1.21214
 43844.9585648148 23:00:20/14-Jan-2020   2874.65991     34.99000    105.10280      -999.25     15.00000      -999.25      -999.25     41.00000    342.73840      1.21955
 43844.9586805556 23:00:30/14-Jan-2020   2874.50977     35.13000    101.81720      -999.25      -999.25      0.00000      0.00000     41.00000    349.28840      1.24292
 43844.9587962963 23:00:40/14-Jan-2020   2874.38989     35.26000     99.05318      -999.25      -999.25      -999.25      -999.25     41.00000    347.01310      1.23487
 43844.9589120370 23:00:50/14-Jan-2020   2874.23999     35.42000     97.68827      -999.25      -999.25      -999.25      -999.25     41.00000    346.80630      1.23420
 43844.9590277778 23:01:00/14-Jan-2020   2874.13013     35.53000     98.81773      -999.25      -999.25      -999.25      -999.25     41.00000    343.08310      1.22100
 43844.9591435185 23:01:10/14-Jan-2020   2874.08008     35.58000     99.78654     89.00000      -999.25      -999.25      -999.25     41.00000    343.01420      1.22078
 43844.9592592593 23:01:20/14-Jan-2020   2873.83008     35.83000     98.33840      -999.25     15.00000      0.00000      0.00000     41.00000    340.67000      1.21254
 43844.9593750000 23:01:30/14-Jan-2020   2873.45996     36.19000     93.48148      -999.25      -999.25      -999.25      -999.25     41.00000    339.49790      1.20852
 43844.9594907407 23:01:40/14-Jan-2020   2873.04004     36.62000     88.20940      -999.25      -999.25      -999.25      -999.25     41.00000    341.98000      1.21753
 43844.9596064815 23:01:50/14-Jan-2020   2872.60010     37.06000     86.95904      -999.25      -999.25      -999.25      -999.25     41.00000    346.53050      1.23393
 43844.9597222222 23:02:00/14-Jan-2020   2872.33984     37.32000     79.42834     89.00000      -999.25      -999.25      -999.25     41.00000    343.01420      1.22152
 43844.9598379630 23:02:10/14-Jan-2020   2872.10010     37.56000     68.39447      -999.25      9.00000      -999.25      -999.25     41.00000    343.01420      1.22162
 43844.9599537037 23:02:20/14-Jan-2020   2871.85010     37.81000     57.36060      -999.25      -999.25      0.00000      0.00000     41.00000    343.77260      1.22443
 43844.9600694444 23:02:30/14-Jan-2020   2871.66016     38.00000     49.82991      -999.25      -999.25      -999.25      -999.25     41.00000    344.87570      1.22844
 43844.9601851852 23:02:40/14-Jan-2020   2871.22998     38.43000     51.14202      -999.25      -999.25      -999.25      -999.25     41.00000    338.11890      1.20455
 43844.9603009259 23:02:50/14-Jan-2020   2870.92017     38.74000     53.06524      -999.25      -999.25      -999.25      -999.25     41.00000    344.18630      1.22630
 43844.9604166667 23:03:00/14-Jan-2020   2870.62012     39.04000     54.44726     88.00000      -999.25      -999.25      -999.25     41.00000    342.80730      1.22151
 43844.9605324074 23:03:10/14-Jan-2020   2870.43994     39.22000     56.09007      -999.25     12.00000      0.00000      0.00000     41.00000    341.08360      1.21545
 43844.9606481481 23:03:20/14-Jan-2020   2870.23999     39.42000     57.47210      -999.25      -999.25      -999.25      -999.25     41.00000    343.08310      1.22266
 43844.9607638889 23:03:30/14-Jan-2020   2870.07007     39.58000     56.21614      -999.25      -999.25      -999.25      -999.25     41.00000    341.01470      1.21536
 43844.9608796296 23:03:40/14-Jan-2020   2869.96997     39.68000     51.62888      -999.25      -999.25      -999.25      -999.25     41.00000    346.53050      1.23506
 43844.9609953704 23:03:50/14-Jan-2020   2869.93994     39.72001     50.96423     87.00000      -999.25      -999.25      -999.25     41.00000    344.94470      1.22942
 43844.9611111111 23:04:00/14-Jan-2020   2869.93994     39.72001     50.56393      -999.25     12.00000      0.00000      0.00000     41.00000    340.39420      1.21320
 43844.9612268518 23:04:10/14-Jan-2020   2869.90991     39.74000     50.84538      -999.25      -999.25      -999.25      -999.25     41.00000    340.87680      1.21493
 43844.9613425926 23:04:20/14-Jan-2020   2869.87012     39.79000     51.42890      -999.25      -999.25      -999.25      -999.25     41.00000    338.73940      1.20734
 43844.9614583333 23:04:30/14-Jan-2020   2869.85010     39.81000     54.44844      -999.25      -999.25      -999.25      -999.25     41.00000    341.91100      1.21865
 43844.9615740741 23:04:40/14-Jan-2020   2869.83008     39.83000     55.69860      -999.25      -999.25      -999.25      -999.25     41.00000    339.56680      1.21030
 43844.9616898148 23:04:50/14-Jan-2020   2869.78003     39.88000     55.49647     88.00000      -999.25      -999.25      -999.25     41.00000    344.11730      1.22654
 43844.9618055556 23:05:00/14-Jan-2020   2869.75000     39.90000     55.16790      -999.25      9.00000      0.00000      0.00000     41.00000    342.94520      1.22238
 43844.9619212963 23:05:10/14-Jan-2020   2869.68018     39.98000     54.81724      -999.25      -999.25      -999.25      -999.25     41.00000    339.56680      1.21037
 43844.9620370370 23:05:20/14-Jan-2020   2869.63013     40.03000     55.27627      -999.25      -999.25      -999.25      -999.25     41.00000    345.15160      1.23029
 43844.9621527778 23:05:30/14-Jan-2020   2869.50000     40.15000     56.12223      -999.25      -999.25      -999.25      -999.25     41.00000    340.18730      1.21265
 43844.9622685185 23:05:40/14-Jan-2020   2869.46021     40.20000     55.15342     88.00000      -999.25      -999.25      -999.25     41.00000    345.63420      1.23209
 43844.9623842593 23:05:50/14-Jan-2020   2869.31982     40.33000     56.60156      -999.25      9.00000      0.00000      0.00000     41.00000    341.98000      1.21912
