~VERSION INFORMATION 
VERS  .    2.0                                     :CWLS Log ASCII Standard - VERSION 2.0
WRAP  .    NO                                      :One Line per Time step
PROD  .    Schlumberger Technology Corp.           :LAS Producer
PROG  .    Horizon LASWriter 9.0.106845.3100       :LAS Program name and version
SOURCE.    Run 1-TimeLogicalAcq                    :Run&Pass Information
CREA  .    12/03/2019                              :LAS Creation date {MM/DD/YYYY}
#--------------------------------------------------
~WELL INFORMATION 
#MNEM           .UNIT                      DATA            :DESCRIPTION
#----            ------          --------------            -----------------------------
STRT            .d               43801.7395833334          :START TIME(OLE Automation date)
STOP            .d               43802.2048611111          :STOP TIME(OLE Automation date)
STEP            .d                            0            :STEP TIME(10s in time)
NULL            .                       -999.25            :NULL VALUE
COMP            .                       Equinor            :COMPANY
WELL            .                        31/5-7            :WELL NAME
FLD             .                           Eos            :FIELD NAME
RIGN            .                 West Hercules            :Rig Name
RIGTYP          .                Semi-Submersible          :Rig Type
SON             .                     19SCA0085            :Service Order Number
SRVC            .                  Schlumberger            :SERVICE COMPANY
DATE            .                    12/02/2019            :LOG DATE(Composite Date for Composite LAP) (MM/DD/YYYY)
CLAB            .                       County:            :County Label
CNTY            .                                          :COUNTY
SLAB            .                                          :State/Province Label
STAT            .                                          :STATE or PROVINCE
PROV            .                                          :STATE or PROVINCE
CTRY            .                        Norway            :COUNTRY
CONT_REGION     .                        Europe            :Continent Region
SECT            .                                          :Section
TOWN            .                                          :Township
RANG            .                                          :Range
API             .                                          :API NUMBER
UWI             .                                          :UNIQUE WELL ID
LUL             .                Service Office            :Logging Unit Location
LUN             .                          A615            :Logging Unit Number
LOC             .                Norwegian North Sea       :FIELD LOCATION
FL1             .                Section: 36 in.           :Field Location Line 1
FL2             .                Job no.: 19SCA0085        :Field Location Line 2
LATI            .deg             60° 34' 35.14" N          :LATITUDE
LONG            .deg             3° 26' 36.13" E           :LONGITUDE
PDAT            .                           MSL            :Local Permanent Datum
LMF             .                            DF            :Logging Measured From
APD             .m                        31.00            :Elevation of Depth Reference (LMF) Above Permanent Datum
EPD             .m                         0.00            :Elevation of Permanent Datum (PDAT) above Mean Sea Level
EKB             .m                      -999.25            :Elevation of Kelly Bushing Above Permanent Datum
EDF             .m                        31.00            :Elevation of Drill Floor Above Permanent Datum
EGL             .m                      -307.00            :Elevation of Ground Level Above Permanent Datum
ECF             .m                      -999.25            :Elevation of Casing Flange above Permanent Datum
#--------------------------------------------------
~CURVE INFORMATION
#MNEM           .UNIT                  API CODE            :DESCRIPTION
#----            ------          --------------            -----------------------------
TIME_1900       .d                                         :                                                        Time Index(OLE Automation date)
TIME            .s                                         :                                (10s)                   Time(hh mm ss/dd-MMM-yyyy)
DEPTH           .m                                         :(RT)    (DnMWorkflow)                                   Depth Index
GR              .gAPI                                      :(RT)    (TELE900)                                       Gamma Ray
BLKP            .m                                         :(RT)    (DRILLING_SURFACE)                              Height of block above rig floor
CRPM            .c/min                                     :(RT)    (TELE900)                                       Collar Rotational Speed
STICK           .c/min                                     :(RT)    (TELE900)                                       Stick Slip Indicator
SHKPK           .gn                                        :(RT)    (TELE900)                                       Shock Peak
SHKRSK          .                                          :(RT)    (TELE900)                                       Shock Risk
TEMP_DNI        .degC                                      :(RM)    (TELE900)                                       Direction and Inclination Sensor Temperature
#-------------------------------------------------------------
#       TIME_1900                 TIME        DEPTH           GR         BLKP         CRPM        STICK        SHKPK       SHKRSK     TEMP_DNI 
#                                       (DnMWorkfl)    (TELE900)  (DRILLING_)    (TELE900)    (TELE900)    (TELE900)    (TELE900)    (TELE900) 
#                                              (RT)         (RT)         (RT)         (RT)         (RT)         (RT)         (RT)         (RM) 
#                                (10s)                                                                                                         
~ASCII
# ...
 43802.0895833333 02:09:00/03-Dec-2019     406.1300      46.3502      34.7400      -999.25      33.0000      -999.25      -999.25      -999.25
 43802.0896990741 02:09:10/03-Dec-2019     406.0800      51.6930      34.7900      -999.25      -999.25      -999.25      -999.25      -999.25
 43802.0898148148 02:09:20/03-Dec-2019     406.1200      55.8357      34.7500      -999.25      -999.25      -999.25      -999.25      -999.25
 43802.0899305556 02:09:30/03-Dec-2019     406.2600      55.8357      34.5200      70.0000      -999.25       0.0000       0.0000      -999.25
 43802.0900462963 02:09:40/03-Dec-2019     406.4000      52.4068      34.4700      -999.25      27.0000      -999.25      -999.25      -999.25
 43802.0901620370 02:09:50/03-Dec-2019     406.3500      53.1585      34.6200      -999.25      -999.25      -999.25      -999.25      -999.25
 43802.0902777778 02:10:00/03-Dec-2019     406.1000      49.7296      34.7700      -999.25      -999.25      -999.25      -999.25      14.9023
 43802.0903935185 02:10:10/03-Dec-2019     406.1400      47.8859      34.7300      72.0000      -999.25      -999.25      -999.25      -999.25
 43802.0905092593 02:10:20/03-Dec-2019     406.4700      53.8723      34.4000      -999.25      33.0000       0.0000       0.0000      -999.25
 43802.0906250000 02:10:30/03-Dec-2019     406.4200      54.5257      34.5500      -999.25      -999.25      -999.25      -999.25      -999.25
 43802.0907407407 02:10:40/03-Dec-2019     405.9800      49.1829      34.8900      -999.25      -999.25      -999.25      -999.25      -999.25
 43802.0908564815 02:10:50/03-Dec-2019     406.2200      43.1966      34.5600      -999.25      -999.25      -999.25      -999.25      -999.25
 43802.0909722222 02:11:00/03-Dec-2019     407.0200      45.0402      33.8500      73.0000      -999.25       0.0000       0.0000      -999.25
 43802.0910879630 02:11:10/03-Dec-2019     406.5900      52.5051      34.3800      -999.25      45.0000      -999.25      -999.25      -999.25
 43802.0912037037 02:11:20/03-Dec-2019     406.1500      48.3709      34.7200      -999.25      -999.25      -999.25      -999.25      -999.25
 43802.0913194444 02:11:30/03-Dec-2019     406.8700      55.8357      33.9100      -999.25      -999.25      -999.25      -999.25      -999.25
 43802.0914351852 02:11:40/03-Dec-2019     407.2000      57.6793      33.6800      71.0000      -999.25      -999.25      -999.25      -999.25
 43802.0915509259 02:11:50/03-Dec-2019     406.5700      51.6930      34.3000      -999.25      42.0000       0.0000       0.0000      -999.25
 43802.0916666667 02:12:00/03-Dec-2019     406.6100      48.0338      34.2600      -999.25      -999.25      -999.25      -999.25      14.9023
 43802.0917824074 02:12:10/03-Dec-2019     406.8500      44.7116      34.0300      -999.25      -999.25      -999.25      -999.25      -999.25
 43802.0918981481 02:12:20/03-Dec-2019     406.8900      38.7253      33.9800      -999.25      -999.25      -999.25      -999.25      -999.25
 43802.0920138889 02:12:30/03-Dec-2019     407.0300      40.5690      33.8500      72.0000      -999.25       0.0000       0.0000      -999.25
 43802.0921296296 02:12:40/03-Dec-2019     407.0700      45.4771      33.8000      -999.25      36.0000      -999.25      -999.25      -999.25
 43802.0922453704 02:12:50/03-Dec-2019     407.0200      46.2382      33.8600      -999.25      -999.25      -999.25      -999.25      -999.25
 43802.0923611111 02:13:00/03-Dec-2019     407.0600      51.1463      33.8100      -999.25      -999.25      -999.25      -999.25      -999.25
 43802.0924768519 02:13:10/03-Dec-2019     407.3900      51.1463      33.5800      71.0000      -999.25       0.0000       0.0000      -999.25
 43802.0925925926 02:13:20/03-Dec-2019     407.1500      47.0037      33.7300      -999.25      30.0000      -999.25      -999.25      -999.25
 43802.0927083333 02:13:30/03-Dec-2019     407.1900      55.2528      33.6900      -999.25      -999.25      -999.25      -999.25      -999.25
 43802.0928240741 02:13:40/03-Dec-2019     407.3300      58.9356      33.5500      -999.25      -999.25      -999.25      -999.25      -999.25
 43802.0929398148 02:13:50/03-Dec-2019     407.2700      43.6220      33.6000      -999.25      -999.25      -999.25      -999.25      -999.25
 43802.0930555556 02:14:00/03-Dec-2019     407.3100      28.3084      33.5600      69.0000      30.0000       0.0000       0.0000      14.9023
 43802.0931712963 02:14:10/03-Dec-2019     407.1700      33.4515      33.7100      -999.25      -999.25      -999.25      -999.25      -999.25
 43802.0932870370 02:14:20/03-Dec-2019     407.4000      51.6930      33.4700      -999.25      -999.25      -999.25      -999.25      -999.25
 43802.0934027778 02:14:30/03-Dec-2019     407.4400      55.8357      33.4300      -999.25      -999.25      -999.25      -999.25      -999.25
 43802.0935185185 02:14:40/03-Dec-2019     407.2900      55.8357      33.5800      71.0000      -999.25       0.0000       0.0000      -999.25
 43802.0936342593 02:14:50/03-Dec-2019     407.6200      47.9169      33.2500      -999.25      24.0000      -999.25      -999.25      -999.25
 43802.0937500000 02:15:00/03-Dec-2019     407.5700      46.3502      33.4000      -999.25      -999.25      -999.25      -999.25      -999.25
 43802.0938657407 02:15:10/03-Dec-2019     407.2300      51.1463      33.6400      -999.25      -999.25      -999.25      -999.25      -999.25
 43802.0939814815 02:15:20/03-Dec-2019     407.6600      52.9900      33.2200      72.0000      -999.25      -999.25      -999.25      -999.25
 43802.0940972222 02:15:30/03-Dec-2019     407.5100      47.0037      33.3700      -999.25      27.0000       0.0000       0.0000      -999.25
 43802.0942129630 02:15:40/03-Dec-2019     407.2600      43.6815      33.6100      -999.25      -999.25      -999.25      -999.25      -999.25
 43802.0943287037 02:15:50/03-Dec-2019     407.8800      47.0037      32.8000      -999.25      -999.25      -999.25      -999.25      -999.25
 43802.0944444444 02:16:00/03-Dec-2019     408.1100      52.9900      32.7600      -999.25      -999.25      -999.25      -999.25      14.9023
 43802.0945601852 02:16:10/03-Dec-2019     407.2900      51.1463      33.5800      71.0000      -999.25       0.0000       0.0000      -999.25
 43802.0946759259 02:16:20/03-Dec-2019     407.7100      47.7174      33.0600      -999.25      27.0000      -999.25      -999.25      -999.25
 43802.0947916667 02:16:30/03-Dec-2019     408.2200      48.4691      32.6500      -999.25      -999.25      -999.25      -999.25      -999.25
 43802.0949074074 02:16:40/03-Dec-2019     407.6700      45.0402      33.3000      -999.25      -999.25      -999.25      -999.25      -999.25
 43802.0950231481 02:16:50/03-Dec-2019     407.5100      45.0402      33.3600      73.0000      -999.25       0.0000       0.0000      -999.25
 43802.0951388889 02:17:00/03-Dec-2019     408.3000      49.1829      32.4700      -999.25      30.0000      -999.25      -999.25      -999.25
 43802.0952546296 02:17:10/03-Dec-2019     408.1400      34.6499      32.8300      -999.25      -999.25      -999.25      -999.25      -999.25
 43802.0953703704 02:17:20/03-Dec-2019     407.7800      28.3084      33.0900      -999.25      -999.25      -999.25      -999.25      -999.25
 43802.0954861111 02:17:30/03-Dec-2019     408.5800      43.6220      32.2900      -999.25      -999.25      -999.25      -999.25      -999.25
 43802.0956018518 02:17:40/03-Dec-2019     408.6000      58.9356      32.2700      71.0000      -999.25       0.0000       0.0000      -999.25
 43802.0957175926 02:17:50/03-Dec-2019     408.1600      58.3258      32.7100      -999.25      51.0000      -999.25      -999.25      -999.25
 43802.0958333333 02:18:00/03-Dec-2019     408.4700      56.6005      32.3100      -999.25      -999.25      -999.25      -999.25      14.9023
 43802.0959490741 02:18:10/03-Dec-2019     408.8800      60.7432      31.9900      -999.25      -999.25      -999.25      -999.25      -999.25
