~VERSION INFORMATION 
VERS  .    2.0                                     :CWLS Log ASCII Standard - VERSION 2.0
WRAP  .    NO                                      :One Line per Time step
PROD  .    Schlumberger Technology Corp.           :LAS Producer
PROG  .    Horizon LASWriter 9.2.113335.3100       :LAS Program name and version
SOURCE.    Run 10-TimeLogicalAcq                   :Run&Pass Information
CREA  .    01/21/2020                              :LAS Creation date {MM/DD/YYYY}
#--------------------------------------------------
~WELL INFORMATION 
#MNEM           .UNIT                      DATA            :DESCRIPTION
#----            ------          --------------            -----------------------------
STRT            .d               43830.7500000000          :START TIME(OLE Automation date)
STOP            .d               43831.2291666667          :STOP TIME(OLE Automation date)
STEP            .d                            0            :STEP TIME(10s in time)
NULL            .                       -999.25            :NULL VALUE
COMP            .                       Equinor            :COMPANY
WELL            .                        31/5-7            :WELL NAME
FLD             .                           Eos            :FIELD NAME
RIGN            .                 West Hercules            :Rig Name
RIGTYP          .                Semi-Submersible          :Rig Type
SON             .                     19SCA0085            :Service Order Number
SRVC            .                  Schlumberger            :SERVICE COMPANY
DATE            .                    12/31/2019            :LOG DATE(Composite Date for Composite LAP) (MM/DD/YYYY)
CLAB            .                       County:            :County Label
CNTY            .                                          :COUNTY
SLAB            .                                          :State/Province Label
STAT            .                                          :STATE or PROVINCE
PROV            .                                          :STATE or PROVINCE
CTRY            .                        Norway            :COUNTRY
CONT_REGION     .                        Europe            :Continent Region
SECT            .                                          :Section
TOWN            .                                          :Township
RANG            .                                          :Range
API             .                                          :API NUMBER
UWI             .                                          :UNIQUE WELL ID
LUL             .                Service Office            :Logging Unit Location
LUN             .                          A615            :Logging Unit Number
LOC             .                Norwegian North Sea       :FIELD LOCATION
FL1             .                Section: 8 1/2 in.        :Field Location Line 1
FL2             .                Job no.: 19SCA0085        :Field Location Line 2
LATI            .deg             60° 34' 35.14" N          :LATITUDE
LONG            .deg             3° 26' 36.13" E           :LONGITUDE
PDAT            .                           MSL            :Local Permanent Datum
LMF             .                            DF            :Logging Measured From
APD             .m                        31.00            :Elevation of Depth Reference (LMF) Above Permanent Datum
EPD             .m                         0.00            :Elevation of Permanent Datum (PDAT) above Mean Sea Level
EKB             .m                      -999.25            :Elevation of Kelly Bushing Above Permanent Datum
EDF             .m                        31.00            :Elevation of Drill Floor Above Permanent Datum
EGL             .m                      -307.00            :Elevation of Ground Level Above Permanent Datum
ECF             .m                      -999.25            :Elevation of Casing Flange above Permanent Datum
#--------------------------------------------------
~CURVE INFORMATION
#MNEM           .UNIT                  API CODE            :DESCRIPTION
#----            ------          --------------            -----------------------------
TIME_1900       .d                                         :                                                        Time Index(OLE Automation date)
TIME            .s                                         :                                (10s)                   Time(hh mm ss/dd-MMM-yyyy)
DEPTH           .m                                         :(RT)    (DnMWorkflow)                                   Depth Index
BLKP            .m                                         :(RT)    (DRILLING_SURFACE)                              Height of block above rig floor
GR              .gAPI                                      :(RT)    (ARC6)                                          Gamma Ray
CRPM            .c/min                                     :(RT)    (TELE675)                                       Collar Rotational Speed
STICK           .c/min                                     :(RT)    (TELE675)                                       Stick Slip Indicator
SHKRSK          .                                          :(RT)    (TELE675)                                       Shock Risk
SHKPK           .gn                                        :(RT)    (TELE675)                                       Shock Peak
DHAT            .degC                                      :(RM)    (ARC6)                                          Downhole Annulus Temperature
DHAP            .bar                                       :(RM)    (ARC6)                                          Downhole Annulus Pressure
ECD             .g/cm3                                     :(RM)    (ARC6)                                          Equivalent Circulating Density
#-------------------------------------------------------------
#       TIME_1900                 TIME        DEPTH         BLKP           GR         CRPM        STICK       SHKRSK        SHKPK         DHAT         DHAP          ECD 
#                                       (DnMWorkfl)  (DRILLING_)       (ARC6)    (TELE675)    (TELE675)    (TELE675)    (TELE675)       (ARC6)       (ARC6)       (ARC6) 
#                                              (RT)         (RT)         (RT)         (RT)         (RT)         (RT)         (RT)         (RM)         (RM)         (RM) 
#                                (10s)                                                                                                                                   
~ASCII
# ...
 43831.1611111111 03:52:00/01-Jan-2020   2169.59009     41.27000      -999.25      -999.25      -999.25      -999.25      -999.25     46.00000    243.10910      1.14721
 43831.1612268519 03:52:10/01-Jan-2020   2168.75000     42.11000      -999.25      -999.25      -999.25      -999.25      -999.25     46.00000    248.14230      1.17151
 43831.1613425926 03:52:20/01-Jan-2020   2168.39014     42.47000      -999.25      -999.25      -999.25      -999.25      -999.25     46.00000    248.62490      1.17398
 43831.1614583333 03:52:30/01-Jan-2020   2168.83008     42.03000      -999.25      -999.25      -999.25      -999.25      -999.25     46.00000    246.21180      1.16243
 43831.1615740741 03:52:40/01-Jan-2020   2168.82007     42.03000      -999.25      -999.25      -999.25      -999.25      -999.25     46.00000    247.65970      1.16919
 43831.1616898148 03:52:50/01-Jan-2020   2168.82007     38.35000      -999.25      -999.25      -999.25      -999.25      -999.25     46.00000    246.14280      1.16203
 43831.1618055556 03:53:00/01-Jan-2020   2168.82007     21.99000      -999.25      -999.25      -999.25      -999.25      -999.25     46.00000    246.83230      1.16529
 43831.1619212963 03:53:10/01-Jan-2020   2168.82007      9.20000      -999.25      -999.25      -999.25      -999.25      -999.25     46.00000    246.41860      1.16333
 43831.1620370370 03:53:20/01-Jan-2020   2168.82007      8.72000      -999.25      -999.25      -999.25      -999.25      -999.25     46.00000    247.31490      1.16757
 43831.1621527778 03:53:30/01-Jan-2020   2168.82007      7.24000      -999.25      -999.25      -999.25      -999.25      -999.25     46.00000    248.07340      1.17115
 43831.1622685185 03:53:40/01-Jan-2020   2168.82007      3.43000      -999.25      -999.25      -999.25      -999.25      -999.25     46.00000    247.17710      1.16692
 43831.1623842593 03:53:50/01-Jan-2020   2168.82007      3.56000      -999.25      -999.25      -999.25      -999.25      -999.25     46.00000    247.10810      1.16672
 43831.1625000000 03:54:00/01-Jan-2020   2160.22998     12.19000      -999.25      -999.25      -999.25      -999.25      -999.25     46.00000    247.38390      1.17327
 43831.1626157407 03:54:10/01-Jan-2020   2146.60986     26.24000      -999.25      -999.25      -999.25      -999.25      -999.25     46.00000    241.04070      1.14933
 43831.1627314815 03:54:20/01-Jan-2020   2133.47998     38.93000      -999.25      -999.25      -999.25      -999.25      -999.25     46.00000    238.35180      1.14344
 43831.1628472222 03:54:30/01-Jan-2020   2129.62012     42.46000      -999.25      -999.25      -999.25      -999.25      -999.25     46.00000    239.24810      1.15031
 43831.1629629630 03:54:40/01-Jan-2020   2129.59009     42.47000      -999.25      -999.25      -999.25      -999.25      -999.25     46.00000    242.55760      1.16629
 43831.1630787037 03:54:50/01-Jan-2020   2129.64990     42.38000      -999.25      -999.25      -999.25      -999.25      -999.25     46.00000    242.62650      1.16655
 43831.1631944444 03:55:00/01-Jan-2020   2129.67993     41.99000      -999.25      -999.25      -999.25      -999.25      -999.25     46.00000    244.28130      1.17453
 43831.1633101852 03:55:10/01-Jan-2020   2129.67993     40.75000      -999.25      -999.25      -999.25      -999.25      -999.25     46.00000    244.55710      1.17585
 43831.1634259259 03:55:20/01-Jan-2020   2129.67993     26.23000      -999.25      -999.25      -999.25      -999.25      -999.25     46.00000    243.86760      1.17254
 43831.1635416667 03:55:30/01-Jan-2020   2129.67993     10.91000      -999.25      -999.25      -999.25      -999.25      -999.25     46.00000    243.52280      1.17088
 43831.1636574074 03:55:40/01-Jan-2020   2129.67993      9.43000      -999.25      -999.25      -999.25      -999.25      -999.25     46.00000    243.31600      1.16989
 43831.1637731481 03:55:50/01-Jan-2020   2129.67993      9.37000      -999.25      -999.25      -999.25      -999.25      -999.25     46.00000    244.28130      1.17453
 43831.1638888889 03:56:00/01-Jan-2020   2129.67993      3.64000      -999.25      -999.25      -999.25      -999.25      -999.25     46.00000    244.35020      1.17486
 43831.1640046296 03:56:10/01-Jan-2020   2129.67993      3.43000      -999.25      -999.25      -999.25      -999.25      -999.25     46.00000    242.00600      1.16359
 43831.1641203704 03:56:20/01-Jan-2020   2125.06006      8.46000      -999.25      -999.25      -999.25      -999.25      -999.25     46.00000    243.17810      1.17280
 43831.1642361111 03:56:30/01-Jan-2020   2111.17993     22.56000      -999.25      -999.25      -999.25      -999.25      -999.25     46.00000    237.24860      1.15164
 43831.1643518518 03:56:40/01-Jan-2020   2097.85986     35.32000      -999.25      -999.25      -999.25      -999.25      -999.25     46.00000    235.73180      1.15031
 43831.1644675926 03:56:50/01-Jan-2020   2091.03003     41.95000      -999.25      -999.25      -999.25      -999.25      -999.25     46.00000    235.31810      1.15236
 43831.1645833333 03:57:00/01-Jan-2020   2090.41016     42.47000      -999.25      -999.25      -999.25      -999.25      -999.25     46.00000    238.21390      1.16696
 43831.1646990741 03:57:10/01-Jan-2020   2090.78003     41.99000      -999.25      -999.25      -999.25      -999.25      -999.25     46.00000    236.97280      1.16068
 43831.1648148148 03:57:20/01-Jan-2020   2090.78003     41.99000      -999.25      -999.25      -999.25      -999.25      -999.25     46.00000    237.80020      1.16473
 43831.1649305556 03:57:30/01-Jan-2020   2090.78003     41.99000      -999.25      -999.25      -999.25      -999.25      -999.25     46.00000    239.73070      1.17418
 43831.1650462963 03:57:40/01-Jan-2020   2090.78003     37.88000      -999.25      -999.25      -999.25      -999.25      -999.25     46.00000    240.97180      1.18026
 43831.1651620370 03:57:50/01-Jan-2020   2090.78003     21.55000      -999.25      -999.25      -999.25      -999.25      -999.25     46.00000    241.45440      1.18263
 43831.1652777778 03:58:00/01-Jan-2020   2090.78003      8.77000      -999.25      -999.25      -999.25      -999.25      -999.25     46.00000    240.28230      1.17689
 43831.1653935185 03:58:10/01-Jan-2020   2090.78003      8.55000      -999.25      -999.25      -999.25      -999.25      -999.25     46.00000    239.93760      1.17520
 43831.1655092593 03:58:20/01-Jan-2020   2090.78003      7.94000      -999.25      -999.25      -999.25      -999.25      -999.25     46.00000    238.28280      1.16709
 43831.1656250000 03:58:30/01-Jan-2020   2090.78003      3.51000      -999.25      -999.25      -999.25      -999.25      -999.25     46.00000    238.55860      1.16844
 43831.1657407407 03:58:40/01-Jan-2020   2090.78003      3.75000      -999.25      -999.25      -999.25      -999.25      -999.25     46.00000    238.48960      1.16811
 43831.1658564815 03:58:50/01-Jan-2020   2082.93994     11.44000      -999.25      -999.25      -999.25      -999.25      -999.25     46.00000    237.31750      1.16765
 43831.1659722222 03:59:00/01-Jan-2020   2068.82007     25.95000      -999.25      -999.25      -999.25      -999.25      -999.25     46.00000    233.24960      1.15548
 43831.1660879630 03:59:10/01-Jan-2020   2055.13013     39.12000      -999.25      -999.25      -999.25      -999.25      -999.25     46.00000    230.28490      1.14696
 43831.1662037037 03:59:20/01-Jan-2020   2052.12012     41.98000      -999.25      -999.25      -999.25      -999.25      -999.25     46.00000    231.38800      1.15468
 43831.1663194444 03:59:30/01-Jan-2020   2051.53003     42.47000      -999.25      -999.25      -999.25      -999.25      -999.25     46.00000    232.97380      1.16302
 43831.1664351852 03:59:40/01-Jan-2020   2051.84009     42.00000      -999.25      -999.25      -999.25      -999.25      -999.25     46.00000    235.38700      1.17488
 43831.1665509259 03:59:50/01-Jan-2020   2051.84009     41.98000      -999.25      -999.25      -999.25      -999.25      -999.25     46.00000    233.87020      1.16731
