~VERSION INFORMATION 
VERS  .    2.0                                     :CWLS Log ASCII Standard - VERSION 2.0
WRAP  .    NO                                      :One Line per Time step
PROD  .    Schlumberger Technology Corp.           :LAS Producer
PROG  .    Horizon LASWriter 9.2.113335.3100       :LAS Program name and version
SOURCE.    Run 3-TimeLogicalAcq                    :Run&Pass Information
CREA  .    12/12/2019                              :LAS Creation date {MM/DD/YYYY}
#--------------------------------------------------
~WELL INFORMATION 
#MNEM           .UNIT                      DATA            :DESCRIPTION
#----            ------          --------------            -----------------------------
STRT            .d               43804.6875000000          :START TIME(OLE Automation date)
STOP            .d               43805.8541666667          :STOP TIME(OLE Automation date)
STEP            .d                            0            :STEP TIME(10s in time)
NULL            .                       -999.25            :NULL VALUE
COMP            .                       Equinor            :COMPANY
WELL            .                        31/5-7            :WELL NAME
FLD             .                           Eos            :FIELD NAME
RIGN            .                 West Hercules            :Rig Name
RIGTYP          .                Semi-Submersible          :Rig Type
SON             .                     19SCA0085            :Service Order Number
SRVC            .                  Schlumberger            :SERVICE COMPANY
DATE            .                    12/05/2019            :LOG DATE(Composite Date for Composite LAP) (MM/DD/YYYY)
CLAB            .                       County:            :County Label
CNTY            .                                          :COUNTY
SLAB            .                                          :State/Province Label
STAT            .                                          :STATE or PROVINCE
PROV            .                                          :STATE or PROVINCE
CTRY            .                        Norway            :COUNTRY
CONT_REGION     .                        Europe            :Continent Region
SECT            .                                          :Section
TOWN            .                                          :Township
RANG            .                                          :Range
API             .                                          :API NUMBER
UWI             .                                          :UNIQUE WELL ID
LUL             .                Service Office            :Logging Unit Location
LUN             .                          A615            :Logging Unit Number
LOC             .                Norwegian North Sea       :FIELD LOCATION
FL1             .                Section: 26 in.           :Field Location Line 1
FL2             .                Job no.: 19SCA0085        :Field Location Line 2
LATI            .deg             60° 34' 35.14" N          :LATITUDE
LONG            .deg             3° 26' 36.13" E           :LONGITUDE
PDAT            .                           MSL            :Local Permanent Datum
LMF             .                            DF            :Logging Measured From
APD             .m                        31.00            :Elevation of Depth Reference (LMF) Above Permanent Datum
EPD             .m                         0.00            :Elevation of Permanent Datum (PDAT) above Mean Sea Level
EKB             .m                      -999.25            :Elevation of Kelly Bushing Above Permanent Datum
EDF             .m                        31.00            :Elevation of Drill Floor Above Permanent Datum
EGL             .m                      -307.00            :Elevation of Ground Level Above Permanent Datum
ECF             .m                      -999.25            :Elevation of Casing Flange above Permanent Datum
#--------------------------------------------------
~CURVE INFORMATION
#MNEM           .UNIT                  API CODE            :DESCRIPTION
#----            ------          --------------            -----------------------------
TIME_1900       .d                                         :                                                        Time Index(OLE Automation date)
TIME            .s                                         :                                (10s)                   Time(hh mm ss/dd-MMM-yyyy)
DEPTH           .m                                         :(RT)    (DnMWorkflow)                                   Depth Index
GR_CAL          .gAPI                                      :(RT)    (ARC9)                                          Calibrated Gamma Ray
BLKP            .m                                         :(RT)    (DRILLING_SURFACE)                              Height of block above rig floor
CRPM            .c/min                                     :(RT)    (TELE900)                                       Collar Rotational Speed
STICK           .c/min                                     :(RT)    (TELE900)                                       Stick Slip Indicator
SHKPK           .gn                                        :(RT)    (TELE900)                                       Shock Peak
SHKRSK          .                                          :(RT)    (TELE900)                                       Shock Risk
DHAP            .bar                                       :(RM)    (ARC9)                                          Downhole Annulus Pressure
DHAT            .degC                                      :(RM)    (ARC9)                                          Downhole Annulus Temperature
ECD             .g/cm3                                     :(RM)    (ARC9)                                          Equivalent Circulating Density
#-------------------------------------------------------------
#       TIME_1900                 TIME        DEPTH       GR_CAL         BLKP         CRPM        STICK        SHKPK       SHKRSK         DHAP         DHAT          ECD 
#                                       (DnMWorkfl)       (ARC9)  (DRILLING_)    (TELE900)    (TELE900)    (TELE900)    (TELE900)       (ARC9)       (ARC9)       (ARC9) 
#                                              (RT)         (RT)         (RT)         (RT)         (RT)         (RT)         (RT)         (RM)         (RM)         (RM) 
#                                (10s)                                                                                                                                   
~ASCII
# ...
 43805.4597222222 11:02:00/06-Dec-2019     820.3900      25.9120      32.0600      -999.25      -999.25      -999.25      -999.25      82.7371      15.0000       1.1000
 43805.4598379630 11:02:10/06-Dec-2019     821.0400      45.2987      31.1300      72.0000      -999.25       0.0000       0.0000      82.6681      15.0000       1.0979
 43805.4599537037 11:02:20/06-Dec-2019     821.8700      47.2334      30.4900      -999.25      57.0000      -999.25      -999.25      82.6681      15.0000       1.0969
 43805.4600694444 11:02:30/06-Dec-2019     821.8400      30.8110      30.6200      -999.25      -999.25      -999.25      -999.25      82.6681      15.0000       1.0970
 43805.4601851852 11:02:40/06-Dec-2019     822.4800      34.9620      30.1700      -999.25      -999.25      -999.25      -999.25      82.6681      15.0000       1.0962
 43805.4603009259 11:02:50/06-Dec-2019     821.8800      34.3453      30.7800      77.0000      -999.25      -999.25      -999.25      82.7371      15.0000       1.0980
 43805.4604166667 11:03:00/06-Dec-2019     821.9500      38.2148      30.5100      -999.25      51.0000       0.0000       0.0000      82.7371      15.0000       1.0978
 43805.4605324074 11:03:10/06-Dec-2019     822.7700      44.7599      29.6800      -999.25      -999.25      -999.25      -999.25      82.7371      15.0000       1.0966
 43805.4606481481 11:03:20/06-Dec-2019     822.2700      48.7297      30.2900      -999.25      -999.25      -999.25      -999.25      82.8060      15.0000       1.0983
 43805.4607638889 11:03:30/06-Dec-2019     822.1400      50.6479      30.3100      -999.25      -999.25      -999.25      -999.25      82.7371      15.0000       1.0975
 43805.4608796296 11:03:40/06-Dec-2019     822.9800      49.3490      29.3800      77.0000      -999.25       0.0000       0.0000      82.8060      15.0000       1.0971
 43805.4609953704 11:03:50/06-Dec-2019     823.0400      43.3756      29.4100      -999.25      57.0000      -999.25      -999.25      82.8750      15.0000       1.0980
 43805.4611111111 11:04:00/06-Dec-2019     823.1200      38.2918      29.2500      -999.25      -999.25      -999.25      -999.25      82.8060      15.0000       1.0969
 43805.4612268518 11:04:10/06-Dec-2019     823.3700      40.3536      29.0900      -999.25      -999.25      -999.25      -999.25      82.8750      15.0000       1.0976
 43805.4613425926 11:04:20/06-Dec-2019     823.4401      39.4583      29.1200      80.0000      -999.25       0.0000       0.0000      82.8750      15.0000       1.0975
 43805.4614583333 11:04:30/06-Dec-2019     823.6000      39.4583      28.9500      -999.25      63.0000      -999.25      -999.25      82.8750      15.0000       1.0973
 43805.4615740741 11:04:40/06-Dec-2019     823.5701      40.3536      28.8900      -999.25      -999.25      -999.25      -999.25      82.8750      15.0000       1.0973
 43805.4616898148 11:04:50/06-Dec-2019     823.6300      41.7093      28.8200      -999.25      -999.25      -999.25      -999.25      82.9439      15.0000       1.0981
 43805.4618055556 11:05:00/06-Dec-2019     824.0800      43.0262      28.3700      -999.25      -999.25      -999.25      -999.25      82.9439      15.0000       1.0975
 43805.4619212963 11:05:10/06-Dec-2019     824.2501      44.8443      28.2000      81.0000      63.0000       0.0000       0.0000      83.0129      15.0000       1.0981
 43805.4620370370 11:05:20/06-Dec-2019     824.4000      46.6624      28.0400      -999.25      -999.25      -999.25      -999.25      83.0129      15.0000       1.0979
 43805.4621527778 11:05:30/06-Dec-2019     824.3801      47.3072      28.0700      -999.25      -999.25      -999.25      -999.25      83.1508      15.0000       1.0998
 43805.4622685185 11:05:40/06-Dec-2019     824.6401      46.7553      27.8000      -999.25      -999.25      -999.25      -999.25      83.1508      15.0000       1.0994
 43805.4623842593 11:05:50/06-Dec-2019     824.6000      46.0682      27.8400      83.0000      -999.25       0.0000       0.0000      83.1508      15.0000       1.0994
 43805.4625000000 11:06:00/06-Dec-2019     824.4800      46.1062      28.0600      -999.25      69.0000      -999.25      -999.25      83.2197      15.0000       1.1006
 43805.4626157407 11:06:10/06-Dec-2019     825.2200      46.8515      27.4200      -999.25      -999.25      -999.25      -999.25      83.1508      15.0000       1.0987
 43805.4627314815 11:06:20/06-Dec-2019     825.7599      43.8090      26.6800      -999.25      -999.25      -999.25      -999.25      83.2197      15.0000       1.0987
 43805.4628472222 11:06:30/06-Dec-2019     825.3500      41.7102      27.0900      82.0000      -999.25      -999.25      -999.25      83.2197      15.0000       1.0993
 43805.4629629630 11:06:40/06-Dec-2019     826.1801      43.6450      26.2600      -999.25      45.0000       0.0000       0.0000      83.2197      15.0000       1.0981
 43805.4630787037 11:06:50/06-Dec-2019     826.6300      48.7080      25.7200      -999.25      -999.25      -999.25      -999.25      83.2887      15.0000       1.0983
 43805.4631944444 11:07:00/06-Dec-2019     825.5500      53.0731      26.7000      -999.25      -999.25      -999.25      -999.25      83.3576      15.0000       1.1007
 43805.4633101852 11:07:10/06-Dec-2019     826.3000      47.9893      26.0500      -999.25      -999.25      -999.25      -999.25      83.3576      15.0000       1.0997
 43805.4634259259 11:07:20/06-Dec-2019     826.1600      42.0159      26.0800      78.0000      -999.25       0.0000       0.0000      83.3576      15.0000       1.0998
 43805.4635416667 11:07:30/06-Dec-2019     825.8500      40.7170      26.5900      -999.25      48.0000      -999.25      -999.25      83.4266      15.0000       1.1013
 43805.4636574074 11:07:40/06-Dec-2019     826.9700      42.0248      25.4700      -999.25      -999.25      -999.25      -999.25      83.3576      15.0000       1.0988
 43805.4637731481 11:07:50/06-Dec-2019     826.6600      42.4495      25.7900      -999.25      -999.25      -999.25      -999.25      83.4266      15.0000       1.1002
 43805.4638888889 11:08:00/06-Dec-2019     826.4300      40.9674      26.0100      82.0000      -999.25       0.0000       0.0000      83.4266      15.0000       1.1005
 43805.4640046296 11:08:10/06-Dec-2019     827.2700      39.0326      25.1700      -999.25      36.0000      -999.25      -999.25      83.4266      15.0000       1.0993
 43805.4641203704 11:08:20/06-Dec-2019     827.0400      37.5505      25.3000      -999.25      -999.25      -999.25      -999.25      83.4266      15.0000       1.0995
 43805.4642361111 11:08:30/06-Dec-2019     827.0200      35.2459      25.4300      -999.25      -999.25      -999.25      -999.25      83.4955      15.0000       1.1006
 43805.4643518519 11:08:40/06-Dec-2019     827.4700      35.1062      24.9700      -999.25      -999.25      -999.25      -999.25      83.4955      15.0000       1.0999
 43805.4644675926 11:08:50/06-Dec-2019     827.3400      36.9243      25.1000      77.0000      57.0000       0.0000       0.0000      83.4955      15.0000       1.1001
 43805.4645833333 11:09:00/06-Dec-2019     827.7000      38.7423      24.8500      -999.25      -999.25      -999.25      -999.25      83.4955      15.0000       1.0997
 43805.4646990741 11:09:10/06-Dec-2019     828.4301      40.5894      24.2000      -999.25      -999.25      -999.25      -999.25      83.6334      15.0000       1.1005
 43805.4648148148 11:09:20/06-Dec-2019     828.1100      42.4495      24.3300      -999.25      -999.25      -999.25      -999.25      83.6334      15.0000       1.1008
 43805.4649305556 11:09:30/06-Dec-2019     827.9900      40.9674      24.4500      75.0000      -999.25       0.0000       0.0000      83.5645      15.0000       1.1001
 43805.4650462963 11:09:40/06-Dec-2019     828.9200      39.0326      23.5300      -999.25      63.0000      -999.25      -999.25      83.6334      15.0000       1.0997
 43805.4651620370 11:09:50/06-Dec-2019     829.1700      37.5505      23.1700      -999.25      -999.25      -999.25      -999.25      83.6334      15.0000       1.0992
