~VERSION INFORMATION 
VERS  .    2.0                                     :CWLS Log ASCII Standard - VERSION 2.0
WRAP  .    NO                                      :One Line per Time step
PROD  .    Schlumberger Technology Corp.           :LAS Producer
PROG  .    Horizon LASWriter 9.2.113335.3100       :LAS Program name and version
SOURCE.    Run 10-TimeLogicalAcq                   :Run&Pass Information
CREA  .    01/21/2020                              :LAS Creation date {MM/DD/YYYY}
#--------------------------------------------------
~WELL INFORMATION 
#MNEM           .UNIT                      DATA            :DESCRIPTION
#----            ------          --------------            -----------------------------
STRT            .d               43830.7500000000          :START TIME(OLE Automation date)
STOP            .d               43831.2291666667          :STOP TIME(OLE Automation date)
STEP            .d                            0            :STEP TIME(10s in time)
NULL            .                       -999.25            :NULL VALUE
COMP            .                       Equinor            :COMPANY
WELL            .                        31/5-7            :WELL NAME
FLD             .                           Eos            :FIELD NAME
RIGN            .                 West Hercules            :Rig Name
RIGTYP          .                Semi-Submersible          :Rig Type
SON             .                     19SCA0085            :Service Order Number
SRVC            .                  Schlumberger            :SERVICE COMPANY
DATE            .                    12/31/2019            :LOG DATE(Composite Date for Composite LAP) (MM/DD/YYYY)
CLAB            .                       County:            :County Label
CNTY            .                                          :COUNTY
SLAB            .                                          :State/Province Label
STAT            .                                          :STATE or PROVINCE
PROV            .                                          :STATE or PROVINCE
CTRY            .                        Norway            :COUNTRY
CONT_REGION     .                        Europe            :Continent Region
SECT            .                                          :Section
TOWN            .                                          :Township
RANG            .                                          :Range
API             .                                          :API NUMBER
UWI             .                                          :UNIQUE WELL ID
LUL             .                Service Office            :Logging Unit Location
LUN             .                          A615            :Logging Unit Number
LOC             .                Norwegian North Sea       :FIELD LOCATION
FL1             .                Section: 8 1/2 in.        :Field Location Line 1
FL2             .                Job no.: 19SCA0085        :Field Location Line 2
LATI            .deg             60° 34' 35.14" N          :LATITUDE
LONG            .deg             3° 26' 36.13" E           :LONGITUDE
PDAT            .                           MSL            :Local Permanent Datum
LMF             .                            DF            :Logging Measured From
APD             .m                        31.00            :Elevation of Depth Reference (LMF) Above Permanent Datum
EPD             .m                         0.00            :Elevation of Permanent Datum (PDAT) above Mean Sea Level
EKB             .m                      -999.25            :Elevation of Kelly Bushing Above Permanent Datum
EDF             .m                        31.00            :Elevation of Drill Floor Above Permanent Datum
EGL             .m                      -307.00            :Elevation of Ground Level Above Permanent Datum
ECF             .m                      -999.25            :Elevation of Casing Flange above Permanent Datum
#--------------------------------------------------
~CURVE INFORMATION
#MNEM           .UNIT                  API CODE            :DESCRIPTION
#----            ------          --------------            -----------------------------
TIME_1900       .d                                         :                                                        Time Index(OLE Automation date)
TIME            .s                                         :                                (10s)                   Time(hh mm ss/dd-MMM-yyyy)
DEPTH           .m                                         :(RT)    (DnMWorkflow)                                   Depth Index
BLKP            .m                                         :(RT)    (DRILLING_SURFACE)                              Height of block above rig floor
GR              .gAPI                                      :(RT)    (ARC6)                                          Gamma Ray
CRPM            .c/min                                     :(RT)    (TELE675)                                       Collar Rotational Speed
STICK           .c/min                                     :(RT)    (TELE675)                                       Stick Slip Indicator
SHKRSK          .                                          :(RT)    (TELE675)                                       Shock Risk
SHKPK           .gn                                        :(RT)    (TELE675)                                       Shock Peak
DHAT            .degC                                      :(RM)    (ARC6)                                          Downhole Annulus Temperature
DHAP            .bar                                       :(RM)    (ARC6)                                          Downhole Annulus Pressure
ECD             .g/cm3                                     :(RM)    (ARC6)                                          Equivalent Circulating Density
#-------------------------------------------------------------
#       TIME_1900                 TIME        DEPTH         BLKP           GR         CRPM        STICK       SHKRSK        SHKPK         DHAT         DHAP          ECD 
#                                       (DnMWorkfl)  (DRILLING_)       (ARC6)    (TELE675)    (TELE675)    (TELE675)    (TELE675)       (ARC6)       (ARC6)       (ARC6) 
#                                              (RT)         (RT)         (RT)         (RT)         (RT)         (RT)         (RT)         (RM)         (RM)         (RM) 
#                                (10s)                                                                                                                                   
~ASCII
# ...
 43830.8666666667 20:48:00/31-Dec-2019   2597.19995      5.05000    134.41260      -999.25      -999.25      -999.25      -999.25     44.00000    302.81770      1.19294
 43830.8667824074 20:48:10/31-Dec-2019   2597.37988      4.87000    134.99090     66.00000      -999.25      -999.25      -999.25     44.00000    302.61090      1.19209
 43830.8668981481 20:48:20/31-Dec-2019   2597.46997      4.78000    135.26480      -999.25    162.00000      0.00000      0.00000     44.00000    302.05930      1.18988
 43830.8670138889 20:48:30/31-Dec-2019   2597.56982      4.68000    134.85700      -999.25      -999.25      -999.25      -999.25     44.00000    303.71410      1.19640
 43830.8671296296 20:48:40/31-Dec-2019   2597.56982      4.68000    134.18720      -999.25      -999.25      -999.25      -999.25     44.00000    302.05930      1.18981
 43830.8672453704 20:48:50/31-Dec-2019   2597.93018      4.32000    134.59330      -999.25      -999.25      -999.25      -999.25     44.00000    302.47300      1.19130
 43830.8673611111 20:49:00/31-Dec-2019   2598.02002      4.23000    132.89320    117.00000      -999.25      -999.25      -999.25     44.00000    303.09350      1.19370
 43830.8674768518 20:49:10/31-Dec-2019   2597.93018      4.32000    131.40760      -999.25    381.00000      -999.25      -999.25     44.00000    303.30040      1.19462
 43830.8675925926 20:49:20/31-Dec-2019   2597.93018      4.32000    133.05040      -999.25      -999.25      0.00000      0.00000     44.00000    303.36930      1.19483
 43830.8677083333 20:49:30/31-Dec-2019   2597.93018      4.32000    137.30010      -999.25      -999.25      -999.25      -999.25     44.00000    301.09400      1.18587
 43830.8678240741 20:49:40/31-Dec-2019   2598.02002      4.23000    140.36510      -999.25      -999.25      -999.25      -999.25     44.00000    302.54200      1.19157
 43830.8679398148 20:49:50/31-Dec-2019   2597.93018      4.32000    137.71710      -999.25      -999.25      -999.25      -999.25     44.00000    302.74880      1.19247
 43830.8680555556 20:50:00/31-Dec-2019   2598.11011      4.14000    129.32460    102.00000      -999.25      -999.25      -999.25     44.00000    302.61090      1.19172
 43830.8681712963 20:50:10/31-Dec-2019   2598.11011      4.14000    122.76330      -999.25    177.00000      0.00000      0.00000     44.00000    303.57620      1.19556
 43830.8682870370 20:50:20/31-Dec-2019   2598.11011      4.14000    123.01950      -999.25      -999.25      -999.25      -999.25     44.00000    303.36930      1.19474
 43830.8684027778 20:50:30/31-Dec-2019   2598.11011      4.14000    127.10880      -999.25      -999.25      -999.25      -999.25     44.00000    303.50720      1.19530
 43830.8685185185 20:50:40/31-Dec-2019   2598.11011      4.14000    126.91990      -999.25      -999.25      -999.25      -999.25     44.00000    302.74880      1.19230
 43830.8686342593 20:50:50/31-Dec-2019   2598.29004      3.96000    125.70200     96.00000      -999.25      -999.25      -999.25     44.00000    303.16250      1.19387
 43830.8687500000 20:51:00/31-Dec-2019   2598.11011      4.14000    124.98510      -999.25    129.00000      -999.25      -999.25     44.00000    303.50720      1.19529
 43830.8688657407 20:51:10/31-Dec-2019   2598.32007      3.93000    124.98510      -999.25      -999.25      0.00000      0.00000     44.00000    303.23140      1.19410
 43830.8689814815 20:51:20/31-Dec-2019   2598.25977      3.99000    125.70200      -999.25      -999.25      -999.25      -999.25     44.00000    303.23140      1.19408
 43830.8690972222 20:51:30/31-Dec-2019   2598.25000      4.00000    128.32810      -999.25      -999.25      -999.25      -999.25     44.00000    303.36930      1.19462
 43830.8692129630 20:51:40/31-Dec-2019   2598.45996      3.79000    134.20440      -999.25      -999.25      -999.25      -999.25     44.00000    302.81770      1.19242
 43830.8693287037 20:51:50/31-Dec-2019   2598.58984      3.66000    134.98450     98.00000      -999.25      -999.25      -999.25     44.00000    303.30040      1.19426
 43830.8694444444 20:52:00/31-Dec-2019   2598.72998      3.52000    135.41060      -999.25    180.00000      0.00000      0.00000     44.00000    303.36930      1.19449
 43830.8695601852 20:52:10/31-Dec-2019   2598.66992      3.58000    134.98450      -999.25      -999.25      -999.25      -999.25     44.00000    303.57620      1.19522
 43830.8696759259 20:52:20/31-Dec-2019   2598.41992      3.83000    134.20440      -999.25      -999.25      -999.25      -999.25     44.00000    303.23140      1.19399
 43830.8697916667 20:52:30/31-Dec-2019   2598.65991      3.59000    132.69650      -999.25      -999.25      -999.25      -999.25     44.00000    302.95560      1.19287
 43830.8699074074 20:52:40/31-Dec-2019   2598.70996      3.54000    132.04320     92.00000      -999.25      -999.25      -999.25     44.00000    303.16250      1.19358
 43830.8700231481 20:52:50/31-Dec-2019   2598.88989      3.36000    131.90270      -999.25    219.00000      -999.25      -999.25     44.00000    303.43830      1.19466
 43830.8701388889 20:53:00/31-Dec-2019   2598.82983      3.42000    131.57410      -999.25      -999.25      0.00000      0.00000     44.00000    303.85200      1.19627
 43830.8702546296 20:53:10/31-Dec-2019   2598.80005      3.45000    131.16190      -999.25      -999.25      -999.25      -999.25     44.00000    303.09350      1.19334
 43830.8703703704 20:53:20/31-Dec-2019   2599.02979      3.22000    131.96520      -999.25      -999.25      -999.25      -999.25     44.00000    303.09350      1.19324
 43830.8704861111 20:53:30/31-Dec-2019   2598.92993      3.32000    128.63160      -999.25      -999.25      -999.25      -999.25     44.00000    304.05880      1.19709
 43830.8706018519 20:53:40/31-Dec-2019   2599.02002      3.23000    121.51430    102.00000      -999.25      -999.25      -999.25     44.00000    301.99040      1.18886
 43830.8707175926 20:53:50/31-Dec-2019   2599.12012      3.13000    119.87150      -999.25    228.00000      0.00000      0.00000     44.00000    302.81770      1.19211
 43830.8708333333 20:54:00/31-Dec-2019   2599.12012      3.13000    124.22470      -999.25      -999.25      -999.25      -999.25     44.00000    303.85200      1.19617
 43830.8709490741 20:54:10/31-Dec-2019   2599.14990      3.10000    128.30730      -999.25      -999.25      -999.25      -999.25     44.00000    303.57620      1.19508
 43830.8710648148 20:54:20/31-Dec-2019   2599.24976      3.00000    127.85160      -999.25      -999.25      -999.25      -999.25     44.00000    303.57620      1.19504
 43830.8711805556 20:54:30/31-Dec-2019   2599.29980      2.95000    125.80700    102.00000      -999.25      -999.25      -999.25     44.00000    303.02460      1.19284
 43830.8712962963 20:54:40/31-Dec-2019   2599.29980      2.95000    125.67880      -999.25    219.00000      -999.25      -999.25     44.00000    302.81770      1.19202
 43830.8714120370 20:54:50/31-Dec-2019   2599.56006      2.69000    128.95950      -999.25      -999.25      0.00000      0.00000     43.00000    303.36930      1.19412
 43830.8715277778 20:55:00/31-Dec-2019   2599.75000      2.50000    133.15580      -999.25      -999.25      -999.25      -999.25     43.00000    303.30040      1.19376
 43830.8716435185 20:55:10/31-Dec-2019   2599.58008      2.67000    132.59300      -999.25      -999.25      -999.25      -999.25     43.00000    303.30040      1.19388
 43830.8717592593 20:55:20/31-Dec-2019   2599.59985      2.65000    132.58630      -999.25      -999.25      -999.25      -999.25     43.00000    303.85200      1.19596
 43830.8718750000 20:55:30/31-Dec-2019   2599.70996      2.54000    132.68990     86.00000      -999.25      -999.25      -999.25     43.00000    303.23140      1.19346
 43830.8719907407 20:55:40/31-Dec-2019   2599.81982      2.42000    129.40430      -999.25    231.00000      0.00000      0.00000     43.00000    303.36930      1.19395
 43830.8721064815 20:55:50/31-Dec-2019   2599.76978      2.48000    123.77260      -999.25      -999.25      -999.25      -999.25     43.00000    303.50720      1.19452
