~VERSION INFORMATION 
VERS  .    2.0                                     :CWLS Log ASCII Standard - VERSION 2.0
WRAP  .    NO                                      :One Line per Time step
PROD  .    Schlumberger Technology Corp.           :LAS Producer
PROG  .    Horizon LASWriter 9.2.113335.3100       :LAS Program name and version
SOURCE.    Run 7-TimeLogicalAcq                    :Run&Pass Information
CREA  .    12/27/2019                              :LAS Creation date {MM/DD/YYYY}
#--------------------------------------------------
~WELL INFORMATION 
#MNEM           .UNIT                      DATA            :DESCRIPTION
#----            ------          --------------            -----------------------------
STRT            .d               43818.4166666667          :START TIME(OLE Automation date)
STOP            .d               43819.7083333333          :STOP TIME(OLE Automation date)
STEP            .d                            0            :STEP TIME(10s in time)
NULL            .                       -999.25            :NULL VALUE
COMP            .                       Equinor            :COMPANY
WELL            .                        31/5-7            :WELL NAME
FLD             .                           Eos            :FIELD NAME
RIGN            .                 West Hercules            :Rig Name
RIGTYP          .                Semi-Submersible          :Rig Type
SON             .                     19SCA0085            :Service Order Number
SRVC            .                  Schlumberger            :SERVICE COMPANY
DATE            .                    12/19/2019            :LOG DATE(Composite Date for Composite LAP) (MM/DD/YYYY)
CLAB            .                       County:            :County Label
CNTY            .                                          :COUNTY
SLAB            .                                          :State/Province Label
STAT            .                                          :STATE or PROVINCE
PROV            .                                          :STATE or PROVINCE
CTRY            .                        Norway            :COUNTRY
CONT_REGION     .                        Europe            :Continent Region
SECT            .                                          :Section
TOWN            .                                          :Township
RANG            .                                          :Range
API             .                                          :API NUMBER
UWI             .                                          :UNIQUE WELL ID
LUL             .                Service Office            :Logging Unit Location
LUN             .                          A615            :Logging Unit Number
LOC             .                Norwegian North Sea       :FIELD LOCATION
FL1             .                Section: 12 1/4 x 17 1/5 in.:Field Location Line 1
FL2             .                Job no.: 19SCA0085        :Field Location Line 2
LATI            .deg             60° 34' 35.14" N          :LATITUDE
LONG            .deg             3° 26' 36.13" E           :LONGITUDE
PDAT            .                           MSL            :Local Permanent Datum
LMF             .                            DF            :Logging Measured From
APD             .m                        31.00            :Elevation of Depth Reference (LMF) Above Permanent Datum
EPD             .m                         0.00            :Elevation of Permanent Datum (PDAT) above Mean Sea Level
EKB             .m                      -999.25            :Elevation of Kelly Bushing Above Permanent Datum
EDF             .m                        31.00            :Elevation of Drill Floor Above Permanent Datum
EGL             .m                      -307.00            :Elevation of Ground Level Above Permanent Datum
ECF             .m                      -999.25            :Elevation of Casing Flange above Permanent Datum
#--------------------------------------------------
~CURVE INFORMATION
#MNEM           .UNIT                  API CODE            :DESCRIPTION
#----            ------          --------------            -----------------------------
TIME_1900       .d                                         :                                                        Time Index(OLE Automation date)
TIME            .s                                         :                                (10s)                   Time(hh mm ss/dd-MMM-yyyy)
DEPTH           .m                                         :(RT)    (DnMWorkflow)                                   Depth Index
BLKP            .m                                         :(RT)    (DRILLING_SURFACE)                              Height of block above rig floor
GR_CAL          .gAPI                                      :(RT)    (ARC9)                                          Calibrated Gamma Ray
STICK           .c/min                                     :(RT)    (TELE900)                                       Stick Slip Indicator
CRPM            .c/min                                     :(RT)    (TELE900)                                       Collar Rotational Speed
SHKRSK          .                                          :(RT)    (TELE900)                                       Shock Risk
SHKPK           .gn                                        :(RT)    (TELE900)                                       Shock Peak
DHAT            .degC                                      :(RM)    (ARC9)                                          Downhole Annulus Temperature
DHAP            .bar                                       :(RM)    (ARC9)                                          Downhole Annulus Pressure
ECD             .g/cm3                                     :(RM)    (ARC9)                                          Equivalent Circulating Density
#-------------------------------------------------------------
#       TIME_1900                 TIME        DEPTH         BLKP       GR_CAL        STICK         CRPM       SHKRSK        SHKPK         DHAT         DHAP          ECD 
#                                       (DnMWorkfl)  (DRILLING_)       (ARC9)    (TELE900)    (TELE900)    (TELE900)    (TELE900)       (ARC9)       (ARC9)       (ARC9) 
#                                              (RT)         (RT)         (RT)         (RT)         (RT)         (RT)         (RT)         (RM)         (RM)         (RM) 
#                                (10s)                                                                                                                                   
~ASCII
# ...
 43818.9611111111 23:04:00/19-Dec-2019   1508.25989     27.23000    120.73270      -999.25      -999.25      -999.25      -999.25     29.00000    190.29530      1.29830
 43818.9612268518 23:04:10/19-Dec-2019   1508.34998     27.05000    125.29950      -999.25      -999.25      -999.25      -999.25     29.00000    190.70900      1.30103
 43818.9613425926 23:04:20/19-Dec-2019   1508.53003     26.96000    125.91610      -999.25      -999.25      0.00000      0.00000     29.00000    190.08850      1.29666
 43818.9614583333 23:04:30/19-Dec-2019   1508.70996     26.78000    122.04660      -999.25      -999.25      -999.25      -999.25     29.00000    190.08850      1.29650
 43818.9615740741 23:04:40/19-Dec-2019   1508.62000     26.87000    115.50150      -999.25      -999.25      -999.25      -999.25     29.00000    190.08850      1.29658
 43818.9616898148 23:04:50/19-Dec-2019   1508.62988     26.72000    120.38480      -999.25      -999.25      -999.25      -999.25     29.00000    190.29530      1.29796
 43818.9618055556 23:05:00/19-Dec-2019   1510.10010     25.34000    124.94590      -999.25      -999.25      -999.25      -999.25     29.00000    191.46740      1.30468
 43818.9619212963 23:05:10/19-Dec-2019   1511.68994     23.70000    127.69990      -999.25      -999.25      0.00000      0.00000     29.00000    191.05370      1.30048
 43818.9620370370 23:05:20/19-Dec-2019   1512.60999     22.83000    126.56750      -999.25      -999.25      -999.25      -999.25     29.00000    191.32950      1.30156
 43818.9621527778 23:05:30/19-Dec-2019   1512.77002     22.72000    125.76870      -999.25      -999.25      -999.25      -999.25     29.00000    191.19160      1.30049
 43818.9622685185 23:05:40/19-Dec-2019   1513.04993     22.53000    125.67840      -999.25      -999.25      -999.25      -999.25     29.00000    191.19160      1.30026
 43818.9623842593 23:05:50/19-Dec-2019   1513.37000     22.21000    120.61540      -999.25     36.00000      0.00000      0.00000     29.00000    191.19160      1.29999
 43818.9625000000 23:06:00/19-Dec-2019   1513.41992     22.06000    118.68060    330.00000      -999.25      -999.25      -999.25     29.00000    191.05370      1.29899
 43818.9626157407 23:06:10/19-Dec-2019   1513.46997     22.01000    120.77940      -999.25      -999.25      -999.25      -999.25     29.00000    191.32950      1.30082
 43818.9627314815 23:06:20/19-Dec-2019   1513.70007     21.97000    127.17580      -999.25      -999.25      -999.25      -999.25     29.00000    191.32950      1.30065
 43818.9628472222 23:06:30/19-Dec-2019   1513.80005     21.69000    123.26970      -999.25      -999.25      -999.25      -999.25     29.00000    191.26060      1.30007
 43818.9629629630 23:06:40/19-Dec-2019   1513.80005     21.69000    112.27870      -999.25      0.00000      -999.25      -999.25     29.00000    191.12270      1.29913
 43818.9630787037 23:06:50/19-Dec-2019   1513.80005     21.69000    111.09380    381.00000      -999.25      -999.25      -999.25     29.00000    191.12270      1.29913
 43818.9631944444 23:07:00/19-Dec-2019   1513.71008     21.69000    117.59910      -999.25      -999.25      -999.25      -999.25     29.00000    190.98480      1.29826
 43818.9633101852 23:07:10/19-Dec-2019   1513.52002     21.97000      -999.25      -999.25      -999.25      -999.25      -999.25     29.00000    190.98480      1.29844
 43818.9634259259 23:07:20/19-Dec-2019   1513.52002     21.97000    124.71550      -999.25      -999.25      -999.25      -999.25     29.00000    191.12270      1.29937
 43818.9635416667 23:07:30/19-Dec-2019   1513.62000     21.87000    125.22370      -999.25      -999.25      -999.25      -999.25     29.00000    191.19160      1.29977
 43818.9636574074 23:07:40/19-Dec-2019   1513.80005     21.69000    121.29270      -999.25      -999.25      -999.25      -999.25     29.00000    191.12270      1.29913
 43818.9637731481 23:07:50/19-Dec-2019   1513.71008     21.78000    117.63420      -999.25      -999.25      -999.25      -999.25     29.00000    191.26060      1.30015
 43818.9638888889 23:08:00/19-Dec-2019   1513.52002     21.97000    116.15780      -999.25      -999.25      -999.25      -999.25     29.00000    191.12270      1.29937
 43818.9640046296 23:08:10/19-Dec-2019   1513.52002     21.97000    117.63420      -999.25      -999.25      -999.25      -999.25     29.00000    190.98480      1.29844
 43818.9641203704 23:08:20/19-Dec-2019   1513.62000     21.78000    121.29270      -999.25      -999.25      0.00000      0.00000     29.00000    191.05370      1.29884
 43818.9642361111 23:08:30/19-Dec-2019   1513.52002     21.97000    125.22370      -999.25      -999.25      -999.25      -999.25     29.00000    191.12270      1.29937
 43818.9643518519 23:08:40/19-Dec-2019   1513.71008     21.78000    126.24940      -999.25      -999.25      -999.25      -999.25     29.00000    190.91580      1.29780
 43818.9644675926 23:08:50/19-Dec-2019   1513.62000     21.87000    125.60280      -999.25      -999.25      -999.25      -999.25     29.00000    190.91580      1.29788
 43818.9645833333 23:09:00/19-Dec-2019   1513.52002     21.97000    127.70160      -999.25      -999.25      -999.25      -999.25     29.00000    190.91580      1.29797
 43818.9646990741 23:09:10/19-Dec-2019   1513.52002     21.97000    125.76680      -999.25      -999.25      0.00000      0.00000     29.00000    190.84690      1.29750
 43818.9648148148 23:09:20/19-Dec-2019   1513.71008     21.78000    120.70380      -999.25      -999.25      -999.25      -999.25     29.00000    190.98480      1.29827
 43818.9649305556 23:09:30/19-Dec-2019   1513.80005     21.69000    117.40500      -999.25      -999.25      -999.25      -999.25     29.00000    190.98480      1.29819
 43818.9650462963 23:09:40/19-Dec-2019   1513.80005     21.69000    116.91570      -999.25      -999.25      -999.25      -999.25     29.00000    190.91580      1.29773
 43818.9651620370 23:09:50/19-Dec-2019   1513.41992     22.12000    119.87990      -999.25      -999.25      0.00000      0.00000     29.00000    190.70900      1.29665
 43818.9652777778 23:10:00/19-Dec-2019   1511.88000     23.73000    123.74940      -999.25      -999.25      -999.25      -999.25     29.00000    190.36430      1.29564
 43818.9653935185 23:10:10/19-Dec-2019   1510.72009     24.80000    126.71370      -999.25      -999.25      -999.25      -999.25     29.00000    190.29530      1.29617
 43818.9655092593 23:10:20/19-Dec-2019   1510.33997     25.15000    126.84420      -999.25      -999.25      -999.25      -999.25     29.00000    190.43320      1.29744
 43818.9656250000 23:10:30/19-Dec-2019   1510.25012     25.24000    127.04840      -999.25      -999.25      -999.25      -999.25     29.00000    190.98480      1.30127
 43818.9657407407 23:10:40/19-Dec-2019   1510.25012     25.24000    127.70230      -999.25      -999.25      0.00000      0.00000     29.00000    190.64000      1.29892
 43818.9658564815 23:10:50/19-Dec-2019   1510.16003     25.33000    127.77560      -999.25      -999.25      -999.25      -999.25     29.00000    190.43320      1.29759
 43818.9659722222 23:11:00/19-Dec-2019   1509.97998     25.51000    126.00760      -999.25      -999.25      -999.25      -999.25     29.00000    190.64000      1.29916
 43818.9660879630 23:11:10/19-Dec-2019   1509.87988     25.61000      -999.25      -999.25      -999.25      -999.25      -999.25     29.00000    190.64000      1.29925
 43818.9662037037 23:11:20/19-Dec-2019   1509.96997     25.52000      -999.25      -999.25      -999.25      -999.25      -999.25     29.00000    190.70900      1.29964
 43818.9663194444 23:11:30/19-Dec-2019   1509.96997     25.52000      -999.25      -999.25      -999.25      -999.25      -999.25     29.00000    189.95060      1.29447
 43818.9664351852 23:11:40/19-Dec-2019   1509.79004     25.70000      -999.25      -999.25      -999.25      -999.25      -999.25     29.00000    190.08850      1.29556
 43818.9665509259 23:11:50/19-Dec-2019   1509.87988     25.70000      -999.25      -999.25      -999.25      -999.25      -999.25     29.00000    190.01950      1.29502
