~VERSION INFORMATION 
VERS  .    2.0                                     :CWLS Log ASCII Standard - VERSION 2.0
WRAP  .    NO                                      :One Line per Time step
PROD  .    Schlumberger Technology Corp.           :LAS Producer
PROG  .    Horizon LASWriter 9.2.113335.3100       :LAS Program name and version
SOURCE.    Run 2-TimeLogicalAcq                    :Run&Pass Information
CREA  .    12/11/2019                              :LAS Creation date {MM/DD/YYYY}
#--------------------------------------------------
~WELL INFORMATION 
#MNEM           .UNIT                      DATA            :DESCRIPTION
#----            ------          --------------            -----------------------------
STRT            .d               43803.0416666667          :START TIME(OLE Automation date)
STOP            .d               43803.8437500000          :STOP TIME(OLE Automation date)
STEP            .d                            0            :STEP TIME(10s in time)
NULL            .                       -999.25            :NULL VALUE
COMP            .                       Equinor            :COMPANY
WELL            .                        31/5-7            :WELL NAME
FLD             .                           Eos            :FIELD NAME
RIGN            .                 West Hercules            :Rig Name
RIGTYP          .                Semi-Submersible          :Rig Type
SON             .                     19SCA0085            :Service Order Number
SRVC            .                  Schlumberger            :SERVICE COMPANY
DATE            .                    12/04/2019            :LOG DATE(Composite Date for Composite LAP) (MM/DD/YYYY)
CLAB            .                       County:            :County Label
CNTY            .                                          :COUNTY
SLAB            .                                          :State/Province Label
STAT            .                                          :STATE or PROVINCE
PROV            .                                          :STATE or PROVINCE
CTRY            .                        Norway            :COUNTRY
CONT_REGION     .                        Europe            :Continent Region
SECT            .                                          :Section
TOWN            .                                          :Township
RANG            .                                          :Range
API             .                                          :API NUMBER
UWI             .                                          :UNIQUE WELL ID
LUL             .                Service Office            :Logging Unit Location
LUN             .                          A615            :Logging Unit Number
LOC             .                Norwegian North Sea       :FIELD LOCATION
FL1             .                Section: 8 1/2 in. pilot  :Field Location Line 1
FL2             .                Job no.: 19SCA0085        :Field Location Line 2
LATI            .deg             60° 34' 35.14" N          :LATITUDE
LONG            .deg             3° 26' 36.13" E           :LONGITUDE
PDAT            .                           MSL            :Local Permanent Datum
LMF             .                            DF            :Logging Measured From
APD             .m                        31.00            :Elevation of Depth Reference (LMF) Above Permanent Datum
EPD             .m                         0.00            :Elevation of Permanent Datum (PDAT) above Mean Sea Level
EKB             .m                      -999.25            :Elevation of Kelly Bushing Above Permanent Datum
EDF             .m                        31.00            :Elevation of Drill Floor Above Permanent Datum
EGL             .m                      -307.00            :Elevation of Ground Level Above Permanent Datum
ECF             .m                      -999.25            :Elevation of Casing Flange above Permanent Datum
#--------------------------------------------------
~CURVE INFORMATION
#MNEM           .UNIT                  API CODE            :DESCRIPTION
#----            ------          --------------            -----------------------------
TIME_1900       .d                                         :                                                        Time Index(OLE Automation date)
TIME            .s                                         :                                (10s)                   Time(hh mm ss/dd-MMM-yyyy)
DEPTH           .m                                         :(RT)    (DnMWorkflow)                                   Depth Index
GR              .gAPI                                      :(RT)    (DV6MT)                                         Gamma Ray
BLKP            .m                                         :(RT)    (DRILLING_SURFACE)                              Height of block above rig floor
STICK           .c/min                                     :(RT)    (TELE675)                                       Stick Slip Indicator
CRPM            .c/min                                     :(RT)    (TELE675)                                       Collar Rotational Speed
SHKRSK          .                                          :(RT)    (TELE675)                                       Shock Risk
SHKPK           .gn                                        :(RT)    (TELE675)                                       Shock Peak
ECD             .g/cm3                                     :(RM)    (DV6MT)                                         Equivalent Circulating Density
DHAT            .degC                                      :(RM)    (DV6MT)                                         Downhole Annulus Temperature
DHAP            .bar                                       :(RM)    (DV6MT)                                         Downhole Annulus Pressure
#-------------------------------------------------------------
#       TIME_1900                 TIME        DEPTH           GR         BLKP        STICK         CRPM       SHKRSK        SHKPK          ECD         DHAT         DHAP 
#                                       (DnMWorkfl)      (DV6MT)  (DRILLING_)    (TELE675)    (TELE675)    (TELE675)    (TELE675)      (DV6MT)      (DV6MT)      (DV6MT) 
#                                              (RT)         (RT)         (RT)         (RT)         (RT)         (RT)         (RT)         (RM)         (RM)         (RM) 
#                                (10s)                                                                                                                                   
~ASCII
# ...
 43803.2027777778 04:52:00/04-Dec-2019     541.6900      -999.25      32.5600      -999.25      -999.25       0.0000       0.0000       1.1248      13.0000      55.4339
 43803.2028935185 04:52:10/04-Dec-2019     541.4100      -999.25      32.8400      -999.25      -999.25      -999.25      -999.25       1.1362      13.0000      55.9854
 43803.2030092593 04:52:20/04-Dec-2019     541.4100      -999.25      32.8400      -999.25      -999.25      -999.25      -999.25       1.1278      13.0000      55.5717
 43803.2031250000 04:52:30/04-Dec-2019     541.5100      -999.25      32.7400      -999.25      94.0000      -999.25      -999.25       1.1150      13.0000      54.9512
 43803.2032407407 04:52:40/04-Dec-2019     541.6400      -999.25      32.6100      21.0000      -999.25      -999.25      -999.25       1.1319      13.0000      55.7786
 43803.2033564815 04:52:50/04-Dec-2019     541.4600      75.0908      32.7900      -999.25      -999.25      -999.25      -999.25       1.1249      13.0000      55.4339
 43803.2034722222 04:53:00/04-Dec-2019     541.2700      73.8917      32.9800      -999.25      -999.25      -999.25      -999.25       1.1249      13.0000      55.4339
 43803.2035879630 04:53:10/04-Dec-2019     541.4600      72.8252      32.7900      -999.25      -999.25      -999.25      -999.25       1.1319      13.0000      55.7786
 43803.2037037037 04:53:20/04-Dec-2019     541.9200      74.1297      32.3300      -999.25      -999.25      -999.25      -999.25       1.1365      13.0000      56.0544
 43803.2038194444 04:53:30/04-Dec-2019     541.9200      75.2848      32.3300      -999.25      -999.25      -999.25      -999.25       1.1253      13.0000      55.5028
 43803.2039351852 04:53:40/04-Dec-2019     541.5500      76.9542      32.7000      -999.25      -999.25      -999.25      -999.25       1.1235      13.0000      55.3649
 43803.2040509259 04:53:50/04-Dec-2019     541.7400      77.7444      32.5100      -999.25      -999.25      -999.25      -999.25       1.1326      13.0000      55.8475
 43803.2041666667 04:54:00/04-Dec-2019     541.8300      76.7022      32.4200      -999.25      -999.25       0.0000       0.0000       1.1279      13.0000      55.6407
 43803.2042824074 04:54:10/04-Dec-2019     541.7400      75.3590      32.5100      -999.25      -999.25      -999.25      -999.25       1.1368      13.0000      56.0544
 43803.2043981481 04:54:20/04-Dec-2019     541.8400      74.8097      32.4100      -999.25      -999.25      -999.25      -999.25       1.1345      13.0000      55.9854
 43803.2045138889 04:54:30/04-Dec-2019     541.9900      74.6362      32.2600      -999.25      94.0000      -999.25      -999.25       1.1334      13.0000      55.9165
 43803.2046296296 04:54:40/04-Dec-2019     542.2300      75.0654      32.0200      24.0000      -999.25      -999.25      -999.25       1.1311      13.0000      55.8475
 43803.2047453704 04:54:50/04-Dec-2019     542.3100      75.8592      31.9500      -999.25      -999.25      -999.25      -999.25       1.1355      13.0000      56.0544
 43803.2048611111 04:55:00/04-Dec-2019     542.5600      75.9793      31.7000      -999.25      -999.25      -999.25      -999.25       1.1339      13.0000      55.9854
 43803.2049768518 04:55:10/04-Dec-2019     542.4400      75.3590      31.9000      -999.25      -999.25      -999.25      -999.25       1.1334      13.0000      55.9854
 43803.2050925926 04:55:20/04-Dec-2019     542.2400      74.8097      32.0100      -999.25      -999.25      -999.25      -999.25       1.1385      13.0000      56.1923
 43803.2052083333 04:55:30/04-Dec-2019     542.4000      74.6362      31.7600      -999.25      -999.25      -999.25      -999.25       1.1307      13.0000      55.8475
 43803.2053240741 04:55:40/04-Dec-2019     542.6500      75.0654      31.6000      -999.25      -999.25      -999.25      -999.25       1.1417      13.0000      56.3991
 43803.2054398148 04:55:50/04-Dec-2019     542.6400      76.5554      31.7000      -999.25      -999.25      -999.25      -999.25       1.1310      13.0000      55.8475
 43803.2055555556 04:56:00/04-Dec-2019     542.3600      79.2591      31.8900      -999.25      -999.25       0.0000       0.0000       1.1284      13.0000      55.7096
 43803.2056712963 04:56:10/04-Dec-2019     542.6500      79.5934      31.5200      -999.25      -999.25      -999.25      -999.25       1.1367      13.0000      56.1923
 43803.2057870370 04:56:20/04-Dec-2019     543.0400      78.0733      31.2200      -999.25      96.0000      -999.25      -999.25       1.1325      13.0000      55.9854
 43803.2059027778 04:56:30/04-Dec-2019     543.1600      76.8923      31.1000      -999.25      -999.25      -999.25      -999.25       1.1252      13.0000      55.6407
 43803.2060185185 04:56:40/04-Dec-2019     543.1000      75.3722      31.1500      27.0000      -999.25      -999.25      -999.25       1.1379      13.0000      56.2612
 43803.2061342593 04:56:50/04-Dec-2019     543.2400      75.7116      31.0300      -999.25      -999.25      -999.25      -999.25       1.1321      13.0000      55.9854
 43803.2062500000 04:57:00/04-Dec-2019     543.4000      78.4370      30.8600      -999.25      -999.25      -999.25      -999.25       1.1289      13.0000      55.8475
 43803.2063657407 04:57:10/04-Dec-2019     543.5600      79.9318      30.7000      -999.25      -999.25      -999.25      -999.25       1.1414      13.0000      56.4681
 43803.2064814815 04:57:20/04-Dec-2019     543.6300      80.3610      30.6300      -999.25      -999.25      -999.25      -999.25       1.1367      13.0000      56.2612
 43803.2065972222 04:57:30/04-Dec-2019     543.6100      80.1875      30.7500      -999.25      -999.25      -999.25      -999.25       1.1371      13.0000      56.2612
 43803.2067129630 04:57:40/04-Dec-2019     543.5800      79.6382      30.6700      -999.25      -999.25      -999.25      -999.25       1.1410      13.0000      56.4681
 43803.2068287037 04:57:50/04-Dec-2019     543.8400      78.5899      30.4200      -999.25      -999.25       0.0000       0.0000       1.1445      13.0000      56.6749
 43803.2069444444 04:58:00/04-Dec-2019     543.9000      78.4474      30.3500      -999.25      -999.25      -999.25      -999.25       1.1347      13.0000      56.1923
 43803.2070601852 04:58:10/04-Dec-2019     544.0700      80.0298      30.1900      -999.25      -999.25      -999.25      -999.25       1.1359      13.0000      56.2612
 43803.2071759259 04:58:20/04-Dec-2019     544.5500      80.6678      29.7100      -999.25      94.0000      -999.25      -999.25       1.1361      13.0000      56.3302
 43803.2072916667 04:58:30/04-Dec-2019     544.4500      78.2280      29.8100      -999.25      -999.25      -999.25      -999.25       1.1322      13.0000      56.1233
 43803.2074074074 04:58:40/04-Dec-2019     544.5400      75.0753      29.7200      18.0000      -999.25      -999.25      -999.25       1.1417      13.0000      56.6060
 43803.2075231481 04:58:50/04-Dec-2019     544.7400      74.1960      29.5100      -999.25      -999.25      -999.25      -999.25       1.1508      13.0000      57.0886
 43803.2076388889 04:59:00/04-Dec-2019     544.8200      77.1278      29.4300      -999.25      -999.25      -999.25      -999.25       1.1424      13.0000      56.6749
 43803.2077546296 04:59:10/04-Dec-2019     544.9700      77.7022      29.2800      -999.25      -999.25      -999.25      -999.25       1.1438      13.0000      56.7439
 43803.2078703704 04:59:20/04-Dec-2019     545.3000      78.1928      28.9500      -999.25      -999.25      -999.25      -999.25       1.1468      13.0000      56.9507
 43803.2079861111 04:59:30/04-Dec-2019     545.6700      77.9579      28.5800      -999.25      -999.25      -999.25      -999.25       1.1383      13.0000      56.5370
 43803.2081018519 04:59:40/04-Dec-2019     545.4800      77.1278      28.7700      -999.25      -999.25      -999.25      -999.25       1.1465      13.0000      56.9507
 43803.2082175926 04:59:50/04-Dec-2019     545.6700      75.2736      28.5800      -999.25      -999.25       0.0000       0.0000       1.1474      13.0000      57.0196
