~VERSION INFORMATION 
VERS  .    2.0                                     :CWLS Log ASCII Standard - VERSION 2.0
WRAP  .    NO                                      :One Line per Time step
PROD  .    Schlumberger Technology Corp.           :LAS Producer
PROG  .    Horizon LASWriter 9.2.113335.3100       :LAS Program name and version
SOURCE.    Run 9-TimeLogicalAcq                    :Run&Pass Information
CREA  .    01/21/2020                              :LAS Creation date {MM/DD/YYYY}
#--------------------------------------------------
~WELL INFORMATION 
#MNEM           .UNIT                      DATA            :DESCRIPTION
#----            ------          --------------            -----------------------------
STRT            .d               43828.3333333334          :START TIME(OLE Automation date)
STOP            .d               43829.1041666667          :STOP TIME(OLE Automation date)
STEP            .d                            0            :STEP TIME(10s in time)
NULL            .                       -999.25            :NULL VALUE
COMP            .                       Equinor            :COMPANY
WELL            .                        31/5-7            :WELL NAME
FLD             .                           Eos            :FIELD NAME
RIGN            .                 West Hercules            :Rig Name
RIGTYP          .                Semi-Submersible          :Rig Type
SON             .                     19SCA0085            :Service Order Number
SRVC            .                  Schlumberger            :SERVICE COMPANY
DATE            .                    12/29/2019            :LOG DATE(Composite Date for Composite LAP) (MM/DD/YYYY)
CLAB            .                       County:            :County Label
CNTY            .                                          :COUNTY
SLAB            .                                          :State/Province Label
STAT            .                                          :STATE or PROVINCE
PROV            .                                          :STATE or PROVINCE
CTRY            .                        Norway            :COUNTRY
CONT_REGION     .                        Europe            :Continent Region
SECT            .                                          :Section
TOWN            .                                          :Township
RANG            .                                          :Range
API             .                                          :API NUMBER
UWI             .                                          :UNIQUE WELL ID
LUL             .                Service Office            :Logging Unit Location
LUN             .                          A615            :Logging Unit Number
LOC             .                Norwegian North Sea       :FIELD LOCATION
FL1             .                Section: 8 1/2 in.        :Field Location Line 1
FL2             .                Job no.: 19SCA0085        :Field Location Line 2
LATI            .deg             60° 34' 35.14" N          :LATITUDE
LONG            .deg             3° 26' 36.13" E           :LONGITUDE
PDAT            .                           MSL            :Local Permanent Datum
LMF             .                            DF            :Logging Measured From
APD             .m                        31.00            :Elevation of Depth Reference (LMF) Above Permanent Datum
EPD             .m                         0.00            :Elevation of Permanent Datum (PDAT) above Mean Sea Level
EKB             .m                      -999.25            :Elevation of Kelly Bushing Above Permanent Datum
EDF             .m                        31.00            :Elevation of Drill Floor Above Permanent Datum
EGL             .m                      -307.00            :Elevation of Ground Level Above Permanent Datum
ECF             .m                      -999.25            :Elevation of Casing Flange above Permanent Datum
#--------------------------------------------------
~CURVE INFORMATION
#MNEM           .UNIT                  API CODE            :DESCRIPTION
#----            ------          --------------            -----------------------------
TIME_1900       .d                                         :                                                        Time Index(OLE Automation date)
TIME            .s                                         :                                (10s)                   Time(hh mm ss/dd-MMM-yyyy)
DEPTH           .m                                         :(RT)    (DnMWorkflow)                                   Depth Index
BLKP            .m                                         :(RT)    (DRILLING_SURFACE)                              Height of block above rig floor
GR              .gAPI                                      :(RT)    (ARC6)                                          Gamma Ray
CRPM            .c/min                                     :(RT)    (TELE675)                                       Collar Rotational Speed
STICK           .c/min                                     :(RT)    (TELE675)                                       Stick Slip Indicator
SHKRSK          .                                          :(RT)    (TELE675)                                       Shock Risk
SHKPK           .gn                                        :(RT)    (TELE675)                                       Shock Peak
DHAT            .degC                                      :(RM)    (ARC6)                                          Downhole Annulus Temperature
DHAP            .bar                                       :(RM)    (ARC6)                                          Downhole Annulus Pressure
ECD             .g/cm3                                     :(RM)    (ARC6)                                          Equivalent Circulating Density
#-------------------------------------------------------------
#       TIME_1900                 TIME        DEPTH         BLKP           GR         CRPM        STICK       SHKRSK        SHKPK         DHAT         DHAP          ECD 
#                                       (DnMWorkfl)  (DRILLING_)       (ARC6)    (TELE675)    (TELE675)    (TELE675)    (TELE675)       (ARC6)       (ARC6)       (ARC6) 
#                                              (RT)         (RT)         (RT)         (RT)         (RT)         (RT)         (RT)         (RM)         (RM)         (RM) 
#                                (10s)                                                                                                                                   
~ASCII
# ...
 43828.5555555556 13:20:00/29-Dec-2019   2557.66016      6.41000     64.07133      -999.25      -999.25      0.00000      0.00000     38.00000    309.02300      1.23631
 43828.5556712963 13:20:10/29-Dec-2019   2557.61987      6.45000     65.20715      -999.25      -999.25      -999.25      -999.25     38.00000    308.26460      1.23330
 43828.5557870370 13:20:20/29-Dec-2019   2557.61987      6.45000     68.25928      -999.25      -999.25      -999.25      -999.25     38.00000    309.85040      1.23964
 43828.5559027778 13:20:30/29-Dec-2019   2557.61011      6.46000     72.46832      -999.25      -999.25      -999.25      -999.25     38.00000    307.09250      1.22861
 43828.5560185185 13:20:40/29-Dec-2019   2557.56006      6.51000     76.18992     70.00000      -999.25      -999.25      -999.25     38.00000    306.74780      1.22726
 43828.5561342593 13:20:50/29-Dec-2019   2557.47998      6.59000     76.39290      -999.25    381.00000      0.00000      0.00000     38.00000    309.57460      1.23860
 43828.5562500000 13:21:00/29-Dec-2019   2557.38013      6.69000     71.19528      -999.25      -999.25      -999.25      -999.25     38.00000    309.43670      1.23810
 43828.5563657407 13:21:10/29-Dec-2019   2557.35010      6.72000     67.03467      -999.25      -999.25      -999.25      -999.25     38.00000    305.64460      1.22294
 43828.5564814815 13:21:20/29-Dec-2019   2557.28003      6.79000     67.06798      -999.25      -999.25      -999.25      -999.25     38.00000    313.50460      1.25443
 43828.5565972222 13:21:30/29-Dec-2019   2557.17993      6.89000     68.53375     62.00000      -999.25      -999.25      -999.25     38.00000    309.02300      1.23655
 43828.5567129630 13:21:40/29-Dec-2019   2557.08008      6.99000     66.34418      -999.25    327.00000      -999.25      -999.25     38.00000    305.92040      1.22417
 43828.5568287037 13:21:50/29-Dec-2019   2556.96997      7.10000     63.74143      -999.25      -999.25      0.00000      0.00000     38.00000    307.16140      1.22919
 43828.5569444444 13:22:00/29-Dec-2019   2556.86011      7.21000     61.55186      -999.25      -999.25      -999.25      -999.25     38.00000    308.05780      1.23284
 43828.5570601852 13:22:10/29-Dec-2019   2556.75000      7.32000     60.47064      -999.25      -999.25      -999.25      -999.25     38.00000    310.12620      1.24116
 43828.5571759259 13:22:20/29-Dec-2019   2556.75000      7.32000     60.67482      -999.25      -999.25      -999.25      -999.25     38.00000    313.36670      1.25414
 43828.5572916667 13:22:30/29-Dec-2019   2556.75000      7.32000     61.85541     81.00000      -999.25      -999.25      -999.25     38.00000    309.57460      1.23896
 43828.5574074074 13:22:40/29-Dec-2019   2556.75000      7.32000     62.67653      -999.25    381.00000      0.00000      0.00000     38.00000    309.98830      1.24061
 43828.5575231481 13:22:50/29-Dec-2019   2556.75000      7.32000     62.41753      -999.25      -999.25      -999.25      -999.25     38.00000    309.43670      1.23841
 43828.5576388889 13:23:00/29-Dec-2019   2556.75000      7.32000     63.09702      -999.25      -999.25      -999.25      -999.25     38.00000    308.54040      1.23482
 43828.5577546296 13:23:10/29-Dec-2019   2556.75000      7.32000     65.72835      -999.25      -999.25      -999.25      -999.25     38.00000    305.43780      1.22240
 43828.5578703704 13:23:20/29-Dec-2019   2556.75000      7.32000     67.96504     48.00000      -999.25      -999.25      -999.25     38.00000    309.71250      1.23951
 43828.5579861111 13:23:30/29-Dec-2019   2556.69019      7.38000     67.40108      -999.25    237.00000      -999.25      -999.25     38.00000    310.53990      1.24285
 43828.5581018519 13:23:40/29-Dec-2019   2556.51001      7.56000     67.81085      -999.25      -999.25      0.00000      0.00000     38.00000    309.22990      1.23771
 43828.5582175926 13:23:50/29-Dec-2019   2556.37988      7.69000     69.06422      -999.25      -999.25      -999.25      -999.25     38.00000    307.23040      1.22975
 43828.5583333333 13:24:00/29-Dec-2019   2556.23999      7.83000     68.66653      -999.25      -999.25      -999.25      -999.25     38.00000    307.23040      1.22983
 43828.5584490741 13:24:10/29-Dec-2019   2556.12012      7.96000     66.71729      -999.25      -999.25      -999.25      -999.25     38.00000    306.33410      1.22629
 43828.5585648148 13:24:20/29-Dec-2019   2556.00000      8.08000     63.50745    110.00000      -999.25      -999.25      -999.25     38.00000    306.74780      1.22800
 43828.5586805556 13:24:30/29-Dec-2019   2555.87988      8.20000     58.51281      -999.25    285.00000      0.00000      0.00000     38.00000    307.09250      1.22945
 43828.5587962963 13:24:40/29-Dec-2019   2555.76001      8.32000     53.51818      -999.25      -999.25      -999.25      -999.25     38.00000    309.71250      1.23999
 43828.5589120370 13:24:50/29-Dec-2019   2555.63989      8.44000     49.63471      -999.25      -999.25      -999.25      -999.25     38.00000    309.98830      1.24116
 43828.5590277778 13:25:00/29-Dec-2019   2555.50977      8.56000     45.65719      -999.25      -999.25      -999.25      -999.25     38.00000    305.29980      1.22244
 43828.5591435185 13:25:10/29-Dec-2019   2555.40015      8.67000     47.18911    129.00000      -999.25      -999.25      -999.25     38.00000    307.09250      1.22967
 43828.5592592593 13:25:20/29-Dec-2019   2555.28979      8.78000     52.18374      -999.25    369.00000      -999.25      -999.25     38.00000    308.54040      1.23553
 43828.5593750000 13:25:30/29-Dec-2019   2555.21997      8.85000     57.17837      -999.25      -999.25      0.00000      0.00000     38.00000    308.12670      1.23391
 43828.5594907407 13:25:40/29-Dec-2019   2555.21997      8.85000     59.64898      -999.25      -999.25      -999.25      -999.25     38.00000    307.64410      1.23197
 43828.5596064815 13:25:50/29-Dec-2019   2555.18994      8.89000     60.02901      -999.25      -999.25      -999.25      -999.25     38.00000    306.19620      1.22619
 43828.5597222222 13:26:00/29-Dec-2019   2555.14990      8.92000     58.81410      -999.25      -999.25      -999.25      -999.25     38.00000    305.43780      1.22317
 43828.5598379630 13:26:10/29-Dec-2019   2555.13013      8.94000     56.62453    133.00000      -999.25      -999.25      -999.25     37.00000    306.05830      1.22567
 43828.5599537037 13:26:20/29-Dec-2019   2555.08984      8.98000     54.02179      -999.25    240.00000      0.00000      0.00000     37.00000    305.36880      1.22292
 43828.5600694444 13:26:30/29-Dec-2019   2555.01001      9.07000     51.83221      -999.25      -999.25      -999.25      -999.25     37.00000    305.50670      1.22352
 43828.5601851852 13:26:40/29-Dec-2019   2554.92993      9.15000     49.66413      -999.25      -999.25      -999.25      -999.25     37.00000    305.50670      1.22355
 43828.5603009259 13:26:50/29-Dec-2019   2554.84985      9.22000     50.10855      -999.25      -999.25      -999.25      -999.25     37.00000    306.33410      1.22690
 43828.5604166667 13:27:00/29-Dec-2019   2554.77002      9.30000     54.74472     85.00000      -999.25      -999.25      -999.25     37.00000    308.05780      1.23385
 43828.5605324074 13:27:10/29-Dec-2019   2554.69995      9.37000     59.94234      -999.25    240.00000      0.00000      0.00000     37.00000    307.64410      1.23222
 43828.5606481481 13:27:20/29-Dec-2019   2554.62988      9.45000     59.73935      -999.25      -999.25      -999.25      -999.25     37.00000    306.88560      1.22923
 43828.5607638889 13:27:30/29-Dec-2019   2554.55005      9.52000     55.73333      -999.25      -999.25      -999.25      -999.25     37.00000    307.85090      1.23313
 43828.5608796296 13:27:40/29-Dec-2019   2554.47998      9.59000     50.36779      -999.25      -999.25      -999.25      -999.25     37.00000    307.78200      1.23288
 43828.5609953704 13:27:50/29-Dec-2019   2554.41016      9.66000     46.55780      -999.25      -999.25      -999.25      -999.25     37.00000    305.09300      1.22215
