~VERSION INFORMATION 
VERS  .    2.0                                     :CWLS Log ASCII Standard - VERSION 2.0
WRAP  .    NO                                      :One Line per Time step
PROD  .    Schlumberger Technology Corp.           :LAS Producer
PROG  .    Horizon LASWriter 9.2.113335.3100       :LAS Program name and version
SOURCE.    Run 3-TimeLogicalAcq                    :Run&Pass Information
CREA  .    12/12/2019                              :LAS Creation date {MM/DD/YYYY}
#--------------------------------------------------
~WELL INFORMATION 
#MNEM           .UNIT                      DATA            :DESCRIPTION
#----            ------          --------------            -----------------------------
STRT            .d               43804.6875000000          :START TIME(OLE Automation date)
STOP            .d               43805.8541666667          :STOP TIME(OLE Automation date)
STEP            .d                            0            :STEP TIME(10s in time)
NULL            .                       -999.25            :NULL VALUE
COMP            .                       Equinor            :COMPANY
WELL            .                        31/5-7            :WELL NAME
FLD             .                           Eos            :FIELD NAME
RIGN            .                 West Hercules            :Rig Name
RIGTYP          .                Semi-Submersible          :Rig Type
SON             .                     19SCA0085            :Service Order Number
SRVC            .                  Schlumberger            :SERVICE COMPANY
DATE            .                    12/05/2019            :LOG DATE(Composite Date for Composite LAP) (MM/DD/YYYY)
CLAB            .                       County:            :County Label
CNTY            .                                          :COUNTY
SLAB            .                                          :State/Province Label
STAT            .                                          :STATE or PROVINCE
PROV            .                                          :STATE or PROVINCE
CTRY            .                        Norway            :COUNTRY
CONT_REGION     .                        Europe            :Continent Region
SECT            .                                          :Section
TOWN            .                                          :Township
RANG            .                                          :Range
API             .                                          :API NUMBER
UWI             .                                          :UNIQUE WELL ID
LUL             .                Service Office            :Logging Unit Location
LUN             .                          A615            :Logging Unit Number
LOC             .                Norwegian North Sea       :FIELD LOCATION
FL1             .                Section: 26 in.           :Field Location Line 1
FL2             .                Job no.: 19SCA0085        :Field Location Line 2
LATI            .deg             60° 34' 35.14" N          :LATITUDE
LONG            .deg             3° 26' 36.13" E           :LONGITUDE
PDAT            .                           MSL            :Local Permanent Datum
LMF             .                            DF            :Logging Measured From
APD             .m                        31.00            :Elevation of Depth Reference (LMF) Above Permanent Datum
EPD             .m                         0.00            :Elevation of Permanent Datum (PDAT) above Mean Sea Level
EKB             .m                      -999.25            :Elevation of Kelly Bushing Above Permanent Datum
EDF             .m                        31.00            :Elevation of Drill Floor Above Permanent Datum
EGL             .m                      -307.00            :Elevation of Ground Level Above Permanent Datum
ECF             .m                      -999.25            :Elevation of Casing Flange above Permanent Datum
#--------------------------------------------------
~CURVE INFORMATION
#MNEM           .UNIT                  API CODE            :DESCRIPTION
#----            ------          --------------            -----------------------------
TIME_1900       .d                                         :                                                        Time Index(OLE Automation date)
TIME            .s                                         :                                (10s)                   Time(hh mm ss/dd-MMM-yyyy)
DEPTH           .m                                         :(RT)    (DnMWorkflow)                                   Depth Index
GR_CAL          .gAPI                                      :(RT)    (ARC9)                                          Calibrated Gamma Ray
BLKP            .m                                         :(RT)    (DRILLING_SURFACE)                              Height of block above rig floor
CRPM            .c/min                                     :(RT)    (TELE900)                                       Collar Rotational Speed
STICK           .c/min                                     :(RT)    (TELE900)                                       Stick Slip Indicator
SHKPK           .gn                                        :(RT)    (TELE900)                                       Shock Peak
SHKRSK          .                                          :(RT)    (TELE900)                                       Shock Risk
DHAP            .bar                                       :(RM)    (ARC9)                                          Downhole Annulus Pressure
DHAT            .degC                                      :(RM)    (ARC9)                                          Downhole Annulus Temperature
ECD             .g/cm3                                     :(RM)    (ARC9)                                          Equivalent Circulating Density
#-------------------------------------------------------------
#       TIME_1900                 TIME        DEPTH       GR_CAL         BLKP         CRPM        STICK        SHKPK       SHKRSK         DHAP         DHAT          ECD 
#                                       (DnMWorkfl)       (ARC9)  (DRILLING_)    (TELE900)    (TELE900)    (TELE900)    (TELE900)       (ARC9)       (ARC9)       (ARC9) 
#                                              (RT)         (RT)         (RT)         (RT)         (RT)         (RT)         (RT)         (RM)         (RM)         (RM) 
#                                (10s)                                                                                                                                   
~ASCII
# ...
 43805.7708333333 18:30:00/06-Dec-2019     736.6900      -999.25      31.5700      -999.25      -999.25      -999.25      -999.25      81.4271      17.0000       1.2152
 43805.7709490741 18:30:10/06-Dec-2019     735.8000      -999.25      32.3800      -999.25      -999.25      -999.25      -999.25      81.7029      17.0000       1.2209
 43805.7710648148 18:30:20/06-Dec-2019     735.7000      -999.25      32.7200      -999.25      -999.25      -999.25      -999.25      81.7029      17.0000       1.2210
 43805.7711805556 18:30:30/06-Dec-2019     735.5400      -999.25      32.7700      -999.25      -999.25      -999.25      -999.25      81.5650      17.0000       1.2193
 43805.7712962963 18:30:40/06-Dec-2019     735.1400      -999.25      33.3400      -999.25      -999.25      -999.25      -999.25      81.5650      17.0000       1.2200
 43805.7714120370 18:30:50/06-Dec-2019     734.2100      -999.25      34.1000      -999.25      -999.25      -999.25      -999.25      81.2892      17.0000       1.2175
 43805.7715277778 18:31:00/06-Dec-2019     733.9600      -999.25      34.3300      -999.25      -999.25      -999.25      -999.25      81.3581      17.0000       1.2190
 43805.7716435185 18:31:10/06-Dec-2019     733.5600      -999.25      34.7500      -999.25      -999.25      -999.25      -999.25      81.5650      17.0000       1.2228
 43805.7717592593 18:31:20/06-Dec-2019     733.2700      -999.25      34.9200      -999.25      -999.25      -999.25      -999.25      81.2892      17.0000       1.2192
 43805.7718750000 18:31:30/06-Dec-2019     733.1300      -999.25      35.1000      -999.25      -999.25      -999.25      -999.25      81.2892      17.0000       1.2195
 43805.7719907407 18:31:40/06-Dec-2019     732.6600      -999.25      35.6400      -999.25      -999.25      -999.25      -999.25      80.9445      17.0000       1.2151
 43805.7721064815 18:31:50/06-Dec-2019     732.0700      -999.25      36.2200      -999.25      -999.25      -999.25      -999.25      81.2892      17.0000       1.2214
 43805.7722222222 18:32:00/06-Dec-2019     731.3700      -999.25      36.8600      -999.25      -999.25      -999.25      -999.25      81.2892      17.0000       1.2226
 43805.7723379630 18:32:10/06-Dec-2019     731.8100      -999.25      36.4200      -999.25      -999.25      -999.25      -999.25      81.1513      17.0000       1.2197
 43805.7724537037 18:32:20/06-Dec-2019     731.1200      -999.25      37.3800      -999.25      -999.25      -999.25      -999.25      81.1513      17.0000       1.2210
 43805.7725694444 18:32:30/06-Dec-2019     730.0800      -999.25      38.2400      -999.25      -999.25      -999.25      -999.25      80.8755      17.0000       1.2187
 43805.7726851852 18:32:40/06-Dec-2019     730.0701      -999.25      38.0900      -999.25      -999.25      -999.25      -999.25      80.9445      17.0000       1.2198
 43805.7728009259 18:32:50/06-Dec-2019     729.9401      -999.25      38.3800      -999.25      -999.25      -999.25      -999.25      80.9445      17.0000       1.2200
 43805.7729166667 18:33:00/06-Dec-2019     729.4500      -999.25      38.8700      -999.25      -999.25      -999.25      -999.25      80.8755      17.0000       1.2199
 43805.7730324074 18:33:10/06-Dec-2019     728.5500      -999.25      39.7700      -999.25      -999.25      -999.25      -999.25      80.6687      17.0000       1.2184
 43805.7731481481 18:33:20/06-Dec-2019     728.0601      -999.25      40.2600      -999.25      -999.25      -999.25      -999.25      80.9445      17.0000       1.2234
 43805.7732638889 18:33:30/06-Dec-2019     728.0300      -999.25      40.2900      -999.25      -999.25      -999.25      -999.25      80.6687      17.0000       1.2193
 43805.7733796296 18:33:40/06-Dec-2019     727.5200      -999.25      40.8000      -999.25      -999.25      -999.25      -999.25      80.6687      17.0000       1.2202
 43805.7734953704 18:33:50/06-Dec-2019     726.7001      -999.25      41.6200      -999.25      -999.25      -999.25      -999.25      80.5308      17.0000       1.2196
 43805.7736111111 18:34:00/06-Dec-2019     726.5200      -999.25      41.8000      -999.25      -999.25      -999.25      -999.25      80.6687      17.0000       1.2220
 43805.7737268518 18:34:10/06-Dec-2019     726.9901      -999.25      41.3300      -999.25      -999.25      -999.25      -999.25      80.2550      17.0000       1.2149
 43805.7738425926 18:34:20/06-Dec-2019     728.6400      -999.25      39.6800      -999.25      -999.25      -999.25      -999.25      80.7376      17.0000       1.2193
 43805.7739583333 18:34:30/06-Dec-2019     728.8200      -999.25      39.5000      -999.25      -999.25      -999.25      -999.25      80.5997      17.0000       1.2168
 43805.7740740741 18:34:40/06-Dec-2019     728.8701      -999.25      39.4500      -999.25      -999.25      -999.25      -999.25      81.1513      17.0000       1.2251
 43805.7741898148 18:34:50/06-Dec-2019     729.0900      -999.25      39.2300      -999.25      -999.25      -999.25      -999.25      81.1513      17.0000       1.2247
 43805.7743055556 18:35:00/06-Dec-2019     729.3901      -999.25      38.9300      -999.25      -999.25      -999.25      -999.25      81.3581      17.0000       1.2272
 43805.7744212963 18:35:10/06-Dec-2019     731.1400      -999.25      37.1800      -999.25      -999.25      -999.25      -999.25      81.4960      17.0000       1.2262
 43805.7745370370 18:35:20/06-Dec-2019     733.0500      -999.25      35.2700      -999.25      -999.25      -999.25      -999.25      81.5650      17.0000       1.2237
 43805.7746527778 18:35:30/06-Dec-2019     734.5400      -999.25      33.7800      -999.25      -999.25      -999.25      -999.25      81.7029      17.0000       1.2231
 43805.7747685185 18:35:40/06-Dec-2019     735.8400      -999.25      32.4800      -999.25      -999.25      -999.25      -999.25      82.2545      17.0000       1.2290
 43805.7748842593 18:35:50/06-Dec-2019     737.6500      -999.25      30.6700      -999.25      -999.25      -999.25      -999.25      82.5302      17.0000       1.2299
 43805.7750000000 18:36:00/06-Dec-2019     739.7700      -999.25      28.6200      -999.25      -999.25      -999.25      -999.25      82.7371      17.0000       1.2292
 43805.7751157407 18:36:10/06-Dec-2019     742.5400      -999.25      25.9400      -999.25      -999.25      -999.25      -999.25      83.1508      17.0000       1.2304
 43805.7752314815 18:36:20/06-Dec-2019     745.2600      -999.25      23.1300      -999.25      -999.25      -999.25      -999.25      83.4266      17.0000       1.2296
 43805.7753472222 18:36:30/06-Dec-2019     747.4301      -999.25      21.0000      -999.25      -999.25      -999.25      -999.25      83.7024      17.0000       1.2298
 43805.7754629630 18:36:40/06-Dec-2019     749.2100      -999.25      19.1600      -999.25      -999.25      -999.25      -999.25      83.9092      17.0000       1.2297
 43805.7755787037 18:36:50/06-Dec-2019     751.1700      -999.25      17.2700      -999.25      -999.25      -999.25      -999.25      84.1850      17.0000       1.2303
 43805.7756944444 18:37:00/06-Dec-2019     753.1500      -999.25      15.2300      -999.25      -999.25      -999.25      -999.25      84.5297      17.0000       1.2318
 43805.7758101852 18:37:10/06-Dec-2019     755.5200      -999.25      12.9400      -999.25      -999.25      -999.25      -999.25      84.8745      17.0000       1.2327
 43805.7759259259 18:37:20/06-Dec-2019     757.9700      -999.25      10.3200      -999.25      -999.25      -999.25      -999.25      85.2192      17.0000       1.2333
 43805.7760416667 18:37:30/06-Dec-2019     760.3200      -999.25       8.1200      -999.25      -999.25      -999.25      -999.25      85.4260      17.0000       1.2322
 43805.7761574074 18:37:40/06-Dec-2019     762.5400      -999.25       5.8300      -999.25      -999.25      -999.25      -999.25      85.8397      17.0000       1.2343
 43805.7762731481 18:37:50/06-Dec-2019     764.1801      -999.25       4.0300      -999.25      -999.25      -999.25      -999.25      85.2192      17.0000       1.2225
