~VERSION INFORMATION 
VERS  .    2.0                                     :CWLS Log ASCII Standard - VERSION 2.0
WRAP  .    NO                                      :One Line per Time step
PROD  .    Schlumberger Technology Corp.           :LAS Producer
PROG  .    Horizon LASWriter 9.2.113335.3100       :LAS Program name and version
SOURCE.    Run 5-TimeLogicalAcq                    :Run&Pass Information
CREA  .    12/20/2019                              :LAS Creation date {MM/DD/YYYY}
#--------------------------------------------------
~WELL INFORMATION 
#MNEM           .UNIT                      DATA            :DESCRIPTION
#----            ------          --------------            -----------------------------
STRT            .d               43815.4062500000          :START TIME(OLE Automation date)
STOP            .d               43816.7395833333          :STOP TIME(OLE Automation date)
STEP            .d                            0            :STEP TIME(10s in time)
NULL            .                       -999.25            :NULL VALUE
COMP            .                       Equinor            :COMPANY
WELL            .                        31/5-7            :WELL NAME
FLD             .                           Eos            :FIELD NAME
RIGN            .                 West Hercules            :Rig Name
RIGTYP          .                Semi-Submersible          :Rig Type
SON             .                     19SCA0085            :Service Order Number
SRVC            .                  Schlumberger            :SERVICE COMPANY
DATE            .                    12/16/2019            :LOG DATE(Composite Date for Composite LAP) (MM/DD/YYYY)
CLAB            .                       County:            :County Label
CNTY            .                                          :COUNTY
SLAB            .                                          :State/Province Label
STAT            .                                          :STATE or PROVINCE
PROV            .                                          :STATE or PROVINCE
CTRY            .                        Norway            :COUNTRY
CONT_REGION     .                        Europe            :Continent Region
SECT            .                                          :Section
TOWN            .                                          :Township
RANG            .                                          :Range
API             .                                          :API NUMBER
UWI             .                                          :UNIQUE WELL ID
LUL             .                Service Office            :Logging Unit Location
LUN             .                          A615            :Logging Unit Number
LOC             .                Norwegian North Sea       :FIELD LOCATION
FL1             .                Section: 12 1/4 in. pilot :Field Location Line 1
FL2             .                Job no.: 19SCA0085        :Field Location Line 2
LATI            .deg             60° 34' 35.14" N          :LATITUDE
LONG            .deg             3° 26' 36.13" E           :LONGITUDE
PDAT            .                           MSL            :Local Permanent Datum
LMF             .                            DF            :Logging Measured From
APD             .m                        31.00            :Elevation of Depth Reference (LMF) Above Permanent Datum
EPD             .m                         0.00            :Elevation of Permanent Datum (PDAT) above Mean Sea Level
EKB             .m                      -999.25            :Elevation of Kelly Bushing Above Permanent Datum
EDF             .m                        31.00            :Elevation of Drill Floor Above Permanent Datum
EGL             .m                      -307.00            :Elevation of Ground Level Above Permanent Datum
ECF             .m                      -999.25            :Elevation of Casing Flange above Permanent Datum
#--------------------------------------------------
~CURVE INFORMATION
#MNEM           .UNIT                  API CODE            :DESCRIPTION
#----            ------          --------------            -----------------------------
TIME_1900       .d                                         :                                                        Time Index(OLE Automation date)
TIME            .s                                         :                                (10s)                   Time(hh mm ss/dd-MMM-yyyy)
DEPTH           .m                                         :(RT)    (DnMWorkflow)                                   Depth Index
GR              .gAPI                                      :(RT)    (ARC9)                                          Gamma Ray
BLKP            .m                                         :(RT)    (DRILLING_SURFACE)                              Height of block above rig floor
STICK           .c/min                                     :(RT)    (TELE900)                                       Stick Slip Indicator
CRPM            .c/min                                     :(RT)    (TELE900)                                       Collar Rotational Speed
SHKRSK          .                                          :(RT)    (TELE900)                                       Shock Risk
SHKPK           .gn                                        :(RT)    (TELE900)                                       Shock Peak
ECD             .g/cm3                                     :(RM)    (ARC9)                                          Equivalent Circulating Density
DHAP            .bar                                       :(RM)    (ARC9)                                          Downhole Annulus Pressure
DHAT            .degC                                      :(RM)    (ARC9)                                          Downhole Annulus Temperature
#-------------------------------------------------------------
#       TIME_1900                 TIME        DEPTH           GR         BLKP        STICK         CRPM       SHKRSK        SHKPK          ECD         DHAP         DHAT 
#                                       (DnMWorkfl)       (ARC9)  (DRILLING_)    (TELE900)    (TELE900)    (TELE900)    (TELE900)       (ARC9)       (ARC9)       (ARC9) 
#                                              (RT)         (RT)         (RT)         (RT)         (RT)         (RT)         (RT)         (RM)         (RM)         (RM) 
#                                (10s)                                                                                                                                   
~ASCII
# ...
 43815.8840277778 21:13:00/16-Dec-2019    1449.6400      -999.25      43.3700      -999.25      -999.25      -999.25      -999.25       1.3034     183.8142      27.0000
 43815.8841435185 21:13:10/16-Dec-2019    1449.2900      -999.25      43.7200      -999.25      -999.25      -999.25      -999.25       1.3110     184.8484      27.0000
 43815.8842592593 21:13:20/16-Dec-2019    1451.6299     120.0111      41.3800      -999.25      -999.25      -999.25      -999.25       1.3139     185.5379      27.0000
 43815.8843750000 21:13:30/16-Dec-2019    1452.4000     121.7465      40.6100      -999.25      -999.25      -999.25      -999.25       1.3121     185.4000      27.0000
 43815.8844907407 21:13:40/16-Dec-2019    1452.4801     122.8354      40.5300      -999.25      -999.25      -999.25      -999.25       1.3213     186.7100      27.0000
 43815.8846064815 21:13:50/16-Dec-2019    1452.4801     124.4420      40.5300      -999.25      -999.25      -999.25      -999.25       1.3218     186.7790      27.0000
 43815.8847222222 21:14:00/16-Dec-2019    1452.5699     126.4392      40.4400      -999.25      -999.25      -999.25      -999.25       1.3213     186.7100      27.0000
 43815.8848379630 21:14:10/16-Dec-2019    1452.4801     128.6739      40.5300      -999.25      -999.25      -999.25      -999.25       1.3224     186.8479      27.0000
 43815.8849537037 21:14:20/16-Dec-2019    1452.4000     130.9827      40.6100      -999.25      -999.25      -999.25      -999.25       1.3214     186.7100      27.0000
 43815.8850694444 21:14:30/16-Dec-2019    1452.4000     133.2087      40.6100      -999.25      -999.25      -999.25      -999.25       1.3219     186.7790      27.0000
 43815.8851851852 21:14:40/16-Dec-2019    1452.4801     135.2166      40.5300      -999.25      -999.25      -999.25      -999.25       1.3213     186.7100      27.0000
 43815.8853009259 21:14:50/16-Dec-2019    1452.5699     136.9050      40.4400      -999.25      -999.25      -999.25      -999.25       1.3212     186.7100      27.0000
 43815.8854166667 21:15:00/16-Dec-2019    1452.4000     138.2142      40.6100      -999.25      -999.25      -999.25      -999.25       1.3214     186.7100      27.0000
 43815.8855324074 21:15:10/16-Dec-2019    1452.4801     139.1292      40.5300      -999.25      -999.25      -999.25      -999.25       1.3213     186.7100      27.0000
 43815.8856481481 21:15:20/16-Dec-2019    1452.5699     139.6771      40.4400      -999.25      -999.25      -999.25      -999.25       1.3222     186.8479      27.0000
 43815.8857638889 21:15:30/16-Dec-2019    1452.5699     139.9196      40.4400      -999.25      -999.25      -999.25      -999.25       1.3217     186.7790      27.0000
 43815.8858796296 21:15:40/16-Dec-2019    1452.6600     139.9420      40.3500      -999.25      -999.25      -999.25      -999.25       1.3226     186.9169      27.0000
 43815.8859953704 21:15:50/16-Dec-2019    1452.7500     139.8388      40.2600      -999.25      -999.25      -999.25      -999.25       1.3240     187.1237      27.0000
 43815.8861111111 21:16:00/16-Dec-2019    1452.7500     139.6999      40.2600      -999.25      -999.25       0.0000       0.0000       1.3211     186.7100      27.0000
 43815.8862268519 21:16:10/16-Dec-2019    1452.7500     139.5973      40.2600      -999.25      -999.25      -999.25      -999.25       1.3220     186.8479      27.0000
 43815.8863425926 21:16:20/16-Dec-2019    1452.9501     129.6045      40.0500      -999.25      -999.25      -999.25      -999.25       1.3268     187.5374      27.0000
 43815.8864583333 21:16:30/16-Dec-2019    1453.2000     119.1351      39.7900      -999.25     184.0000      -999.25      -999.25       1.3226     186.9858      27.0000
 43815.8865740741 21:16:40/16-Dec-2019    1453.2899     113.5356      39.7200      -999.25      -999.25      -999.25      -999.25       1.3230     187.0548      27.0000
 43815.8866898148 21:16:50/16-Dec-2019    1453.4500     119.5741      39.5600      -999.25      -999.25      -999.25      -999.25       1.3248     187.3305      27.0000
 43815.8868055556 21:17:00/16-Dec-2019    1453.5701     122.2952      39.4400      -999.25      -999.25      -999.25      -999.25       1.3247     187.3305      27.0000
 43815.8869212963 21:17:10/16-Dec-2019    1453.7500     121.5170      39.2400      -999.25      -999.25      -999.25      -999.25       1.3250     187.3995      27.0000
 43815.8870370370 21:17:20/16-Dec-2019    1454.1500     116.1870      38.9300     108.0000      -999.25      -999.25      -999.25       1.3237     187.2616      27.0000
 43815.8871527778 21:17:30/16-Dec-2019    1454.3700     105.8085      38.6400      -999.25      -999.25       0.0000       0.0000       1.3226     187.1237      27.0000
 43815.8872685185 21:17:40/16-Dec-2019    1454.4301      98.2283      38.5800      -999.25      -999.25      -999.25      -999.25       1.3220     187.0548      27.0000
 43815.8873842593 21:17:50/16-Dec-2019    1454.7201      95.5059      38.2700      -999.25      -999.25      -999.25      -999.25       1.3241     187.3995      27.0000
 43815.8875000000 21:18:00/16-Dec-2019    1455.0500      89.6740      37.9500      -999.25     188.0000      -999.25      -999.25       1.3229     187.2616      27.0000
 43815.8876157407 21:18:10/16-Dec-2019    1455.3101      82.7947      37.7000      -999.25      -999.25      -999.25      -999.25       1.3241     187.4685      27.0000
 43815.8877314815 21:18:20/16-Dec-2019    1455.6200      77.6216      37.2900      -999.25      -999.25      -999.25      -999.25       1.3239     187.4685      27.0000
 43815.8878472222 21:18:30/16-Dec-2019    1455.6300      76.5341      37.3700      -999.25      -999.25      -999.25      -999.25       1.3238     187.4685      27.0000
 43815.8879629630 21:18:40/16-Dec-2019    1456.0699      87.4704      36.9400     222.0000      -999.25      -999.25      -999.25       1.3248     187.6753      27.0000
 43815.8880787037 21:18:50/16-Dec-2019    1456.2301      91.6496      36.7700      -999.25      -999.25       0.0000       0.0000       1.3247     187.6753      27.0000
 43815.8881944444 21:19:00/16-Dec-2019    1456.2000      87.1161      36.8000      -999.25      -999.25      -999.25      -999.25       1.3252     187.7442      27.0000
 43815.8883101852 21:19:10/16-Dec-2019    1456.5100      82.2396      36.5000      -999.25      -999.25      -999.25      -999.25       1.3254     187.8132      27.0000
 43815.8884259259 21:19:20/16-Dec-2019    1456.6399      76.5884      36.3700      -999.25      -999.25      -999.25      -999.25       1.3243     187.6753      27.0000
 43815.8885416667 21:19:30/16-Dec-2019    1456.7700      72.6421      36.2400      -999.25     202.0000      -999.25      -999.25       1.3241     187.6753      27.0000
 43815.8886574074 21:19:40/16-Dec-2019    1456.9701      74.6894      36.0400      -999.25      -999.25      -999.25      -999.25       1.3250     187.8132      27.0000
 43815.8887731481 21:19:50/16-Dec-2019    1457.2000      89.6371      35.8100      -999.25      -999.25      -999.25      -999.25       1.3257     187.9511      27.0000
 43815.8888888889 21:20:00/16-Dec-2019    1457.5100      95.9137      35.5000      -999.25      -999.25      -999.25      -999.25       1.3255     187.9511      27.0000
 43815.8890046296 21:20:10/16-Dec-2019    1457.7600      97.0352      35.2500     207.0000      -999.25      -999.25      -999.25       1.3253     187.9511      27.0000
 43815.8891203704 21:20:20/16-Dec-2019    1457.9601      88.0594      35.0500      -999.25      -999.25       0.0000       0.0000       1.3260     188.0890      27.0000
 43815.8892361111 21:20:30/16-Dec-2019    1458.1400      79.1679      34.8700      -999.25      -999.25      -999.25      -999.25       1.3273     188.2958      27.0000
 43815.8893518519 21:20:40/16-Dec-2019    1458.3201      83.5077      34.6900      -999.25      -999.25      -999.25      -999.25       1.3272     188.2958      27.0000
 43815.8894675926 21:20:50/16-Dec-2019    1458.2300      95.3782      34.7800      -999.25     192.0000      -999.25      -999.25       1.3238     187.8132      27.0000
