~VERSION INFORMATION 
VERS  .    2.0                                     :CWLS Log ASCII Standard - VERSION 2.0
WRAP  .    NO                                      :One Line per Time step
PROD  .    Schlumberger Technology Corp.           :LAS Producer
PROG  .    Horizon LASWriter 9.2.113335.3100       :LAS Program name and version
SOURCE.    Run 9-TimeLogicalAcq                    :Run&Pass Information
CREA  .    01/21/2020                              :LAS Creation date {MM/DD/YYYY}
#--------------------------------------------------
~WELL INFORMATION 
#MNEM           .UNIT                      DATA            :DESCRIPTION
#----            ------          --------------            -----------------------------
STRT            .d               43828.3333333334          :START TIME(OLE Automation date)
STOP            .d               43829.1041666667          :STOP TIME(OLE Automation date)
STEP            .d                            0            :STEP TIME(10s in time)
NULL            .                       -999.25            :NULL VALUE
COMP            .                       Equinor            :COMPANY
WELL            .                        31/5-7            :WELL NAME
FLD             .                           Eos            :FIELD NAME
RIGN            .                 West Hercules            :Rig Name
RIGTYP          .                Semi-Submersible          :Rig Type
SON             .                     19SCA0085            :Service Order Number
SRVC            .                  Schlumberger            :SERVICE COMPANY
DATE            .                    12/29/2019            :LOG DATE(Composite Date for Composite LAP) (MM/DD/YYYY)
CLAB            .                       County:            :County Label
CNTY            .                                          :COUNTY
SLAB            .                                          :State/Province Label
STAT            .                                          :STATE or PROVINCE
PROV            .                                          :STATE or PROVINCE
CTRY            .                        Norway            :COUNTRY
CONT_REGION     .                        Europe            :Continent Region
SECT            .                                          :Section
TOWN            .                                          :Township
RANG            .                                          :Range
API             .                                          :API NUMBER
UWI             .                                          :UNIQUE WELL ID
LUL             .                Service Office            :Logging Unit Location
LUN             .                          A615            :Logging Unit Number
LOC             .                Norwegian North Sea       :FIELD LOCATION
FL1             .                Section: 8 1/2 in.        :Field Location Line 1
FL2             .                Job no.: 19SCA0085        :Field Location Line 2
LATI            .deg             60° 34' 35.14" N          :LATITUDE
LONG            .deg             3° 26' 36.13" E           :LONGITUDE
PDAT            .                           MSL            :Local Permanent Datum
LMF             .                            DF            :Logging Measured From
APD             .m                        31.00            :Elevation of Depth Reference (LMF) Above Permanent Datum
EPD             .m                         0.00            :Elevation of Permanent Datum (PDAT) above Mean Sea Level
EKB             .m                      -999.25            :Elevation of Kelly Bushing Above Permanent Datum
EDF             .m                        31.00            :Elevation of Drill Floor Above Permanent Datum
EGL             .m                      -307.00            :Elevation of Ground Level Above Permanent Datum
ECF             .m                      -999.25            :Elevation of Casing Flange above Permanent Datum
#--------------------------------------------------
~CURVE INFORMATION
#MNEM           .UNIT                  API CODE            :DESCRIPTION
#----            ------          --------------            -----------------------------
TIME_1900       .d                                         :                                                        Time Index(OLE Automation date)
TIME            .s                                         :                                (10s)                   Time(hh mm ss/dd-MMM-yyyy)
DEPTH           .m                                         :(RT)    (DnMWorkflow)                                   Depth Index
BLKP            .m                                         :(RT)    (DRILLING_SURFACE)                              Height of block above rig floor
GR              .gAPI                                      :(RT)    (ARC6)                                          Gamma Ray
CRPM            .c/min                                     :(RT)    (TELE675)                                       Collar Rotational Speed
STICK           .c/min                                     :(RT)    (TELE675)                                       Stick Slip Indicator
SHKRSK          .                                          :(RT)    (TELE675)                                       Shock Risk
SHKPK           .gn                                        :(RT)    (TELE675)                                       Shock Peak
DHAT            .degC                                      :(RM)    (ARC6)                                          Downhole Annulus Temperature
DHAP            .bar                                       :(RM)    (ARC6)                                          Downhole Annulus Pressure
ECD             .g/cm3                                     :(RM)    (ARC6)                                          Equivalent Circulating Density
#-------------------------------------------------------------
#       TIME_1900                 TIME        DEPTH         BLKP           GR         CRPM        STICK       SHKRSK        SHKPK         DHAT         DHAP          ECD 
#                                       (DnMWorkfl)  (DRILLING_)       (ARC6)    (TELE675)    (TELE675)    (TELE675)    (TELE675)       (ARC6)       (ARC6)       (ARC6) 
#                                              (RT)         (RT)         (RT)         (RT)         (RT)         (RT)         (RT)         (RM)         (RM)         (RM) 
#                                (10s)                                                                                                                                   
~ASCII
# ...
 43828.9666666667 23:12:00/29-Dec-2019   2574.63013     27.46000     78.47407      -999.25    219.00000      -999.25      -999.25     36.00000    301.09400      1.19663
 43828.9667824074 23:12:10/29-Dec-2019   2574.45996     27.63000     79.10886      -999.25      -999.25      0.00000      0.00000     36.00000    299.85300      1.19176
 43828.9668981481 23:12:20/29-Dec-2019   2574.31006     27.78000     79.69752      -999.25      -999.25      -999.25      -999.25     36.00000    299.92190      1.19212
 43828.9670138889 23:12:30/29-Dec-2019   2574.14990     27.94000     78.82982      -999.25      -999.25      -999.25      -999.25     36.00000    302.33510      1.20178
 43828.9671296296 23:12:40/29-Dec-2019   2573.97998     28.11000     78.86560      -999.25      -999.25      -999.25      -999.25     36.00000    300.40460      1.19418
 43828.9672453704 23:12:50/29-Dec-2019   2573.83008     28.26000     79.59141     70.00000      -999.25      -999.25      -999.25     36.00000    300.74930      1.19564
 43828.9673611111 23:13:00/29-Dec-2019   2573.66992     28.42000     79.37407      -999.25    195.00000      0.00000      0.00000     36.00000    299.43930      1.19049
 43828.9674768519 23:13:10/29-Dec-2019   2573.50000     28.59000     78.28257      -999.25      -999.25      -999.25      -999.25     36.00000    299.64620      1.19140
 43828.9675925926 23:13:20/29-Dec-2019   2573.34009     28.75000     76.99746      -999.25      -999.25      -999.25      -999.25     36.00000    299.92190      1.19255
 43828.9677083333 23:13:30/29-Dec-2019   2573.18994     28.92000     75.82998      -999.25      -999.25      -999.25      -999.25     36.00000    300.88720      1.19647
 43828.9678240741 23:13:40/29-Dec-2019   2573.02002     29.07000     75.85666     87.00000      -999.25      -999.25      -999.25     36.00000    300.88720      1.19656
 43828.9679398148 23:13:50/29-Dec-2019   2572.87012     29.23000     75.55796      -999.25    246.00000      0.00000      0.00000     36.00000    298.19830      1.18592
 43828.9680555556 23:14:00/29-Dec-2019   2572.70996     29.39000     74.85773      -999.25      -999.25      -999.25      -999.25     36.00000    297.85350      1.18466
 43828.9681712963 23:14:10/29-Dec-2019   2572.63989     29.46000     74.14928      -999.25      -999.25      -999.25      -999.25     36.00000    300.88720      1.19672
 43828.9682870370 23:14:20/29-Dec-2019   2572.65991     29.43000     75.35461      -999.25      -999.25      -999.25      -999.25     36.00000    300.88720      1.19675
 43828.9684027778 23:14:30/29-Dec-2019   2572.50000     29.58000     78.04810      -999.25      -999.25      -999.25      -999.25     36.00000    298.47400      1.18719
 43828.9685185185 23:14:40/29-Dec-2019   2572.57983     29.50000     80.40180     92.00000      -999.25      -999.25      -999.25     36.00000    301.36980      1.19868
 43828.9686342593 23:14:50/29-Dec-2019   2572.68994     29.39000     77.79906      -999.25    183.00000      0.00000      0.00000     36.00000    301.92140      1.20081
 43828.9687500000 23:15:00/29-Dec-2019   2572.46997     29.62000     71.06622      -999.25      -999.25      -999.25      -999.25     36.00000    297.43980      1.18306
 43828.9688657407 23:15:10/29-Dec-2019   2572.71997     29.55000     65.39867      -999.25      -999.25      -999.25      -999.25     36.00000    298.88770      1.18864
 43828.9689814815 23:15:20/29-Dec-2019   2573.36011     28.72000     62.92953      -999.25      -999.25      -999.25      -999.25     36.00000    300.19770      1.19369
 43828.9690972222 23:15:30/29-Dec-2019   2573.22998     28.75000     66.16889     78.00000      -999.25      -999.25      -999.25     36.00000    301.30090      1.19818
 43828.9692129630 23:15:40/29-Dec-2019   2573.31006     28.78000     66.37187      -999.25    381.00000      0.00000      0.00000     36.00000    300.88720      1.19641
 43828.9693287037 23:15:50/29-Dec-2019   2573.46997     28.61000     61.17426      -999.25      -999.25      -999.25      -999.25     36.00000    300.74930      1.19580
 43828.9694444444 23:16:00/29-Dec-2019   2573.64014     28.44000     54.52602      -999.25      -999.25      -999.25      -999.25     36.00000    299.43930      1.19052
 43828.9695601852 23:16:10/29-Dec-2019   2573.80005     28.28000     51.46641      -999.25      -999.25      -999.25      -999.25     36.00000    301.50770      1.19865
 43828.9696759259 23:16:20/29-Dec-2019   2573.96021     28.13000     57.40355      -999.25      -999.25      -999.25      -999.25     36.00000    301.71460      1.19941
 43828.9697916667 23:16:30/29-Dec-2019   2574.11987     27.97000     66.32596     72.00000      -999.25      -999.25      -999.25     36.00000    303.02460      1.20452
 43828.9699074074 23:16:40/29-Dec-2019   2574.28979     27.80000     71.53145      -999.25    282.00000      0.00000      0.00000     36.00000    300.33560      1.19377
 43828.9700231481 23:16:50/29-Dec-2019   2574.44995     27.64000     71.36732      -999.25      -999.25      -999.25      -999.25     36.00000    299.85300      1.19178
 43828.9701388889 23:17:00/29-Dec-2019   2574.62012     27.47000     69.75506      -999.25      -999.25      -999.25      -999.25     36.00000    301.02510      1.19635
 43828.9702546296 23:17:10/29-Dec-2019   2574.78003     27.31000     69.24456      -999.25      -999.25      -999.25      -999.25     36.00000    300.19770      1.19300
 43828.9703703704 23:17:20/29-Dec-2019   2574.93994     27.15000     67.54012     81.00000      -999.25      -999.25      -999.25     36.00000    299.71510      1.19099
 43828.9704861111 23:17:30/29-Dec-2019   2575.10010     26.99000     65.04280      -999.25    318.00000      0.00000      0.00000     36.00000    299.99090      1.19203
 43828.9706018518 23:17:40/29-Dec-2019   2575.54980     26.54000     62.54549      -999.25      -999.25      -999.25      -999.25     36.00000    302.67980      1.20250
 43828.9707175926 23:17:50/29-Dec-2019   2575.22998     26.86000     60.84106      -999.25      -999.25      -999.25      -999.25     36.00000    302.19720      1.20067
 43828.9708333333 23:18:00/29-Dec-2019   2575.67993     26.41000     59.60255      -999.25      -999.25      -999.25      -999.25     36.00000    299.37040      1.18929
 43828.9709490741 23:18:10/29-Dec-2019   2575.84985     26.24000     61.34637      -999.25      -999.25      -999.25      -999.25     36.00000    300.95620      1.19549
 43828.9710648148 23:18:20/29-Dec-2019   2576.01001     26.08000     63.70009     81.00000    264.00000      -999.25      -999.25     36.00000    301.57670      1.19790
 43828.9711805556 23:18:30/29-Dec-2019   2576.01978     26.07000     61.09734      -999.25      -999.25      0.00000      0.00000     36.00000    300.47350      1.19351
 43828.9712962963 23:18:40/29-Dec-2019   2576.04004     26.05000     54.36449      -999.25      -999.25      -999.25      -999.25     36.00000    301.09400      1.19596
 43828.9714120370 23:18:50/29-Dec-2019   2576.09009     26.00000      -999.25      -999.25      -999.25      -999.25      -999.25     36.00000    302.26620      1.20060
 43828.9715277778 23:19:00/29-Dec-2019   2576.11011     25.98000      -999.25      -999.25      -999.25      -999.25      -999.25     36.00000    300.54250      1.19374
 43828.9716435185 23:19:10/29-Dec-2019   2576.11011     25.98000      -999.25     79.00000      -999.25      -999.25      -999.25     36.00000    301.57670      1.19785
 43828.9717592593 23:19:20/29-Dec-2019   2576.11011     25.98000      -999.25      -999.25    150.00000      -999.25      -999.25     36.00000    299.23250      1.18854
 43828.9718750000 23:19:30/29-Dec-2019   2576.11011     25.98000      -999.25      -999.25      -999.25      -999.25      -999.25     36.00000    298.47400      1.18553
 43828.9719907407 23:19:40/29-Dec-2019   2576.11011     25.98000      -999.25      -999.25      -999.25      -999.25      -999.25     36.00000    299.85300      1.19100
 43828.9721064815 23:19:50/29-Dec-2019   2576.11011     25.98000      -999.25      -999.25      -999.25      -999.25      -999.25     36.00000    289.64880      1.15047
