~VERSION INFORMATION 
VERS  .    2.0                                     :CWLS Log ASCII Standard - VERSION 2.0
WRAP  .    NO                                      :One Line per Time step
PROD  .    Schlumberger Technology Corp.           :LAS Producer
PROG  .    Horizon LASWriter 9.0.106845.3100       :LAS Program name and version
SOURCE.    Run 1-TimeLogicalAcq                    :Run&Pass Information
CREA  .    12/03/2019                              :LAS Creation date {MM/DD/YYYY}
#--------------------------------------------------
~WELL INFORMATION 
#MNEM           .UNIT                      DATA            :DESCRIPTION
#----            ------          --------------            -----------------------------
STRT            .d               43801.7395833334          :START TIME(OLE Automation date)
STOP            .d               43802.2048611111          :STOP TIME(OLE Automation date)
STEP            .d                            0            :STEP TIME(10s in time)
NULL            .                       -999.25            :NULL VALUE
COMP            .                       Equinor            :COMPANY
WELL            .                        31/5-7            :WELL NAME
FLD             .                           Eos            :FIELD NAME
RIGN            .                 West Hercules            :Rig Name
RIGTYP          .                Semi-Submersible          :Rig Type
SON             .                     19SCA0085            :Service Order Number
SRVC            .                  Schlumberger            :SERVICE COMPANY
DATE            .                    12/02/2019            :LOG DATE(Composite Date for Composite LAP) (MM/DD/YYYY)
CLAB            .                       County:            :County Label
CNTY            .                                          :COUNTY
SLAB            .                                          :State/Province Label
STAT            .                                          :STATE or PROVINCE
PROV            .                                          :STATE or PROVINCE
CTRY            .                        Norway            :COUNTRY
CONT_REGION     .                        Europe            :Continent Region
SECT            .                                          :Section
TOWN            .                                          :Township
RANG            .                                          :Range
API             .                                          :API NUMBER
UWI             .                                          :UNIQUE WELL ID
LUL             .                Service Office            :Logging Unit Location
LUN             .                          A615            :Logging Unit Number
LOC             .                Norwegian North Sea       :FIELD LOCATION
FL1             .                Section: 36 in.           :Field Location Line 1
FL2             .                Job no.: 19SCA0085        :Field Location Line 2
LATI            .deg             60° 34' 35.14" N          :LATITUDE
LONG            .deg             3° 26' 36.13" E           :LONGITUDE
PDAT            .                           MSL            :Local Permanent Datum
LMF             .                            DF            :Logging Measured From
APD             .m                        31.00            :Elevation of Depth Reference (LMF) Above Permanent Datum
EPD             .m                         0.00            :Elevation of Permanent Datum (PDAT) above Mean Sea Level
EKB             .m                      -999.25            :Elevation of Kelly Bushing Above Permanent Datum
EDF             .m                        31.00            :Elevation of Drill Floor Above Permanent Datum
EGL             .m                      -307.00            :Elevation of Ground Level Above Permanent Datum
ECF             .m                      -999.25            :Elevation of Casing Flange above Permanent Datum
#--------------------------------------------------
~CURVE INFORMATION
#MNEM           .UNIT                  API CODE            :DESCRIPTION
#----            ------          --------------            -----------------------------
TIME_1900       .d                                         :                                                        Time Index(OLE Automation date)
TIME            .s                                         :                                (10s)                   Time(hh mm ss/dd-MMM-yyyy)
DEPTH           .m                                         :(RT)    (DnMWorkflow)                                   Depth Index
GR              .gAPI                                      :(RT)    (TELE900)                                       Gamma Ray
BLKP            .m                                         :(RT)    (DRILLING_SURFACE)                              Height of block above rig floor
CRPM            .c/min                                     :(RT)    (TELE900)                                       Collar Rotational Speed
STICK           .c/min                                     :(RT)    (TELE900)                                       Stick Slip Indicator
SHKPK           .gn                                        :(RT)    (TELE900)                                       Shock Peak
SHKRSK          .                                          :(RT)    (TELE900)                                       Shock Risk
TEMP_DNI        .degC                                      :(RM)    (TELE900)                                       Direction and Inclination Sensor Temperature
#-------------------------------------------------------------
#       TIME_1900                 TIME        DEPTH           GR         BLKP         CRPM        STICK        SHKPK       SHKRSK     TEMP_DNI 
#                                       (DnMWorkfl)    (TELE900)  (DRILLING_)    (TELE900)    (TELE900)    (TELE900)    (TELE900)    (TELE900) 
#                                              (RT)         (RT)         (RT)         (RT)         (RT)         (RT)         (RT)         (RM) 
#                                (10s)                                                                                                         
~ASCII
# ...
 43802.0053240741 00:07:40/03-Dec-2019     386.5600      67.0698      15.5900      -999.25      -999.25      -999.25      -999.25      -999.25
 43802.0054398148 00:07:50/03-Dec-2019     386.7800      73.0561      15.3700      -999.25      -999.25      -999.25      -999.25      -999.25
 43802.0055555556 00:08:00/03-Dec-2019     386.9200      71.2124      15.2300      73.0000      -999.25       0.0000       0.0000      15.6867
 43802.0056712963 00:08:10/03-Dec-2019     386.8700      63.0769      15.3700      -999.25      63.0000      -999.25      -999.25      -999.25
 43802.0057870370 00:08:20/03-Dec-2019     386.7300      61.2899      15.4200      -999.25      -999.25      -999.25      -999.25      -999.25
 43802.0059027778 00:08:30/03-Dec-2019     387.1400      65.8687      15.0100      -999.25      -999.25      -999.25      -999.25      -999.25
 43802.0060185185 00:08:40/03-Dec-2019     387.2800      65.8687      14.8700      73.0000      -999.25      -999.25      -999.25      -999.25
 43802.0061342593 00:08:50/03-Dec-2019     386.8700      61.7261      15.3800      -999.25      69.0000       0.0000       0.0000      -999.25
 43802.0062500000 00:09:00/03-Dec-2019     387.0900      60.4054      14.9700      -999.25      -999.25      -999.25      -999.25      -999.25
 43802.0063657407 00:09:10/03-Dec-2019     387.3200      64.1875      14.8300      -999.25      -999.25      -999.25      -999.25      -999.25
 43802.0064814815 00:09:20/03-Dec-2019     387.2700      79.5011      14.8800      -999.25      -999.25      -999.25      -999.25      -999.25
 43802.0065972222 00:09:30/03-Dec-2019     387.2300      94.8147      14.9200      72.0000      -999.25       0.0000       0.0000      -999.25
 43802.0067129630 00:09:40/03-Dec-2019     387.2700      98.5969      14.8800      -999.25     102.0000      -999.25      -999.25      -999.25
 43802.0068287037 00:09:50/03-Dec-2019     387.3100     100.8128      14.8400      -999.25      -999.25      -999.25      -999.25      -999.25
 43802.0069444444 00:10:00/03-Dec-2019     387.3600      93.9976      14.7900      -999.25      -999.25      -999.25      -999.25      15.6867
 43802.0070601852 00:10:10/03-Dec-2019     387.4000      77.0007      14.7500      72.0000      -999.25       0.0000       0.0000      -999.25
 43802.0071759259 00:10:20/03-Dec-2019     387.4500      66.4034      14.7000      -999.25      48.0000      -999.25      -999.25      -999.25
 43802.0072916667 00:10:30/03-Dec-2019     387.3100      69.3094      14.8400      -999.25      -999.25      -999.25      -999.25      -999.25
 43802.0074074074 00:10:40/03-Dec-2019     387.3500      72.6316      14.8000      -999.25      -999.25      -999.25      -999.25      -999.25
 43802.0075231481 00:10:50/03-Dec-2019     387.6700      78.6179      14.4800      -999.25      -999.25      -999.25      -999.25      -999.25
 43802.0076388889 00:11:00/03-Dec-2019     387.6300      72.6316      14.6200      69.0000      54.0000       0.0000       0.0000      -999.25
 43802.0077546296 00:11:10/03-Dec-2019     387.5800      62.2916      14.5700      -999.25      -999.25      -999.25      -999.25      -999.25
 43802.0078703704 00:11:20/03-Dec-2019     387.8000      47.5021      14.4400      -999.25      -999.25      -999.25      -999.25      -999.25
 43802.0079861111 00:11:30/03-Dec-2019     387.9400      54.3173      14.2100      -999.25      -999.25      -999.25      -999.25      -999.25
 43802.0081018518 00:11:40/03-Dec-2019     387.8900      71.3141      14.2600      77.0000      -999.25       0.0000       0.0000      -999.25
 43802.0082175926 00:11:50/03-Dec-2019     387.8400      75.8186      14.3100      -999.25      69.0000      -999.25      -999.25      -999.25
 43802.0083333333 00:12:00/03-Dec-2019     387.8900      70.9361      14.2600      -999.25      -999.25      -999.25      -999.25      15.6867
 43802.0084490741 00:12:10/03-Dec-2019     387.9300      59.7627      14.2200      -999.25      -999.25      -999.25      -999.25      -999.25
 43802.0085648148 00:12:20/03-Dec-2019     387.9800      57.9190      14.1700      73.0000      -999.25       0.0000       0.0000      -999.25
 43802.0086805556 00:12:30/03-Dec-2019     388.0200      63.9053      14.1300      -999.25      78.0000      -999.25      -999.25      -999.25
 43802.0087962963 00:12:40/03-Dec-2019     388.0600      56.2570      14.0800      -999.25      -999.25      -999.25      -999.25      -999.25
 43802.0089120370 00:12:50/03-Dec-2019     388.1100      59.6610      14.0400      -999.25      -999.25      -999.25      -999.25      -999.25
 43802.0090277778 00:13:00/03-Dec-2019     388.0600      68.1594      14.0900      -999.25      -999.25      -999.25      -999.25      -999.25
 43802.0091435185 00:13:10/03-Dec-2019     388.1100      83.4730      14.0400      73.0000      27.0000       0.0000       0.0000      -999.25
 43802.0092592593 00:13:20/03-Dec-2019     388.1500      78.4301      14.0000      -999.25      -999.25      -999.25      -999.25      -999.25
 43802.0093750000 00:13:30/03-Dec-2019     388.2000      67.0698      13.9500      -999.25      -999.25      -999.25      -999.25      -999.25
 43802.0094907407 00:13:40/03-Dec-2019     388.1500      73.0561      14.0000      -999.25      -999.25      -999.25      -999.25      -999.25
 43802.0096064815 00:13:50/03-Dec-2019     388.1900      71.2124      13.9600      70.0000      -999.25       0.0000       0.0000      -999.25
 43802.0097222222 00:14:00/03-Dec-2019     388.5100      61.3938      13.6400      -999.25      39.0000      -999.25      -999.25      15.6867
 43802.0098379630 00:14:10/03-Dec-2019     388.5500      57.8536      13.6000      -999.25      -999.25      -999.25      -999.25      -999.25
 43802.0099537037 00:14:20/03-Dec-2019     388.5100      60.7432      13.6400      -999.25      -999.25      -999.25      -999.25      -999.25
 43802.0100694444 00:14:30/03-Dec-2019     388.5500      62.5868      13.6000      74.0000      -999.25      -999.25      -999.25      -999.25
 43802.0101851852 00:14:40/03-Dec-2019     388.5000      56.6005      13.6400      -999.25     105.0000       0.0000       0.0000      -999.25
 43802.0103009259 00:14:50/03-Dec-2019     388.5500      52.5051      13.6000      -999.25      -999.25      -999.25      -999.25      -999.25
 43802.0104166667 00:15:00/03-Dec-2019     388.9600      49.1829      13.1900      -999.25      -999.25      -999.25      -999.25      -999.25
 43802.0105324074 00:15:10/03-Dec-2019     388.7300      43.1966      13.3300      -999.25      -999.25      -999.25      -999.25      -999.25
 43802.0106481481 00:15:20/03-Dec-2019     388.8600      45.0402      13.2800      69.0000      -999.25       0.0000       0.0000      -999.25
 43802.0107638889 00:15:30/03-Dec-2019     388.9100      52.5051      13.2400      -999.25     123.0000      -999.25      -999.25      -999.25
 43802.0108796296 00:15:40/03-Dec-2019     388.6800      52.5051      13.4700      -999.25      -999.25      -999.25      -999.25      -999.25
 43802.0109953704 00:15:50/03-Dec-2019     389.0000      45.0402      13.1500      -999.25      -999.25      -999.25      -999.25      -999.25
 43802.0111111111 00:16:00/03-Dec-2019     389.0400      45.0402      13.1100      74.0000      -999.25       0.0000       0.0000      15.6867
 43802.0112268519 00:16:10/03-Dec-2019     388.9000      49.1829      13.2400      -999.25      57.0000      -999.25      -999.25      -999.25
 43802.0113425926 00:16:20/03-Dec-2019     388.9500      48.3709      13.2000      -999.25      -999.25      -999.25      -999.25      -999.25
 43802.0114583333 00:16:30/03-Dec-2019     388.9900      51.6930      13.1600      -999.25      -999.25      -999.25      -999.25      -999.25
 43802.0115740741 00:16:40/03-Dec-2019     388.9400      57.6793      13.2100      -999.25      -999.25      -999.25      -999.25      -999.25
 43802.0116898148 00:16:50/03-Dec-2019     389.2600      51.6930      12.8900      74.0000      66.0000       0.0000       0.0000      -999.25
