~VERSION INFORMATION 
VERS  .    2.0                                     :CWLS Log ASCII Standard - VERSION 2.0
WRAP  .    NO                                      :One Line per Time step
PROD  .    Schlumberger Technology Corp.           :LAS Producer
PROG  .    Horizon LASWriter 9.2.113335.3100       :LAS Program name and version
SOURCE.    Run 5-TimeLogicalAcq                    :Run&Pass Information
CREA  .    12/20/2019                              :LAS Creation date {MM/DD/YYYY}
#--------------------------------------------------
~WELL INFORMATION 
#MNEM           .UNIT                      DATA            :DESCRIPTION
#----            ------          --------------            -----------------------------
STRT            .d               43815.4062500000          :START TIME(OLE Automation date)
STOP            .d               43816.7395833333          :STOP TIME(OLE Automation date)
STEP            .d                            0            :STEP TIME(10s in time)
NULL            .                       -999.25            :NULL VALUE
COMP            .                       Equinor            :COMPANY
WELL            .                        31/5-7            :WELL NAME
FLD             .                           Eos            :FIELD NAME
RIGN            .                 West Hercules            :Rig Name
RIGTYP          .                Semi-Submersible          :Rig Type
SON             .                     19SCA0085            :Service Order Number
SRVC            .                  Schlumberger            :SERVICE COMPANY
DATE            .                    12/16/2019            :LOG DATE(Composite Date for Composite LAP) (MM/DD/YYYY)
CLAB            .                       County:            :County Label
CNTY            .                                          :COUNTY
SLAB            .                                          :State/Province Label
STAT            .                                          :STATE or PROVINCE
PROV            .                                          :STATE or PROVINCE
CTRY            .                        Norway            :COUNTRY
CONT_REGION     .                        Europe            :Continent Region
SECT            .                                          :Section
TOWN            .                                          :Township
RANG            .                                          :Range
API             .                                          :API NUMBER
UWI             .                                          :UNIQUE WELL ID
LUL             .                Service Office            :Logging Unit Location
LUN             .                          A615            :Logging Unit Number
LOC             .                Norwegian North Sea       :FIELD LOCATION
FL1             .                Section: 12 1/4 in. pilot :Field Location Line 1
FL2             .                Job no.: 19SCA0085        :Field Location Line 2
LATI            .deg             60° 34' 35.14" N          :LATITUDE
LONG            .deg             3° 26' 36.13" E           :LONGITUDE
PDAT            .                           MSL            :Local Permanent Datum
LMF             .                            DF            :Logging Measured From
APD             .m                        31.00            :Elevation of Depth Reference (LMF) Above Permanent Datum
EPD             .m                         0.00            :Elevation of Permanent Datum (PDAT) above Mean Sea Level
EKB             .m                      -999.25            :Elevation of Kelly Bushing Above Permanent Datum
EDF             .m                        31.00            :Elevation of Drill Floor Above Permanent Datum
EGL             .m                      -307.00            :Elevation of Ground Level Above Permanent Datum
ECF             .m                      -999.25            :Elevation of Casing Flange above Permanent Datum
#--------------------------------------------------
~CURVE INFORMATION
#MNEM           .UNIT                  API CODE            :DESCRIPTION
#----            ------          --------------            -----------------------------
TIME_1900       .d                                         :                                                        Time Index(OLE Automation date)
TIME            .s                                         :                                (10s)                   Time(hh mm ss/dd-MMM-yyyy)
DEPTH           .m                                         :(RT)    (DnMWorkflow)                                   Depth Index
GR              .gAPI                                      :(RT)    (ARC9)                                          Gamma Ray
BLKP            .m                                         :(RT)    (DRILLING_SURFACE)                              Height of block above rig floor
STICK           .c/min                                     :(RT)    (TELE900)                                       Stick Slip Indicator
CRPM            .c/min                                     :(RT)    (TELE900)                                       Collar Rotational Speed
SHKRSK          .                                          :(RT)    (TELE900)                                       Shock Risk
SHKPK           .gn                                        :(RT)    (TELE900)                                       Shock Peak
ECD             .g/cm3                                     :(RM)    (ARC9)                                          Equivalent Circulating Density
DHAP            .bar                                       :(RM)    (ARC9)                                          Downhole Annulus Pressure
DHAT            .degC                                      :(RM)    (ARC9)                                          Downhole Annulus Temperature
#-------------------------------------------------------------
#       TIME_1900                 TIME        DEPTH           GR         BLKP        STICK         CRPM       SHKRSK        SHKPK          ECD         DHAP         DHAT 
#                                       (DnMWorkfl)       (ARC9)  (DRILLING_)    (TELE900)    (TELE900)    (TELE900)    (TELE900)       (ARC9)       (ARC9)       (ARC9) 
#                                              (RT)         (RT)         (RT)         (RT)         (RT)         (RT)         (RT)         (RM)         (RM)         (RM) 
#                                (10s)                                                                                                                                   
~ASCII
# ...
 43816.2229166667 05:21:00/17-Dec-2019    1884.6400     103.9524      31.8500      -999.25      -999.25      -999.25      -999.25       1.3111     240.8339      32.0000
 43816.2230324074 05:21:10/17-Dec-2019    1884.5499     110.4506      31.9400      -999.25      -999.25      -999.25      -999.25       1.3082     240.2823      32.0000
 43816.2231481481 05:21:20/17-Dec-2019    1884.4601     111.9124      32.0300      -999.25      -999.25      -999.25      -999.25       1.3090     240.4202      32.0000
 43816.2232638889 05:21:30/17-Dec-2019    1884.3700     108.7110      32.1200      21.0000      -999.25      -999.25      -999.25       1.3102     240.6270      32.0000
 43816.2233796296 05:21:40/17-Dec-2019    1884.2800     104.5319      32.2100      -999.25      -999.25       0.0000       0.0000       1.3068     240.0065      32.0000
 43816.2234953704 05:21:50/17-Dec-2019    1884.1899     101.3304      32.3000      -999.25      -999.25      -999.25      -999.25       1.3122     240.9718      32.0000
 43816.2236111111 05:22:00/17-Dec-2019    1884.1001     112.8338      32.3900      -999.25      -999.25      -999.25      -999.25       1.3130     241.1097      32.0000
 43816.2237268519 05:22:10/17-Dec-2019    1884.0100     120.9224      32.4800      -999.25     157.0000      -999.25      -999.25       1.3093     240.4202      32.0000
 43816.2238425926 05:22:20/17-Dec-2019    1883.9299     127.1618      32.5700      -999.25      -999.25      -999.25      -999.25       1.3045     239.5239      32.0000
 43816.2239583333 05:22:30/17-Dec-2019    1883.8401     127.0586      32.6600      -999.25      -999.25      -999.25      -999.25       1.3087     240.2823      32.0000
 43816.2240740741 05:22:40/17-Dec-2019    1883.7500     120.2872      32.7500      -999.25      -999.25      -999.25      -999.25       1.3110     240.6960      32.0000
 43816.2241898148 05:22:50/17-Dec-2019    1883.6600     114.4757      32.8400      39.0000      -999.25      -999.25      -999.25       1.3118     240.8339      32.0000
 43816.2243055556 05:23:00/17-Dec-2019    1883.5699     106.6214      32.9300      -999.25      -999.25      -999.25      -999.25       1.3130     241.0407      32.0000
 43816.2244212963 05:23:10/17-Dec-2019    1883.4801      98.7672      33.0200      -999.25      -999.25       0.0000       0.0000       1.3116     240.7649      32.0000
 43816.2245370370 05:23:20/17-Dec-2019    1883.3900      93.9224      33.1100      -999.25      -999.25      -999.25      -999.25       1.3097     240.4202      32.0000
 43816.2246527778 05:23:30/17-Dec-2019    1883.2999      91.4584      33.2000      -999.25      -999.25      -999.25      -999.25       1.3098     240.4202      32.0000
 43816.2247685185 05:23:40/17-Dec-2019    1883.2101      93.4024      33.2800      -999.25     158.0000      -999.25      -999.25       1.3095     240.3512      32.0000
 43816.2248842593 05:23:50/17-Dec-2019    1883.1200      95.6955      33.3700      -999.25      -999.25      -999.25      -999.25       1.3080     240.0754      32.0000
 43816.2250000000 05:24:00/17-Dec-2019    1883.0300      95.7280      33.4600      -999.25      -999.25      -999.25      -999.25       1.3100     240.4202      32.0000
 43816.2251157407 05:24:10/17-Dec-2019    1882.9399      93.7974      33.5500      -999.25      -999.25      -999.25      -999.25       1.3067     239.7997      32.0000
 43816.2252314815 05:24:20/17-Dec-2019    1882.8600      94.5077      33.6400      48.0000      -999.25      -999.25      -999.25       1.3056     239.5928      32.0000
 43816.2253472222 05:24:30/17-Dec-2019    1882.7600      94.4251      33.7300      -999.25      -999.25       0.0000       0.0000       1.3038     239.2481      32.0000
 43816.2254629630 05:24:40/17-Dec-2019    1882.6799      93.5884      33.8200      -999.25      -999.25      -999.25      -999.25       1.3117     240.6960      32.0000
 43816.2255787037 05:24:50/17-Dec-2019    1882.5800      91.5628      33.9100      -999.25      -999.25      -999.25      -999.25       1.3111     240.5581      32.0000
 43816.2256944444 05:25:00/17-Dec-2019    1882.4900      91.2774      34.0000      -999.25     158.0000      -999.25      -999.25       1.3119     240.6960      32.0000
 43816.2258101852 05:25:10/17-Dec-2019    1882.4100      91.4486      34.0900      -999.25      -999.25      -999.25      -999.25       1.3093     240.2133      32.0000
 43816.2259259259 05:25:20/17-Dec-2019    1882.3201      90.5152      34.1800      -999.25      -999.25      -999.25      -999.25       1.3109     240.4891      32.0000
 43816.2260416667 05:25:30/17-Dec-2019    1882.2300      91.9112      34.2700      -999.25      -999.25      -999.25      -999.25       1.3120     240.6960      32.0000
 43816.2261574074 05:25:40/17-Dec-2019    1882.1400      89.0103      34.3600      39.0000      -999.25      -999.25      -999.25       1.3080     239.9376      32.0000
 43816.2262731481 05:25:50/17-Dec-2019    1882.0499      87.8888      34.4400      -999.25      -999.25      -999.25      -999.25       1.3062     239.5928      32.0000
 43816.2263888889 05:26:00/17-Dec-2019    1881.9601      96.8646      34.5400      -999.25      -999.25       0.0000       0.0000       1.3070     239.7307      32.0000
 43816.2265046296 05:26:10/17-Dec-2019    1881.8700     105.7561      34.6200      -999.25      -999.25      -999.25      -999.25       1.3123     240.6960      32.0000
 43816.2266203704 05:26:20/17-Dec-2019    1881.7800     109.4233      34.7100      -999.25      -999.25      -999.25      -999.25       1.3124     240.6960      32.0000
 43816.2267361111 05:26:30/17-Dec-2019    1881.6899     115.3586      34.8000      -999.25     158.0000      -999.25      -999.25       1.3139     240.9718      32.0000
 43816.2268518518 05:26:40/17-Dec-2019    1881.6001     115.9984      34.8900      -999.25      -999.25      -999.25      -999.25       1.3076     239.7997      32.0000
 43816.2269675926 05:26:50/17-Dec-2019    1881.5100     111.6225      34.9800      -999.25      -999.25      -999.25      -999.25       1.3095     240.1444      32.0000
 43816.2270833333 05:27:00/17-Dec-2019    1881.4199     102.8046      35.0700      -999.25      -999.25      -999.25      -999.25       1.3107     240.3512      32.0000
 43816.2271990741 05:27:10/17-Dec-2019    1881.3301      93.4689      35.1600      21.0000      -999.25      -999.25      -999.25       1.3100     240.2133      32.0000
 43816.2273148148 05:27:20/17-Dec-2019    1881.2500      91.3793      35.2500      -999.25      -999.25       0.0000       0.0000       1.3124     240.6270      32.0000
 43816.2274305556 05:27:30/17-Dec-2019    1881.1500      97.5136      35.3400      -999.25      -999.25      -999.25      -999.25       1.3079     239.7997      32.0000
 43816.2275462963 05:27:40/17-Dec-2019    1881.0701      99.8167      35.4200      -999.25      -999.25      -999.25      -999.25       1.3121     240.5581      32.0000
 43816.2276620370 05:27:50/17-Dec-2019    1880.9800      94.5265      35.5200      -999.25      -999.25      -999.25      -999.25       1.3107     240.2823      32.0000
 43816.2277777778 05:28:00/17-Dec-2019    1880.8900      90.5802      35.6100      -999.25     157.0000      -999.25      -999.25       1.3070     239.5928      32.0000
 43816.2278935185 05:28:10/17-Dec-2019    1880.7999      92.6274      35.6900      -999.25      -999.25      -999.25      -999.25       1.3082     239.7997      32.0000
 43816.2280092593 05:28:20/17-Dec-2019    1880.7101      97.1755      35.7800      -999.25      -999.25      -999.25      -999.25       1.3097     240.0754      32.0000
 43816.2281250000 05:28:30/17-Dec-2019    1880.6200     103.2248      35.8700      -999.25      -999.25      -999.25      -999.25       1.3090     239.9376      32.0000
 43816.2282407407 05:28:40/17-Dec-2019    1880.5300     109.6762      35.9700      27.0000      -999.25      -999.25      -999.25       1.3114     240.3512      32.0000
 43816.2283564815 05:28:50/17-Dec-2019    1880.4399     111.0790      36.0500      -999.25      -999.25       0.0000       0.0000       1.3062     239.3860      32.0000
