~VERSION INFORMATION 
VERS  .    2.0                                     :CWLS Log ASCII Standard - VERSION 2.0
WRAP  .    NO                                      :One Line per Time step
PROD  .    Schlumberger Technology Corp.           :LAS Producer
PROG  .    Horizon LASWriter 9.2.113335.3100       :LAS Program name and version
SOURCE.    Run 3-TimeLogicalAcq                    :Run&Pass Information
CREA  .    12/12/2019                              :LAS Creation date {MM/DD/YYYY}
#--------------------------------------------------
~WELL INFORMATION 
#MNEM           .UNIT                      DATA            :DESCRIPTION
#----            ------          --------------            -----------------------------
STRT            .d               43804.6875000000          :START TIME(OLE Automation date)
STOP            .d               43805.8541666667          :STOP TIME(OLE Automation date)
STEP            .d                            0            :STEP TIME(10s in time)
NULL            .                       -999.25            :NULL VALUE
COMP            .                       Equinor            :COMPANY
WELL            .                        31/5-7            :WELL NAME
FLD             .                           Eos            :FIELD NAME
RIGN            .                 West Hercules            :Rig Name
RIGTYP          .                Semi-Submersible          :Rig Type
SON             .                     19SCA0085            :Service Order Number
SRVC            .                  Schlumberger            :SERVICE COMPANY
DATE            .                    12/05/2019            :LOG DATE(Composite Date for Composite LAP) (MM/DD/YYYY)
CLAB            .                       County:            :County Label
CNTY            .                                          :COUNTY
SLAB            .                                          :State/Province Label
STAT            .                                          :STATE or PROVINCE
PROV            .                                          :STATE or PROVINCE
CTRY            .                        Norway            :COUNTRY
CONT_REGION     .                        Europe            :Continent Region
SECT            .                                          :Section
TOWN            .                                          :Township
RANG            .                                          :Range
API             .                                          :API NUMBER
UWI             .                                          :UNIQUE WELL ID
LUL             .                Service Office            :Logging Unit Location
LUN             .                          A615            :Logging Unit Number
LOC             .                Norwegian North Sea       :FIELD LOCATION
FL1             .                Section: 26 in.           :Field Location Line 1
FL2             .                Job no.: 19SCA0085        :Field Location Line 2
LATI            .deg             60° 34' 35.14" N          :LATITUDE
LONG            .deg             3° 26' 36.13" E           :LONGITUDE
PDAT            .                           MSL            :Local Permanent Datum
LMF             .                            DF            :Logging Measured From
APD             .m                        31.00            :Elevation of Depth Reference (LMF) Above Permanent Datum
EPD             .m                         0.00            :Elevation of Permanent Datum (PDAT) above Mean Sea Level
EKB             .m                      -999.25            :Elevation of Kelly Bushing Above Permanent Datum
EDF             .m                        31.00            :Elevation of Drill Floor Above Permanent Datum
EGL             .m                      -307.00            :Elevation of Ground Level Above Permanent Datum
ECF             .m                      -999.25            :Elevation of Casing Flange above Permanent Datum
#--------------------------------------------------
~CURVE INFORMATION
#MNEM           .UNIT                  API CODE            :DESCRIPTION
#----            ------          --------------            -----------------------------
TIME_1900       .d                                         :                                                        Time Index(OLE Automation date)
TIME            .s                                         :                                (10s)                   Time(hh mm ss/dd-MMM-yyyy)
DEPTH           .m                                         :(RT)    (DnMWorkflow)                                   Depth Index
GR_CAL          .gAPI                                      :(RT)    (ARC9)                                          Calibrated Gamma Ray
BLKP            .m                                         :(RT)    (DRILLING_SURFACE)                              Height of block above rig floor
CRPM            .c/min                                     :(RT)    (TELE900)                                       Collar Rotational Speed
STICK           .c/min                                     :(RT)    (TELE900)                                       Stick Slip Indicator
SHKPK           .gn                                        :(RT)    (TELE900)                                       Shock Peak
SHKRSK          .                                          :(RT)    (TELE900)                                       Shock Risk
DHAP            .bar                                       :(RM)    (ARC9)                                          Downhole Annulus Pressure
DHAT            .degC                                      :(RM)    (ARC9)                                          Downhole Annulus Temperature
ECD             .g/cm3                                     :(RM)    (ARC9)                                          Equivalent Circulating Density
#-------------------------------------------------------------
#       TIME_1900                 TIME        DEPTH       GR_CAL         BLKP         CRPM        STICK        SHKPK       SHKRSK         DHAP         DHAT          ECD 
#                                       (DnMWorkfl)       (ARC9)  (DRILLING_)    (TELE900)    (TELE900)    (TELE900)    (TELE900)       (ARC9)       (ARC9)       (ARC9) 
#                                              (RT)         (RT)         (RT)         (RT)         (RT)         (RT)         (RT)         (RM)         (RM)         (RM) 
#                                (10s)                                                                                                                                   
~ASCII
# ...
 43805.6152777778 14:46:00/06-Dec-2019     926.0001      31.6255      41.4700      81.0000      -999.25       0.0000       0.0000      91.9761      15.0000       1.0748
 43805.6153935185 14:46:10/06-Dec-2019     926.0900      31.5249      41.3800      -999.25      15.0000      -999.25      -999.25      92.3898      15.0000       1.0796
 43805.6155092593 14:46:20/06-Dec-2019     926.1600      30.7317      41.3100      -999.25      -999.25      -999.25      -999.25      93.6308      15.0000       1.0940
 43805.6156250000 14:46:30/06-Dec-2019     926.2300      35.0068      41.2400      -999.25      -999.25      -999.25      -999.25      93.4240      15.0000       1.0915
 43805.6157407407 14:46:40/06-Dec-2019     926.2900      37.1056      41.1800      82.0000      -999.25      -999.25      -999.25      92.8034      15.0000       1.0841
 43805.6158564815 14:46:50/06-Dec-2019     926.2800      35.1709      41.1900      -999.25      18.0000       0.0000       0.0000      92.6655      15.0000       1.0825
 43805.6159722222 14:47:00/06-Dec-2019     926.2300      30.1079      41.2400      -999.25      -999.25      -999.25      -999.25      92.5277      15.0000       1.0810
 43805.6160879630 14:47:10/06-Dec-2019     926.1900      32.7436      41.2800      -999.25      -999.25      -999.25      -999.25      92.3898      15.0000       1.0794
 43805.6162037037 14:47:20/06-Dec-2019     926.1500      36.2808      41.3200      -999.25      -999.25      -999.25      -999.25      92.3208      15.0000       1.0787
 43805.6163194444 14:47:30/06-Dec-2019     926.1100      36.8000      41.3600      81.0000      -999.25       0.0000       0.0000      92.3208      14.0000       1.0787
 43805.6164351852 14:47:40/06-Dec-2019     926.0700      32.6446      41.4000      -999.25      15.0000      -999.25      -999.25      92.0450      14.0000       1.0756
 43805.6165509259 14:47:50/06-Dec-2019     926.0200      28.1205      41.4500      -999.25      -999.25      -999.25      -999.25      92.0450      14.0000       1.0756
 43805.6166666667 14:48:00/06-Dec-2019     925.9700      25.9857      41.5000      -999.25      -999.25      -999.25      -999.25      92.0450      14.0000       1.0757
 43805.6167824074 14:48:10/06-Dec-2019     925.9200      27.4678      41.5500      81.0000      -999.25       0.0000       0.0000      91.9761      14.0000       1.0749
 43805.6168981481 14:48:20/06-Dec-2019     925.8701      29.4026      41.6000      -999.25      12.0000      -999.25      -999.25      91.9761      14.0000       1.0750
 43805.6170138889 14:48:30/06-Dec-2019     925.8200      30.8847      41.6500      -999.25      -999.25      -999.25      -999.25      91.9071      14.0000       1.0742
 43805.6171296296 14:48:40/06-Dec-2019     925.7800      29.3989      41.6900      -999.25      -999.25      -999.25      -999.25      91.9071      14.0000       1.0743
 43805.6172453704 14:48:50/06-Dec-2019     925.7300      29.3238      41.7400      -999.25      -999.25      -999.25      -999.25      91.9761      14.0000       1.0752
 43805.6173611111 14:49:00/06-Dec-2019     926.0500      31.1419      41.4200      82.0000      -999.25       0.0000       0.0000      91.9071      14.0000       1.0740
 43805.6174768518 14:49:10/06-Dec-2019     925.9000      32.9600      41.6600      -999.25       9.0000      -999.25      -999.25      91.9071      14.0000       1.0742
 43805.6175925926 14:49:20/06-Dec-2019     925.9200      33.5751      41.5500      -999.25      -999.25      -999.25      -999.25      91.9071      14.0000       1.0741
 43805.6177083333 14:49:30/06-Dec-2019     925.8600      32.8949      41.6100      -999.25      -999.25      -999.25      -999.25      91.9071      14.0000       1.0742
 43805.6178240741 14:49:40/06-Dec-2019     925.5200      31.9997      41.9500      83.0000      -999.25       0.0000       0.0000      91.7692      14.0000       1.0730
 43805.6179398148 14:49:50/06-Dec-2019     925.4700      31.9997      42.0000      -999.25      12.0000      -999.25      -999.25      91.7692      14.0000       1.0731
 43805.6180555556 14:50:00/06-Dec-2019     925.4200      32.8949      42.0500      -999.25      -999.25      -999.25      -999.25      91.7692      14.0000       1.0731
 43805.6181712963 14:50:10/06-Dec-2019     925.3701      36.4050      42.1000      -999.25      -999.25      -999.25      -999.25      91.7692      14.0000       1.0732
 43805.6182870370 14:50:20/06-Dec-2019     925.3300      31.3420      42.1400      81.0000      -999.25      -999.25      -999.25      91.7692      14.0000       1.0732
 43805.6184027778 14:50:30/06-Dec-2019     925.2800      29.4073      42.1900      -999.25      12.0000       0.0000       0.0000      91.7692      14.0000       1.0733
 43805.6185185185 14:50:40/06-Dec-2019     925.2401      31.5061      42.2300      -999.25      -999.25      -999.25      -999.25      91.7692      14.0000       1.0734
 43805.6186342593 14:50:50/06-Dec-2019     925.1901      35.2831      42.2800      -999.25      -999.25      -999.25      -999.25      91.7692      14.0000       1.0734
 43805.6187500000 14:51:00/06-Dec-2019     925.1400      35.7896      42.3300      -999.25      -999.25      -999.25      -999.25      91.7692      14.0000       1.0735
 43805.6188657407 14:51:10/06-Dec-2019     925.1000      33.9716      42.3700      83.0000      -999.25       0.0000       0.0000      91.7692      14.0000       1.0735
 43805.6189814815 14:51:20/06-Dec-2019     925.0500      32.1535      42.4200      -999.25      18.0000      -999.25      -999.25      91.7692      14.0000       1.0736
 43805.6190972222 14:51:30/06-Dec-2019     925.0000      30.3811      42.4600      -999.25      -999.25      -999.25      -999.25      91.7692      14.0000       1.0736
 43805.6192129630 14:51:40/06-Dec-2019     924.9600      28.6924      42.5100      -999.25      -999.25      -999.25      -999.25      91.7692      14.0000       1.0737
 43805.6193287037 14:51:50/06-Dec-2019     924.9000      30.1745      42.5700      82.0000      -999.25       0.0000       0.0000      91.7692      14.0000       1.0738
 43805.6194444444 14:52:00/06-Dec-2019     924.8500      32.1093      42.6100      -999.25       9.0000      -999.25      -999.25      91.8382      14.0000       1.0746
 43805.6195601852 14:52:10/06-Dec-2019     924.8100      33.5914      42.6600      -999.25      -999.25      -999.25      -999.25      91.7692      14.0000       1.0739
 43805.6196759259 14:52:20/06-Dec-2019     924.7800      32.3985      42.6900      -999.25      -999.25      -999.25      -999.25      91.7692      14.0000       1.0739
 43805.6197916667 14:52:30/06-Dec-2019     924.7600      31.0191      42.7100      -999.25      -999.25      -999.25      -999.25      91.8382      14.0000       1.0747
 43805.6199074074 14:52:40/06-Dec-2019     924.6901      30.4348      42.7800      82.0000      -999.25       0.0000       0.0000      91.8382      14.0000       1.0748
 43805.6200231481 14:52:50/06-Dec-2019     924.6100      31.0191      42.8600      -999.25      12.0000      -999.25      -999.25      91.7692      14.0000       1.0741
 43805.6201388889 14:53:00/06-Dec-2019     924.5400      33.0043      42.9200      -999.25      -999.25      -999.25      -999.25      91.7692      14.0000       1.0742
 43805.6202546296 14:53:10/06-Dec-2019     924.5300      35.7060      42.9400      -999.25      -999.25      -999.25      -999.25      91.7692      14.0000       1.0742
 43805.6203703704 14:53:20/06-Dec-2019     924.6300      34.9955      42.8600      82.0000      -999.25       0.0000       0.0000      91.7692      14.0000       1.0741
 43805.6204861111 14:53:30/06-Dec-2019     924.7400      35.0029      42.7300      -999.25       6.0000      -999.25      -999.25      91.7692      14.0000       1.0740
 43805.6206018519 14:53:40/06-Dec-2019     924.8300      35.7247      42.6500      -999.25      -999.25      -999.25      -999.25      91.8382      14.0000       1.0747
 43805.6207175926 14:53:50/06-Dec-2019     925.1000      36.5707      42.2900      -999.25      -999.25      -999.25      -999.25      91.8382      14.0000       1.0743
