~VERSION INFORMATION 
VERS  .    2.0                                     :CWLS Log ASCII Standard - VERSION 2.0
WRAP  .    NO                                      :One Line per Time step
PROD  .    Schlumberger Technology Corp.           :LAS Producer
PROG  .    Horizon LASWriter 9.2.113335.3100       :LAS Program name and version
SOURCE.    Run 5-TimeLogicalAcq                    :Run&Pass Information
CREA  .    12/20/2019                              :LAS Creation date {MM/DD/YYYY}
#--------------------------------------------------
~WELL INFORMATION 
#MNEM           .UNIT                      DATA            :DESCRIPTION
#----            ------          --------------            -----------------------------
STRT            .d               43815.4062500000          :START TIME(OLE Automation date)
STOP            .d               43816.7395833333          :STOP TIME(OLE Automation date)
STEP            .d                            0            :STEP TIME(10s in time)
NULL            .                       -999.25            :NULL VALUE
COMP            .                       Equinor            :COMPANY
WELL            .                        31/5-7            :WELL NAME
FLD             .                           Eos            :FIELD NAME
RIGN            .                 West Hercules            :Rig Name
RIGTYP          .                Semi-Submersible          :Rig Type
SON             .                     19SCA0085            :Service Order Number
SRVC            .                  Schlumberger            :SERVICE COMPANY
DATE            .                    12/16/2019            :LOG DATE(Composite Date for Composite LAP) (MM/DD/YYYY)
CLAB            .                       County:            :County Label
CNTY            .                                          :COUNTY
SLAB            .                                          :State/Province Label
STAT            .                                          :STATE or PROVINCE
PROV            .                                          :STATE or PROVINCE
CTRY            .                        Norway            :COUNTRY
CONT_REGION     .                        Europe            :Continent Region
SECT            .                                          :Section
TOWN            .                                          :Township
RANG            .                                          :Range
API             .                                          :API NUMBER
UWI             .                                          :UNIQUE WELL ID
LUL             .                Service Office            :Logging Unit Location
LUN             .                          A615            :Logging Unit Number
LOC             .                Norwegian North Sea       :FIELD LOCATION
FL1             .                Section: 12 1/4 in. pilot :Field Location Line 1
FL2             .                Job no.: 19SCA0085        :Field Location Line 2
LATI            .deg             60° 34' 35.14" N          :LATITUDE
LONG            .deg             3° 26' 36.13" E           :LONGITUDE
PDAT            .                           MSL            :Local Permanent Datum
LMF             .                            DF            :Logging Measured From
APD             .m                        31.00            :Elevation of Depth Reference (LMF) Above Permanent Datum
EPD             .m                         0.00            :Elevation of Permanent Datum (PDAT) above Mean Sea Level
EKB             .m                      -999.25            :Elevation of Kelly Bushing Above Permanent Datum
EDF             .m                        31.00            :Elevation of Drill Floor Above Permanent Datum
EGL             .m                      -307.00            :Elevation of Ground Level Above Permanent Datum
ECF             .m                      -999.25            :Elevation of Casing Flange above Permanent Datum
#--------------------------------------------------
~CURVE INFORMATION
#MNEM           .UNIT                  API CODE            :DESCRIPTION
#----            ------          --------------            -----------------------------
TIME_1900       .d                                         :                                                        Time Index(OLE Automation date)
TIME            .s                                         :                                (10s)                   Time(hh mm ss/dd-MMM-yyyy)
DEPTH           .m                                         :(RT)    (DnMWorkflow)                                   Depth Index
GR              .gAPI                                      :(RT)    (ARC9)                                          Gamma Ray
BLKP            .m                                         :(RT)    (DRILLING_SURFACE)                              Height of block above rig floor
STICK           .c/min                                     :(RT)    (TELE900)                                       Stick Slip Indicator
CRPM            .c/min                                     :(RT)    (TELE900)                                       Collar Rotational Speed
SHKRSK          .                                          :(RT)    (TELE900)                                       Shock Risk
SHKPK           .gn                                        :(RT)    (TELE900)                                       Shock Peak
ECD             .g/cm3                                     :(RM)    (ARC9)                                          Equivalent Circulating Density
DHAP            .bar                                       :(RM)    (ARC9)                                          Downhole Annulus Pressure
DHAT            .degC                                      :(RM)    (ARC9)                                          Downhole Annulus Temperature
#-------------------------------------------------------------
#       TIME_1900                 TIME        DEPTH           GR         BLKP        STICK         CRPM       SHKRSK        SHKPK          ECD         DHAP         DHAT 
#                                       (DnMWorkfl)       (ARC9)  (DRILLING_)    (TELE900)    (TELE900)    (TELE900)    (TELE900)       (ARC9)       (ARC9)       (ARC9) 
#                                              (RT)         (RT)         (RT)         (RT)         (RT)         (RT)         (RT)         (RM)         (RM)         (RM) 
#                                (10s)                                                                                                                                   
~ASCII
# ...
 43816.1395833333 03:21:00/17-Dec-2019    1849.7300     122.3282      28.2400      -999.25      -999.25      -999.25      -999.25       1.3288     239.5239      33.0000
 43816.1396990741 03:21:10/17-Dec-2019    1849.8400     116.4375      28.1300     126.0000      -999.25      -999.25      -999.25       1.3282     239.4549      33.0000
 43816.1398148148 03:21:20/17-Dec-2019    1850.0599     110.5469      27.9100      -999.25      -999.25       0.0000       0.0000       1.3300     239.7997      33.0000
 43816.1399305556 03:21:30/17-Dec-2019    1850.2699     109.4564      27.7000      -999.25      -999.25      -999.25      -999.25       1.3333     240.4202      33.0000
 43816.1400462963 03:21:40/17-Dec-2019    1850.5299     112.4002      27.4400      -999.25      -999.25      -999.25      -999.25       1.3312     240.0754      33.0000
 43816.1401620370 03:21:50/17-Dec-2019    1850.6399     110.4562      27.3300      -999.25     201.0000      -999.25      -999.25       1.3307     240.0065      33.0000
 43816.1402777778 03:22:00/17-Dec-2019    1851.0100     108.1631      26.9600      -999.25      -999.25      -999.25      -999.25       1.3301     239.9376      33.0000
 43816.1403935185 03:22:10/17-Dec-2019    1850.9200     107.4741      27.0500      -999.25      -999.25      -999.25      -999.25       1.3299     239.8686      33.0000
 43816.1405092593 03:22:20/17-Dec-2019    1850.7400     111.0383      27.2300      -999.25      -999.25      -999.25      -999.25       1.3303     239.9376      33.0000
 43816.1406250000 03:22:30/17-Dec-2019    1851.1100     121.3086      26.8600     105.0000      -999.25      -999.25      -999.25       1.3308     240.0754      33.0000
 43816.1407407407 03:22:40/17-Dec-2019    1851.5599     129.6670      26.4100      -999.25      -999.25      -999.25      -999.25       1.3316     240.2823      33.0000
 43816.1408564815 03:22:50/17-Dec-2019    1851.7500     132.2023      26.2200      -999.25      -999.25       0.0000       0.0000       1.3299     240.0065      33.0000
 43816.1409722222 03:23:00/17-Dec-2019    1851.9501     124.5367      26.0200      -999.25      -999.25      -999.25      -999.25       1.3284     239.7307      33.0000
 43816.1410879630 03:23:10/17-Dec-2019    1852.1499     119.8318      25.8200      -999.25      -999.25      -999.25      -999.25       1.3277     239.6618      33.0000
 43816.1412037037 03:23:20/17-Dec-2019    1852.3400     115.2456      25.6300      -999.25     188.0000      -999.25      -999.25       1.3288     239.8686      33.0000
 43816.1413194444 03:23:30/17-Dec-2019    1852.5500     111.3577      25.4200      -999.25      -999.25      -999.25      -999.25       1.3290     239.9376      33.0000
 43816.1414351852 03:23:40/17-Dec-2019    1852.8300     110.2830      25.1400      -999.25      -999.25      -999.25      -999.25       1.3292     240.0065      33.0000
 43816.1415509259 03:23:50/17-Dec-2019    1853.1100     110.0284      24.8700      -999.25      -999.25      -999.25      -999.25       1.3290     240.0065      33.0000
 43816.1416666667 03:24:00/17-Dec-2019    1853.2300     110.9631      24.7500     168.0000      -999.25      -999.25      -999.25       1.3293     240.0754      33.0000
 43816.1417824074 03:24:10/17-Dec-2019    1853.3300     117.2318      24.6500      -999.25      -999.25       0.0000       0.0000       1.3288     240.0065      33.0000
 43816.1418981481 03:24:20/17-Dec-2019    1853.5300     125.9014      24.4500      -999.25      -999.25      -999.25      -999.25       1.3275     239.7997      33.0000
 43816.1420138889 03:24:30/17-Dec-2019    1853.7301     137.2032      24.2400      -999.25      -999.25      -999.25      -999.25       1.3289     240.0754      33.0000
 43816.1421296296 03:24:40/17-Dec-2019    1853.8401     139.7225      24.1300      -999.25     197.0000      -999.25      -999.25       1.3289     240.0754      33.0000
 43816.1422453704 03:24:50/17-Dec-2019    1853.9600     134.4965      24.0100      -999.25      -999.25      -999.25      -999.25       1.3287     240.0754      33.0000
 43816.1423611111 03:25:00/17-Dec-2019    1854.3300     124.6733      23.6400      -999.25      -999.25      -999.25      -999.25       1.3285     240.0754      33.0000
 43816.1424768518 03:25:10/17-Dec-2019    1854.5200     119.7253      23.4600      -999.25      -999.25      -999.25      -999.25       1.3276     239.9376      33.0000
 43816.1425925926 03:25:20/17-Dec-2019    1854.6000     117.0594      23.4600     123.0000      -999.25      -999.25      -999.25       1.3282     240.0754      33.0000
 43816.1427083333 03:25:30/17-Dec-2019    1854.8099     113.1323      23.1600      -999.25      -999.25      -999.25      -999.25       1.3297     240.3512      33.0000
 43816.1428240741 03:25:40/17-Dec-2019    1855.0801     109.2052      22.8900      -999.25      -999.25       0.0000       0.0000       1.3310     240.6270      33.0000
 43816.1429398148 03:25:50/17-Dec-2019    1855.2799     108.4895      22.6900      -999.25      -999.25      -999.25      -999.25       1.3305     240.5581      33.0000
 43816.1430555556 03:26:00/17-Dec-2019    1855.2001     112.7286      22.7700      -999.25      -999.25      -999.25      -999.25       1.3302     240.4891      33.0000
 43816.1431712963 03:26:10/17-Dec-2019    1855.5100     118.6638      22.4600      -999.25     194.0000      -999.25      -999.25       1.3310     240.6960      33.0000
 43816.1432870370 03:26:20/17-Dec-2019    1855.8800     119.3037      22.0900      -999.25      -999.25      -999.25      -999.25       1.3312     240.7649      33.0000
 43816.1434027778 03:26:30/17-Dec-2019    1856.0000     117.7906      21.9700      -999.25      -999.25      -999.25      -999.25       1.3307     240.6960      33.0000
 43816.1435185185 03:26:40/17-Dec-2019    1856.1100     119.2758      21.8600      -999.25      -999.25      -999.25      -999.25       1.3306     240.6960      33.0000
 43816.1436342593 03:26:50/17-Dec-2019    1856.2100     120.1671      21.7600     117.0000      -999.25      -999.25      -999.25       1.3313     240.8339      33.0000
 43816.1437500000 03:27:00/17-Dec-2019    1856.6001     120.3210      21.3700      -999.25      -999.25       0.0000       0.0000       1.3306     240.7649      33.0000
 43816.1438657407 03:27:10/17-Dec-2019    1856.7899     119.6653      21.1800      -999.25      -999.25      -999.25      -999.25       1.3309     240.8339      33.0000
 43816.1439814815 03:27:20/17-Dec-2019    1856.9800     128.1188      20.9900      -999.25      -999.25      -999.25      -999.25       1.3308     240.8339      33.0000
 43816.1440972222 03:27:30/17-Dec-2019    1857.2800     133.9820      20.6900      -999.25     192.0000      -999.25      -999.25       1.3313     240.9718      33.0000
 43816.1442129630 03:27:40/17-Dec-2019    1857.4000     130.4092      20.5700      -999.25      -999.25      -999.25      -999.25       1.3301     240.7649      33.0000
 43816.1443287037 03:27:50/17-Dec-2019    1857.4100     116.5948      20.5600      -999.25      -999.25      -999.25      -999.25       1.3301     240.7649      33.0000
 43816.1444444444 03:28:00/17-Dec-2019    1857.6200     110.7394      20.3500      -999.25      -999.25      -999.25      -999.25       1.3321     241.1786      33.0000
 43816.1445601852 03:28:10/17-Dec-2019    1858.0001     110.0164      19.9700      -999.25      -999.25      -999.25      -999.25       1.3323     241.2476      33.0000
 43816.1446759259 03:28:20/17-Dec-2019    1858.1200     113.3828      19.8500     147.0000      -999.25      -999.25      -999.25       1.3314     241.1097      33.0000
 43816.1447916667 03:28:30/17-Dec-2019    1858.2300     121.7978      19.7400      -999.25      -999.25       0.0000       0.0000       1.3322     241.2476      33.0000
 43816.1449074074 03:28:40/17-Dec-2019    1858.3301     129.5137      19.6500      -999.25      -999.25      -999.25      -999.25       1.3313     241.1097      33.0000
 43816.1450231481 03:28:50/17-Dec-2019    1858.6200     134.6784      19.3600      -999.25      -999.25      -999.25      -999.25       1.3326     241.3854      33.0000
