~VERSION INFORMATION 
VERS  .    2.0                                     :CWLS Log ASCII Standard - VERSION 2.0
WRAP  .    NO                                      :One Line per Time step
PROD  .    Schlumberger Technology Corp.           :LAS Producer
PROG  .    Horizon LASWriter 9.2.113335.3100       :LAS Program name and version
SOURCE.    Run 13-TimeLogicalAcq                   :Run&Pass Information
CREA  .    01/21/2020                              :LAS Creation date {MM/DD/YYYY}
#--------------------------------------------------
~WELL INFORMATION 
#MNEM           .UNIT                      DATA            :DESCRIPTION
#----            ------          --------------            -----------------------------
STRT            .d               43844.3958333334          :START TIME(OLE Automation date)
STOP            .d               43845.1666666667          :STOP TIME(OLE Automation date)
STEP            .d                            0            :STEP TIME(10s in time)
NULL            .                       -999.25            :NULL VALUE
COMP            .                       Equinor            :COMPANY
WELL            .                        31/5-7            :WELL NAME
FLD             .                           Eos            :FIELD NAME
RIGN            .                 West Hercules            :Rig Name
RIGTYP          .                Semi-Submersible          :Rig Type
SON             .                     19SCA0085            :Service Order Number
SRVC            .                  Schlumberger            :SERVICE COMPANY
DATE            .                    01/13/2020            :LOG DATE(Composite Date for Composite LAP) (MM/DD/YYYY)
CLAB            .                       County:            :County Label
CNTY            .                                          :COUNTY
SLAB            .                                          :State/Province Label
STAT            .                                          :STATE or PROVINCE
PROV            .                                          :STATE or PROVINCE
CTRY            .                        Norway            :COUNTRY
CONT_REGION     .                        Europe            :Continent Region
SECT            .                                          :Section
TOWN            .                                          :Township
RANG            .                                          :Range
API             .                                          :API NUMBER
UWI             .                                          :UNIQUE WELL ID
LUL             .                Service Office            :Logging Unit Location
LUN             .                          A615            :Logging Unit Number
LOC             .                Norwegian North Sea       :FIELD LOCATION
FL1             .                Section: 8 1/2 in.        :Field Location Line 1
FL2             .                Job no.: 19SCA0085        :Field Location Line 2
LATI            .deg             60° 34' 35.14" N          :LATITUDE
LONG            .deg             3° 26' 36.13" E           :LONGITUDE
PDAT            .                           MSL            :Local Permanent Datum
LMF             .                            DF            :Logging Measured From
APD             .m                        31.00            :Elevation of Depth Reference (LMF) Above Permanent Datum
EPD             .m                         0.00            :Elevation of Permanent Datum (PDAT) above Mean Sea Level
EKB             .m                      -999.25            :Elevation of Kelly Bushing Above Permanent Datum
EDF             .m                        31.00            :Elevation of Drill Floor Above Permanent Datum
EGL             .m                      -307.00            :Elevation of Ground Level Above Permanent Datum
ECF             .m                      -999.25            :Elevation of Casing Flange above Permanent Datum
#--------------------------------------------------
~CURVE INFORMATION
#MNEM           .UNIT                  API CODE            :DESCRIPTION
#----            ------          --------------            -----------------------------
TIME_1900       .d                                         :                                                        Time Index(OLE Automation date)
TIME            .s                                         :                                (10s)                   Time(hh mm ss/dd-MMM-yyyy)
DEPTH           .m                                         :(RT)    (DnMWorkflow)                                   Depth Index
BLKP            .m                                         :(RT)    (DRILLING_SURFACE)                              Height of block above rig floor
GR              .gAPI                                      :(RT)    (ARC6)                                          Gamma Ray
CRPM            .c/min                                     :(RT)    (TELE675)                                       Collar Rotational Speed
STICK           .c/min                                     :(RT)    (TELE675)                                       Stick Slip Indicator
SHKRSK          .                                          :(RT)    (TELE675)                                       Shock Risk
SHKPK           .gn                                        :(RT)    (TELE675)                                       Shock Peak
DHAT            .degC                                      :(RM)    (ARC6)                                          Downhole Annulus Temperature
DHAP            .bar                                       :(RM)    (ARC6)                                          Downhole Annulus Pressure
ECD             .g/cm3                                     :(RM)    (ARC6)                                          Equivalent Circulating Density
#-------------------------------------------------------------
#       TIME_1900                 TIME        DEPTH         BLKP           GR         CRPM        STICK       SHKRSK        SHKPK         DHAT         DHAP          ECD 
#                                       (DnMWorkfl)  (DRILLING_)       (ARC6)    (TELE675)    (TELE675)    (TELE675)    (TELE675)       (ARC6)       (ARC6)       (ARC6) 
#                                              (RT)         (RT)         (RT)         (RT)         (RT)         (RT)         (RT)         (RM)         (RM)         (RM) 
#                                (10s)                                                                                                                                   
~ASCII
# ...
 43844.6069444444 14:34:00/14-Jan-2020   2768.31006     26.65000     54.46148      -999.25     21.00000      -999.25      -999.25     42.00000    325.63940      1.20335
 43844.6070601852 14:34:10/14-Jan-2020   2768.20020     26.76000     54.58960      -999.25      -999.25      0.00000      0.00000     42.00000    328.87990      1.21538
 43844.6071759259 14:34:20/14-Jan-2020   2768.36011     26.60000     56.63424      -999.25      -999.25      -999.25      -999.25     42.00000    329.43150      1.21734
 43844.6072916667 14:34:30/14-Jan-2020   2768.07007     26.89000     56.93003      -999.25      -999.25      -999.25      -999.25     42.00000    324.81200      1.20040
 43844.6074074074 14:34:40/14-Jan-2020   2768.51001     26.45000     56.94808      -999.25      -999.25      -999.25      -999.25     42.00000    324.26040      1.19822
 43844.6075231481 14:34:50/14-Jan-2020   2769.13013     25.83000     57.14339     58.00000      -999.25      -999.25      -999.25     42.00000    326.05310      1.20456
 43844.6076388889 14:35:00/14-Jan-2020   2769.01978     25.94000     57.47196      -999.25     33.00000      0.00000      0.00000     42.00000    326.12200      1.20483
 43844.6077546296 14:35:10/14-Jan-2020   2769.17993     25.78000     57.82946      -999.25      -999.25      -999.25      -999.25     42.00000    328.05250      1.21189
 43844.6078703704 14:35:20/14-Jan-2020   2769.33984     25.62000     59.65426      -999.25      -999.25      -999.25      -999.25     42.00000    332.87890      1.22963
 43844.6079861111 14:35:30/14-Jan-2020   2769.14990     25.81000     61.39861      -999.25      -999.25      -999.25      -999.25     42.00000    326.53570      1.20628
 43844.6081018519 14:35:40/14-Jan-2020   2769.65991     25.30000     61.63598     60.00000      -999.25      -999.25      -999.25     42.00000    330.18990      1.21961
 43844.6082175926 14:35:50/14-Jan-2020   2769.83008     25.13000     61.10579      -999.25     18.00000      0.00000      0.00000     42.00000    329.08680      1.21542
 43844.6083333333 14:36:00/14-Jan-2020   2769.53979     25.42000     61.25735      -999.25      -999.25      -999.25      -999.25     42.00000    325.91520      1.20385
 43844.6084490741 14:36:10/14-Jan-2020   2769.69995     25.34000     61.06727      -999.25      -999.25      -999.25      -999.25     42.00000    321.77830      1.18850
 43844.6085648148 14:36:20/14-Jan-2020   2770.76001     24.20000     60.15384      -999.25      -999.25      -999.25      -999.25     42.00000    321.15780      1.18587
 43844.6086805556 14:36:30/14-Jan-2020   2771.38013     23.58000     59.41339      -999.25      -999.25      -999.25      -999.25     42.00000    329.77630      1.21729
 43844.6087962963 14:36:40/14-Jan-2020   2771.28003     23.59000     60.13030     60.00000      -999.25      -999.25      -999.25     42.00000    331.01730      1.22190
 43844.6089120370 14:36:50/14-Jan-2020   2771.08008     23.78000     60.13030      -999.25     30.00000      0.00000      0.00000     42.00000    332.12050      1.22605
 43844.6090277778 14:37:00/14-Jan-2020   2770.97998     23.88000     59.41339      -999.25      -999.25      -999.25      -999.25     42.00000    329.08680      1.21490
 43844.6091435185 14:37:10/14-Jan-2020   2770.94995     24.00000     57.42168      -999.25      -999.25      -999.25      -999.25     42.00000    327.70780      1.20984
 43844.6092592593 14:37:20/14-Jan-2020   2771.39014     23.56000     54.72954      -999.25      -999.25      -999.25      -999.25     42.00000    328.53520      1.21270
 43844.6093750000 14:37:30/14-Jan-2020   2771.36987     23.58000     52.28631     60.00000      -999.25      -999.25      -999.25     42.00000    324.53620      1.19795
 43844.6094907407 14:37:40/14-Jan-2020   2771.63013     23.41000     49.13378      -999.25     30.00000      0.00000      0.00000     42.00000    322.19200      1.18920
 43844.6096064815 14:37:50/14-Jan-2020   2772.41992     22.54000     45.98124      -999.25      -999.25      -999.25      -999.25     42.00000    328.05250      1.21047
 43844.6097222222 14:38:00/14-Jan-2020   2772.40015     22.46000     44.03550      -999.25      -999.25      -999.25      -999.25     42.00000    328.46630      1.21198
 43844.6098379630 14:38:10/14-Jan-2020   2772.38989     22.57000     43.00826      -999.25      -999.25      -999.25      -999.25     42.00000    329.50050      1.21583
 43844.6099537037 14:38:20/14-Jan-2020   2772.55005     22.31000     42.99895      -999.25      -999.25      -999.25      -999.25     42.00000    331.70680      1.22388
 43844.6100694444 14:38:30/14-Jan-2020   2772.25977     22.69000     44.38097     60.00000      -999.25      -999.25      -999.25     41.00000    325.29460      1.20036
 43844.6101851852 14:38:40/14-Jan-2020   2772.87012     22.07000     46.02378      -999.25     33.00000      0.00000      0.00000     41.00000    329.01780      1.21383
 43844.6103009259 14:38:50/14-Jan-2020   2772.77002     22.18000     47.40581      -999.25      -999.25      -999.25      -999.25     41.00000    329.77630      1.21667
 43844.6104166667 14:39:00/14-Jan-2020   2772.92993     22.02000     49.01596      -999.25      -999.25      -999.25      -999.25     41.00000    325.08780      1.19931
 43844.6105324074 14:39:10/14-Jan-2020   2773.17993     21.77000     50.29683      -999.25      -999.25      -999.25      -999.25     41.00000    329.15570      1.21420
 43844.6106481481 14:39:20/14-Jan-2020   2773.34985     21.60000     50.65141     60.00000      -999.25      -999.25      -999.25     41.00000    326.53570      1.20447
 43844.6107638889 14:39:30/14-Jan-2020   2773.51001     21.45000     50.71284      -999.25      9.00000      0.00000      0.00000     41.00000    327.84570      1.20923
 43844.6108796296 14:39:40/14-Jan-2020   2773.76978     21.19000     51.28192      -999.25      -999.25      -999.25      -999.25     41.00000    331.63780      1.22308
 43844.6109953704 14:39:50/14-Jan-2020   2774.19995     20.76000     52.13165      -999.25      -999.25      -999.25      -999.25     41.00000    337.22260      1.24350
 43844.6111111111 14:40:00/14-Jan-2020   2773.54980     21.22000     53.00470      -999.25      -999.25      -999.25      -999.25     41.00000    333.49940      1.23004
 43844.6112268518 14:40:10/14-Jan-2020   2773.42993     21.52000     53.61414     61.00000      -999.25      -999.25      -999.25     42.00000    329.36250      1.21486
 43844.6113425926 14:40:20/14-Jan-2020   2773.69019     21.26000     53.46588      -999.25     21.00000      -999.25      -999.25     42.00000    325.43250      1.20025
 43844.6114583333 14:40:30/14-Jan-2020   2774.66992     20.29000     53.13731      -999.25      -999.25      0.00000      0.00000     41.00000    328.46630      1.21101
 43844.6115740741 14:40:40/14-Jan-2020   2774.91992     20.04000     52.73277      -999.25      -999.25      -999.25      -999.25     41.00000    332.67200      1.22639
 43844.6116898148 14:40:50/14-Jan-2020   2774.55005     20.41000     52.25471      -999.25      -999.25      -999.25      -999.25     41.00000    329.08680      1.21334
 43844.6118055556 14:41:00/14-Jan-2020   2774.80005     20.16000     51.61092      -999.25      -999.25      -999.25      -999.25     41.00000    330.81050      1.21959
 43844.6119212963 14:41:10/14-Jan-2020   2774.87012     20.09000     50.84425     61.00000      -999.25      -999.25      -999.25     41.00000    328.53520      1.21117
 43844.6120370370 14:41:20/14-Jan-2020   2775.20996     19.75000     50.41815      -999.25     12.00000      0.00000      0.00000     41.00000    330.53460      1.21839
 43844.6121527778 14:41:30/14-Jan-2020   2775.37988     19.58000     50.84425      -999.25      -999.25      -999.25      -999.25     41.00000    327.77680      1.20816
 43844.6122685185 14:41:40/14-Jan-2020   2775.54004     19.41000     50.93702      -999.25      -999.25      -999.25      -999.25     41.00000    329.01780      1.21266
 43844.6123842593 14:41:50/14-Jan-2020   2775.70996     19.25000     49.62276      -999.25      -999.25      -999.25      -999.25     41.00000    330.60360      1.21843
