~VERSION INFORMATION 
VERS  .    2.0                                     :CWLS Log ASCII Standard - VERSION 2.0
WRAP  .    NO                                      :One Line per Time step
PROD  .    Schlumberger Technology Corp.           :LAS Producer
PROG  .    Horizon LASWriter 9.2.113335.3100       :LAS Program name and version
SOURCE.    Run 8-TimeLogicalAcq                    :Run&Pass Information
CREA  .    12/30/2019                              :LAS Creation date {MM/DD/YYYY}
#--------------------------------------------------
~WELL INFORMATION 
#MNEM           .UNIT                      DATA            :DESCRIPTION
#----            ------          --------------            -----------------------------
STRT            .d               43822.4166666667          :START TIME(OLE Automation date)
STOP            .d               43824.6875000000          :STOP TIME(OLE Automation date)
STEP            .d                            0            :STEP TIME(10s in time)
NULL            .                       -999.25            :NULL VALUE
COMP            .                       Equinor            :COMPANY
WELL            .                        31/5-7            :WELL NAME
FLD             .                           Eos            :FIELD NAME
RIGN            .                 West Hercules            :Rig Name
RIGTYP          .                Semi-Submersible          :Rig Type
SON             .                     19SCA0085            :Service Order Number
SRVC            .                  Schlumberger            :SERVICE COMPANY
DATE            .                    12/23/2019            :LOG DATE(Composite Date for Composite LAP) (MM/DD/YYYY)
CLAB            .                       County:            :County Label
CNTY            .                                          :COUNTY
SLAB            .                                          :State/Province Label
STAT            .                                          :STATE or PROVINCE
PROV            .                                          :STATE or PROVINCE
CTRY            .                        Norway            :COUNTRY
CONT_REGION     .                        Europe            :Continent Region
SECT            .                                          :Section
TOWN            .                                          :Township
RANG            .                                          :Range
API             .                                          :API NUMBER
UWI             .                                          :UNIQUE WELL ID
LUL             .                Service Office            :Logging Unit Location
LUN             .                          A615            :Logging Unit Number
LOC             .                Norwegian North Sea       :FIELD LOCATION
FL1             .                Section: 12 1/4 in.       :Field Location Line 1
FL2             .                Job no.: 19SCA0085        :Field Location Line 2
LATI            .deg             60° 34' 35.14" N          :LATITUDE
LONG            .deg             3° 26' 36.13" E           :LONGITUDE
PDAT            .                           MSL            :Local Permanent Datum
LMF             .                            DF            :Logging Measured From
APD             .m                        31.00            :Elevation of Depth Reference (LMF) Above Permanent Datum
EPD             .m                         0.00            :Elevation of Permanent Datum (PDAT) above Mean Sea Level
EKB             .m                      -999.25            :Elevation of Kelly Bushing Above Permanent Datum
EDF             .m                        31.00            :Elevation of Drill Floor Above Permanent Datum
EGL             .m                      -307.00            :Elevation of Ground Level Above Permanent Datum
ECF             .m                      -999.25            :Elevation of Casing Flange above Permanent Datum
#--------------------------------------------------
~CURVE INFORMATION
#MNEM           .UNIT                  API CODE            :DESCRIPTION
#----            ------          --------------            -----------------------------
TIME_1900       .d                                         :                                                        Time Index(OLE Automation date)
TIME            .s                                         :                                (10s)                   Time(hh mm ss/dd-MMM-yyyy)
DEPTH           .m                                         :(RT)    (DnMWorkflow)                                   Depth Index
GR              .gAPI                                      :(RT)    (ARC9)                                          Gamma Ray
BLKP            .m                                         :(RT)    (DRILLING_SURFACE)                              Height of block above rig floor
CRPM            .c/min                                     :(RT)    (TELE900)                                       Collar Rotational Speed
STICK           .c/min                                     :(RT)    (TELE900)                                       Stick Slip Indicator
SHKPK           .gn                                        :(RT)    (TELE900)                                       Shock Peak
SHKRSK          .                                          :(RT)    (TELE900)                                       Shock Risk
DHAP            .bar                                       :(RM)    (ARC9)                                          Downhole Annulus Pressure
DHAT            .degC                                      :(RM)    (ARC9)                                          Downhole Annulus Temperature
ECD             .g/cm3                                     :(RM)    (ARC9)                                          Equivalent Circulating Density
#-------------------------------------------------------------
#       TIME_1900                 TIME        DEPTH           GR         BLKP         CRPM        STICK        SHKPK       SHKRSK         DHAP         DHAT          ECD 
#                                       (DnMWorkfl)       (ARC9)  (DRILLING_)    (TELE900)    (TELE900)    (TELE900)    (TELE900)       (ARC9)       (ARC9)       (ARC9) 
#                                              (RT)         (RT)         (RT)         (RT)         (RT)         (RT)         (RT)         (RM)         (RM)         (RM) 
#                                (10s)                                                                                                                                   
~ASCII
# ...
 43823.8611111111 20:40:00/24-Dec-2019    2391.0737     103.4581      24.8400      -999.25      -999.25       0.0000       0.0000     303.9898      43.0000       1.3026
 43823.8612268518 20:40:10/24-Dec-2019    2391.1458     103.0937      24.7700      -999.25      -999.25      -999.25      -999.25     304.1278      43.0000       1.3032
 43823.8613425926 20:40:20/24-Dec-2019    2391.2378     100.0721      24.6800      -999.25      -999.25      -999.25      -999.25     304.0588      43.0000       1.3028
 43823.8614583333 20:40:30/24-Dec-2019    2391.3196      92.1739      24.6000     180.0000      -999.25      -999.25      -999.25     304.0588      43.0000       1.3028
 43823.8615740741 20:40:40/24-Dec-2019    2391.5117      89.2339      24.4100      -999.25      -999.25      -999.25      -999.25     304.1967      43.0000       1.3033
 43823.8616898148 20:40:50/24-Dec-2019    2391.5835      89.3994      24.3400      -999.25      -999.25      -999.25      -999.25     303.8520      43.0000       1.3018
 43823.8618055556 20:41:00/24-Dec-2019    2391.5657      88.6599      24.3600      -999.25      -999.25      -999.25      -999.25     304.0588      43.0000       1.3027
 43823.8619212963 20:41:10/24-Dec-2019    2391.6475      90.6282      24.2800      -999.25     354.0000      -999.25      -999.25     304.1278      43.0000       1.3029
 43823.8620370370 20:41:20/24-Dec-2019    2391.7495      92.5965      24.1800      -999.25      -999.25       0.0000       0.0000     303.9898      43.0000       1.3023
 43823.8621527778 20:41:30/24-Dec-2019    2391.8416      94.6625      24.0900      -999.25      -999.25      -999.25      -999.25     304.2656      43.0000       1.3034
 43823.8622685185 20:41:40/24-Dec-2019    2391.8435      98.3957      24.0900      -999.25      -999.25      -999.25      -999.25     304.2656      43.0000       1.3034
 43823.8623842593 20:41:50/24-Dec-2019    2392.0254     100.4479      23.9100     193.0000      -999.25      -999.25      -999.25     304.0588      43.0000       1.3024
 43823.8625000000 20:42:00/24-Dec-2019    2392.1272      96.4921      23.8100      -999.25      -999.25      -999.25      -999.25     304.0588      43.0000       1.3024
 43823.8626157407 20:42:10/24-Dec-2019    2392.2292      91.1892      23.7100      -999.25      -999.25      -999.25      -999.25     304.4035      43.0000       1.3038
 43823.8627314815 20:42:20/24-Dec-2019    2392.3213      91.1563      23.6200      -999.25      -999.25      -999.25      -999.25     304.1278      43.0000       1.3025
 43823.8628472222 20:42:30/24-Dec-2019    2392.4231      92.7609      23.5200      -999.25     228.0000      -999.25      -999.25     304.2656      43.0000       1.3031
 43823.8629629630 20:42:40/24-Dec-2019    2392.5251      94.8555      23.4200      -999.25      -999.25       0.0000       0.0000     304.3346      43.0000       1.3033
 43823.8630787037 20:42:50/24-Dec-2019    2392.6172      96.4600      23.3300      -999.25      -999.25      -999.25      -999.25     304.2656      43.0000       1.3030
 43823.8631944444 20:43:00/24-Dec-2019    2392.7190      95.1344      23.2400      -999.25      -999.25      -999.25      -999.25     304.1967      43.0000       1.3026
 43823.8633101852 20:43:10/24-Dec-2019    2392.8110      93.5152      23.1400      -999.25      -999.25      -999.25      -999.25     304.3346      43.0000       1.3032
 43823.8634259259 20:43:20/24-Dec-2019    2392.9128      93.1009      23.0500     190.0000      -999.25      -999.25      -999.25     304.2656      43.0000       1.3028
 43823.8635416667 20:43:30/24-Dec-2019    2393.0049      94.1011      22.9500      -999.25      -999.25      -999.25      -999.25     304.4035      43.0000       1.3034
 43823.8636574074 20:43:40/24-Dec-2019    2393.0168     100.8276      22.9400      -999.25      -999.25      -999.25      -999.25     304.4035      43.0000       1.3033
 43823.8637731481 20:43:50/24-Dec-2019    2393.1990     102.2364      22.7700      -999.25     201.0000      -999.25      -999.25     304.1967      43.0000       1.3024
 43823.8638888889 20:44:00/24-Dec-2019    2393.3506     100.2681      22.6100      -999.25      -999.25       0.0000       0.0000     304.4035      43.0000       1.3032
 43823.8640046296 20:44:10/24-Dec-2019    2393.4329      98.2998      22.5300      -999.25      -999.25      -999.25      -999.25     304.2656      43.0000       1.3025
 43823.8641203704 20:44:20/24-Dec-2019    2393.4048      99.1853      22.5600      -999.25      -999.25      -999.25      -999.25     304.2656      43.0000       1.3025
 43823.8642361111 20:44:30/24-Dec-2019    2393.4968     102.8141      22.4800      -999.25      -999.25      -999.25      -999.25     304.4035      43.0000       1.3031
 43823.8643518519 20:44:40/24-Dec-2019    2393.6687     100.8655      22.3100     178.0000      -999.25      -999.25      -999.25     304.1278      43.0000       1.3018
 43823.8644675926 20:44:50/24-Dec-2019    2393.7507      98.5669      22.2300      -999.25      -999.25      -999.25      -999.25     304.5414      43.0000       1.3035
 43823.8645833333 20:45:00/24-Dec-2019    2393.8428      97.5539      22.1300      -999.25      -999.25      -999.25      -999.25     304.4035      43.0000       1.3029
 43823.8646990741 20:45:10/24-Dec-2019    2393.9448      97.0790      22.0300      -999.25      -999.25      -999.25      -999.25     304.3346      43.0000       1.3025
 43823.8648148148 20:45:20/24-Dec-2019    2393.9468      96.4091      22.0300      -999.25     291.0000      -999.25      -999.25     304.4035      43.0000       1.3028
 43823.8649305556 20:45:30/24-Dec-2019    2394.0486      96.7513      21.9300      -999.25      -999.25       0.0000       0.0000     304.3346      43.0000       1.3025
 43823.8650462963 20:45:40/24-Dec-2019    2394.2405      97.0882      21.7500      -999.25      -999.25      -999.25      -999.25     304.4035      43.0000       1.3027
 43823.8651620370 20:45:50/24-Dec-2019    2394.2424      96.3542      21.7400      -999.25      -999.25      -999.25      -999.25     304.4725      43.0000       1.3030
 43823.8652777778 20:46:00/24-Dec-2019    2394.3445      94.4056      21.6400     210.0000      -999.25      -999.25      -999.25     304.5414      43.0000       1.3032
 43823.8653935185 20:46:10/24-Dec-2019    2394.4365      92.1070      21.5500      -999.25      -999.25      -999.25      -999.25     304.5414      43.0000       1.3032
 43823.8655092593 20:46:20/24-Dec-2019    2394.5283      89.1710      21.4600      -999.25      -999.25      -999.25      -999.25     304.5414      43.0000       1.3031
 43823.8656250000 20:46:30/24-Dec-2019    2394.7102      84.8269      21.2800      -999.25      -999.25      -999.25      -999.25     304.5414      43.0000       1.3030
 43823.8657407407 20:46:40/24-Dec-2019    2394.6821      84.6870      21.3100      -999.25     276.0000      -999.25      -999.25     304.5414      43.0000       1.3030
 43823.8658564815 20:46:50/24-Dec-2019    2394.7842      84.2681      21.2100      -999.25      -999.25       0.0000       0.0000     304.6104      43.0000       1.3033
 43823.8659722222 20:47:00/24-Dec-2019    2394.8862      83.7662      21.1100      -999.25      -999.25      -999.25      -999.25     304.6104      43.0000       1.3032
 43823.8660879630 20:47:10/24-Dec-2019    2394.9780      73.3600      21.0200      -999.25      -999.25      -999.25      -999.25     304.5414      43.0000       1.3029
 43823.8662037037 20:47:20/24-Dec-2019    2395.0801      62.8641      20.9300     205.0000      -999.25      -999.25      -999.25     304.7483      43.0000       1.3037
 43823.8663194444 20:47:30/24-Dec-2019    2395.1821      57.2511      20.8300      -999.25      -999.25      -999.25      -999.25     304.6793      43.0000       1.3033
 43823.8664351852 20:47:40/24-Dec-2019    2395.2639      63.3041      20.7400      -999.25      -999.25      -999.25      -999.25     304.6104      43.0000       1.3030
 43823.8665509259 20:47:50/24-Dec-2019    2395.4561      62.7249      20.5600      -999.25      -999.25      -999.25      -999.25     304.5414      43.0000       1.3026
