~VERSION INFORMATION 
VERS  .    2.0                                     :CWLS Log ASCII Standard - VERSION 2.0
WRAP  .    NO                                      :One Line per Time step
PROD  .    Schlumberger Technology Corp.           :LAS Producer
PROG  .    Horizon LASWriter 9.2.113335.3100       :LAS Program name and version
SOURCE.    Run 3-TimeLogicalAcq                    :Run&Pass Information
CREA  .    12/12/2019                              :LAS Creation date {MM/DD/YYYY}
#--------------------------------------------------
~WELL INFORMATION 
#MNEM           .UNIT                      DATA            :DESCRIPTION
#----            ------          --------------            -----------------------------
STRT            .d               43804.6875000000          :START TIME(OLE Automation date)
STOP            .d               43805.8541666667          :STOP TIME(OLE Automation date)
STEP            .d                            0            :STEP TIME(10s in time)
NULL            .                       -999.25            :NULL VALUE
COMP            .                       Equinor            :COMPANY
WELL            .                        31/5-7            :WELL NAME
FLD             .                           Eos            :FIELD NAME
RIGN            .                 West Hercules            :Rig Name
RIGTYP          .                Semi-Submersible          :Rig Type
SON             .                     19SCA0085            :Service Order Number
SRVC            .                  Schlumberger            :SERVICE COMPANY
DATE            .                    12/05/2019            :LOG DATE(Composite Date for Composite LAP) (MM/DD/YYYY)
CLAB            .                       County:            :County Label
CNTY            .                                          :COUNTY
SLAB            .                                          :State/Province Label
STAT            .                                          :STATE or PROVINCE
PROV            .                                          :STATE or PROVINCE
CTRY            .                        Norway            :COUNTRY
CONT_REGION     .                        Europe            :Continent Region
SECT            .                                          :Section
TOWN            .                                          :Township
RANG            .                                          :Range
API             .                                          :API NUMBER
UWI             .                                          :UNIQUE WELL ID
LUL             .                Service Office            :Logging Unit Location
LUN             .                          A615            :Logging Unit Number
LOC             .                Norwegian North Sea       :FIELD LOCATION
FL1             .                Section: 26 in.           :Field Location Line 1
FL2             .                Job no.: 19SCA0085        :Field Location Line 2
LATI            .deg             60° 34' 35.14" N          :LATITUDE
LONG            .deg             3° 26' 36.13" E           :LONGITUDE
PDAT            .                           MSL            :Local Permanent Datum
LMF             .                            DF            :Logging Measured From
APD             .m                        31.00            :Elevation of Depth Reference (LMF) Above Permanent Datum
EPD             .m                         0.00            :Elevation of Permanent Datum (PDAT) above Mean Sea Level
EKB             .m                      -999.25            :Elevation of Kelly Bushing Above Permanent Datum
EDF             .m                        31.00            :Elevation of Drill Floor Above Permanent Datum
EGL             .m                      -307.00            :Elevation of Ground Level Above Permanent Datum
ECF             .m                      -999.25            :Elevation of Casing Flange above Permanent Datum
#--------------------------------------------------
~CURVE INFORMATION
#MNEM           .UNIT                  API CODE            :DESCRIPTION
#----            ------          --------------            -----------------------------
TIME_1900       .d                                         :                                                        Time Index(OLE Automation date)
TIME            .s                                         :                                (10s)                   Time(hh mm ss/dd-MMM-yyyy)
DEPTH           .m                                         :(RT)    (DnMWorkflow)                                   Depth Index
GR_CAL          .gAPI                                      :(RT)    (ARC9)                                          Calibrated Gamma Ray
BLKP            .m                                         :(RT)    (DRILLING_SURFACE)                              Height of block above rig floor
CRPM            .c/min                                     :(RT)    (TELE900)                                       Collar Rotational Speed
STICK           .c/min                                     :(RT)    (TELE900)                                       Stick Slip Indicator
SHKPK           .gn                                        :(RT)    (TELE900)                                       Shock Peak
SHKRSK          .                                          :(RT)    (TELE900)                                       Shock Risk
DHAP            .bar                                       :(RM)    (ARC9)                                          Downhole Annulus Pressure
DHAT            .degC                                      :(RM)    (ARC9)                                          Downhole Annulus Temperature
ECD             .g/cm3                                     :(RM)    (ARC9)                                          Equivalent Circulating Density
#-------------------------------------------------------------
#       TIME_1900                 TIME        DEPTH       GR_CAL         BLKP         CRPM        STICK        SHKPK       SHKRSK         DHAP         DHAT          ECD 
#                                       (DnMWorkfl)       (ARC9)  (DRILLING_)    (TELE900)    (TELE900)    (TELE900)    (TELE900)       (ARC9)       (ARC9)       (ARC9) 
#                                              (RT)         (RT)         (RT)         (RT)         (RT)         (RT)         (RT)         (RM)         (RM)         (RM) 
#                                (10s)                                                                                                                                   
~ASCII
# ...
 43805.3819444444 09:10:00/06-Dec-2019     760.8700      72.9292      14.4800      -999.25      -999.25      -999.25      -999.25      76.1871      14.0000       1.0981
 43805.3820601852 09:10:10/06-Dec-2019     760.9100      71.1111      14.4400      82.0000      -999.25       0.0000       0.0000      76.1871      14.0000       1.0980
 43805.3821759259 09:10:20/06-Dec-2019     761.7000      69.2930      13.6500      -999.25      39.0000      -999.25      -999.25      76.2560      14.0000       1.0978
 43805.3822916667 09:10:30/06-Dec-2019     760.6301      68.9210      14.7200      -999.25      -999.25      -999.25      -999.25      76.1871      14.0000       1.0985
 43805.3824074074 09:10:40/06-Dec-2019     761.4100      70.4567      13.9400      -999.25      -999.25      -999.25      -999.25      76.1871      14.0000       1.0973
 43805.3825231481 09:10:50/06-Dec-2019     762.3200      73.4209      13.0300      80.0000      -999.25       0.0000       0.0000      76.2560      14.0000       1.0968
 43805.3826388889 09:11:00/06-Dec-2019     760.9700      77.2904      14.3800      -999.25      36.0000      -999.25      -999.25      76.2560      14.0000       1.0990
 43805.3827546296 09:11:10/06-Dec-2019     761.4500      80.2546      13.9000      -999.25      -999.25      -999.25      -999.25      76.2560      14.0000       1.0982
 43805.3828703704 09:11:20/06-Dec-2019     761.9700      80.5508      13.3800      -999.25      -999.25      -999.25      -999.25      76.2560      14.0000       1.0974
 43805.3829861111 09:11:30/06-Dec-2019     761.3101      80.0587      14.0400      75.0000      -999.25      -999.25      -999.25      76.2560      14.0000       1.0984
 43805.3831018518 09:11:40/06-Dec-2019     761.5900      79.5615      13.7600      -999.25      39.0000       0.0000       0.0000      76.2560      14.0000       1.0980
 43805.3832175926 09:11:50/06-Dec-2019     761.6600      79.3315      13.6900      -999.25      -999.25      -999.25      -999.25      76.3250      14.0000       1.0989
 43805.3833333333 09:12:00/06-Dec-2019     762.2800      78.4195      13.0800      -999.25      -999.25      -999.25      -999.25      76.3250      14.0000       1.0979
 43805.3834490741 09:12:10/06-Dec-2019     762.1901      77.1737      13.1700      -999.25      -999.25      -999.25      -999.25      76.3250      14.0000       1.0980
 43805.3835648148 09:12:20/06-Dec-2019     761.8801      75.3556      13.4700      81.0000      -999.25       0.0000       0.0000      76.2560      14.0000       1.0975
 43805.3836805556 09:12:30/06-Dec-2019     762.3100      73.5376      12.9600      -999.25      42.0000      -999.25      -999.25      76.3250      14.0000       1.0979
 43805.3837962963 09:12:40/06-Dec-2019     762.7600      71.9856      12.6000      -999.25      -999.25      -999.25      -999.25      76.3250      14.0000       1.0972
 43805.3839120370 09:12:50/06-Dec-2019     762.4500      70.7576      13.0000      -999.25      -999.25      -999.25      -999.25      76.3250      14.0000       1.0977
 43805.3840277778 09:13:00/06-Dec-2019     762.1000      71.6528      13.0700      77.0000      -999.25       0.0000       0.0000      76.3250      14.0000       1.0982
 43805.3841435185 09:13:10/06-Dec-2019     762.9400      71.6528      12.3300      -999.25      54.0000      -999.25      -999.25      76.3250      14.0000       1.0969
 43805.3842592593 09:13:20/06-Dec-2019     762.3600      70.7576      12.9900      -999.25      -999.25      -999.25      -999.25      76.3250      14.0000       1.0978
 43805.3843750000 09:13:30/06-Dec-2019     762.3400      67.6900      13.0100      -999.25      -999.25      -999.25      -999.25      76.3939      14.0000       1.0988
 43805.3844907407 09:13:40/06-Dec-2019     762.3900      69.7842      12.9600      -999.25      -999.25      -999.25      -999.25      76.3250      14.0000       1.0977
 43805.3846064815 09:13:50/06-Dec-2019     762.3300      73.9395      13.0200      76.0000      -999.25       0.0000       0.0000      76.3939      14.0000       1.0988
 43805.3847222222 09:14:00/06-Dec-2019     762.8900      73.4203      12.4600      -999.25      39.0000      -999.25      -999.25      76.3939      14.0000       1.0979
 43805.3848379630 09:14:10/06-Dec-2019     762.9301      71.0319      12.4200      -999.25      -999.25      -999.25      -999.25      76.3939      14.0000       1.0979
 43805.3849537037 09:14:20/06-Dec-2019     763.1900      69.3885      12.1600      -999.25      -999.25      -999.25      -999.25      76.3939      14.0000       1.0975
 43805.3850694444 09:14:30/06-Dec-2019     762.9900      68.4933      12.3600      83.0000      -999.25       0.0000       0.0000      76.3939      14.0000       1.0978
 43805.3851851852 09:14:40/06-Dec-2019     762.7600      68.4933      12.6800      -999.25      42.0000      -999.25      -999.25      76.3939      14.0000       1.0982
 43805.3853009259 09:14:50/06-Dec-2019     763.1500      69.3885      12.2200      -999.25      -999.25      -999.25      -999.25      76.3939      14.0000       1.0976
 43805.3854166667 09:15:00/06-Dec-2019     763.2700      74.0512      12.1800      -999.25      -999.25      -999.25      -999.25      76.3939      14.0000       1.0974
 43805.3855324074 09:15:10/06-Dec-2019     763.2599      75.0361      12.0900      77.0000      -999.25      -999.25      -999.25      76.4629      14.0000       1.0984
 43805.3856481481 09:15:20/06-Dec-2019     762.6700      73.2180      12.6800      -999.25      51.0000       0.0000       0.0000      76.3939      14.0000       1.0983
 43805.3857638889 09:15:30/06-Dec-2019     763.2200      71.3999      12.0400      -999.25      -999.25      -999.25      -999.25      76.4629      14.0000       1.0984
 43805.3858796296 09:15:40/06-Dec-2019     763.6400      71.2484      11.6200      -999.25      -999.25      -999.25      -999.25      76.4629      14.0000       1.0978
 43805.3859953704 09:15:50/06-Dec-2019     763.6900      70.8531      11.6700      -999.25      -999.25      -999.25      -999.25      76.4629      14.0000       1.0977
 43805.3861111111 09:16:00/06-Dec-2019     763.6301      69.0350      11.7300      82.0000      -999.25       0.0000       0.0000      76.4629      14.0000       1.0978
 43805.3862268519 09:16:10/06-Dec-2019     763.3701      67.2169      11.9800      -999.25      39.0000      -999.25      -999.25      76.5318      14.0000       1.0992
 43805.3863425926 09:16:20/06-Dec-2019     764.5900      65.4974      10.7700      -999.25      -999.25      -999.25      -999.25      76.4629      14.0000       1.0963
 43805.3864583333 09:16:30/06-Dec-2019     763.7100      65.1713      11.6400      -999.25      -999.25      -999.25      -999.25      76.4629      14.0000       1.0977
 43805.3865740741 09:16:40/06-Dec-2019     764.1100      70.2343      11.1500      75.0000      -999.25       0.0000       0.0000      76.4629      14.0000       1.0970
 43805.3866898148 09:16:50/06-Dec-2019     764.0500      72.1691      11.3000      -999.25      36.0000      -999.25      -999.25      76.5318      14.0000       1.0981
 43805.3868055556 09:17:00/06-Dec-2019     763.3800      70.0703      11.7900      -999.25      -999.25      -999.25      -999.25      76.5318      14.0000       1.0991
 43805.3869212963 09:17:10/06-Dec-2019     764.5900      65.3930      10.6700      -999.25      -999.25      -999.25      -999.25      76.6008      14.0000       1.0983
 43805.3870370370 09:17:20/06-Dec-2019     764.2700      67.9661      11.0800      -999.25      -999.25      -999.25      -999.25      76.6008      14.0000       1.0988
 43805.3871527778 09:17:30/06-Dec-2019     763.9800      73.9395      11.3700      77.0000      -999.25       0.0000       0.0000      76.6008      14.0000       1.0992
 43805.3872685185 09:17:40/06-Dec-2019     764.3200      75.2384      11.0300      -999.25      30.0000      -999.25      -999.25      76.6008      14.0000       1.0987
 43805.3873842593 09:17:50/06-Dec-2019     764.2600      72.3794      11.0900      -999.25      -999.25      -999.25      -999.25      76.6008      14.0000       1.0988
