~VERSION INFORMATION 
VERS  .    2.0                                     :CWLS Log ASCII Standard - VERSION 2.0
WRAP  .    NO                                      :One Line per Time step
PROD  .    Schlumberger Technology Corp.           :LAS Producer
PROG  .    Horizon LASWriter 9.2.113335.3100       :LAS Program name and version
SOURCE.    Run 2-TimeLogicalAcq                    :Run&Pass Information
CREA  .    12/11/2019                              :LAS Creation date {MM/DD/YYYY}
#--------------------------------------------------
~WELL INFORMATION 
#MNEM           .UNIT                      DATA            :DESCRIPTION
#----            ------          --------------            -----------------------------
STRT            .d               43803.0416666667          :START TIME(OLE Automation date)
STOP            .d               43803.8437500000          :STOP TIME(OLE Automation date)
STEP            .d                            0            :STEP TIME(10s in time)
NULL            .                       -999.25            :NULL VALUE
COMP            .                       Equinor            :COMPANY
WELL            .                        31/5-7            :WELL NAME
FLD             .                           Eos            :FIELD NAME
RIGN            .                 West Hercules            :Rig Name
RIGTYP          .                Semi-Submersible          :Rig Type
SON             .                     19SCA0085            :Service Order Number
SRVC            .                  Schlumberger            :SERVICE COMPANY
DATE            .                    12/04/2019            :LOG DATE(Composite Date for Composite LAP) (MM/DD/YYYY)
CLAB            .                       County:            :County Label
CNTY            .                                          :COUNTY
SLAB            .                                          :State/Province Label
STAT            .                                          :STATE or PROVINCE
PROV            .                                          :STATE or PROVINCE
CTRY            .                        Norway            :COUNTRY
CONT_REGION     .                        Europe            :Continent Region
SECT            .                                          :Section
TOWN            .                                          :Township
RANG            .                                          :Range
API             .                                          :API NUMBER
UWI             .                                          :UNIQUE WELL ID
LUL             .                Service Office            :Logging Unit Location
LUN             .                          A615            :Logging Unit Number
LOC             .                Norwegian North Sea       :FIELD LOCATION
FL1             .                Section: 8 1/2 in. pilot  :Field Location Line 1
FL2             .                Job no.: 19SCA0085        :Field Location Line 2
LATI            .deg             60° 34' 35.14" N          :LATITUDE
LONG            .deg             3° 26' 36.13" E           :LONGITUDE
PDAT            .                           MSL            :Local Permanent Datum
LMF             .                            DF            :Logging Measured From
APD             .m                        31.00            :Elevation of Depth Reference (LMF) Above Permanent Datum
EPD             .m                         0.00            :Elevation of Permanent Datum (PDAT) above Mean Sea Level
EKB             .m                      -999.25            :Elevation of Kelly Bushing Above Permanent Datum
EDF             .m                        31.00            :Elevation of Drill Floor Above Permanent Datum
EGL             .m                      -307.00            :Elevation of Ground Level Above Permanent Datum
ECF             .m                      -999.25            :Elevation of Casing Flange above Permanent Datum
#--------------------------------------------------
~CURVE INFORMATION
#MNEM           .UNIT                  API CODE            :DESCRIPTION
#----            ------          --------------            -----------------------------
TIME_1900       .d                                         :                                                        Time Index(OLE Automation date)
TIME            .s                                         :                                (10s)                   Time(hh mm ss/dd-MMM-yyyy)
DEPTH           .m                                         :(RT)    (DnMWorkflow)                                   Depth Index
GR              .gAPI                                      :(RT)    (DV6MT)                                         Gamma Ray
BLKP            .m                                         :(RT)    (DRILLING_SURFACE)                              Height of block above rig floor
STICK           .c/min                                     :(RT)    (TELE675)                                       Stick Slip Indicator
CRPM            .c/min                                     :(RT)    (TELE675)                                       Collar Rotational Speed
SHKRSK          .                                          :(RT)    (TELE675)                                       Shock Risk
SHKPK           .gn                                        :(RT)    (TELE675)                                       Shock Peak
ECD             .g/cm3                                     :(RM)    (DV6MT)                                         Equivalent Circulating Density
DHAT            .degC                                      :(RM)    (DV6MT)                                         Downhole Annulus Temperature
DHAP            .bar                                       :(RM)    (DV6MT)                                         Downhole Annulus Pressure
#-------------------------------------------------------------
#       TIME_1900                 TIME        DEPTH           GR         BLKP        STICK         CRPM       SHKRSK        SHKPK          ECD         DHAT         DHAP 
#                                       (DnMWorkfl)      (DV6MT)  (DRILLING_)    (TELE675)    (TELE675)    (TELE675)    (TELE675)      (DV6MT)      (DV6MT)      (DV6MT) 
#                                              (RT)         (RT)         (RT)         (RT)         (RT)         (RT)         (RT)         (RM)         (RM)         (RM) 
#                                (10s)                                                                                                                                   
~ASCII
# ...
 43803.3527777778 08:28:00/04-Dec-2019     646.3204      88.8729       4.4900      24.0000      -999.25      -999.25      -999.25       1.1832      13.0000      70.4644
 43803.3528935185 08:28:10/04-Dec-2019     646.3893      88.0446       4.4200      -999.25      -999.25      -999.25      -999.25       1.1655      13.0000      69.4302
 43803.3530092593 08:28:20/04-Dec-2019     646.5480      86.1155       4.2600      -999.25      -999.25      -999.25      -999.25       1.1451      13.0000      68.2581
 43803.3531250000 08:28:30/04-Dec-2019     646.9868      84.7308       3.8200      -999.25      -999.25      -999.25      -999.25       1.1282      13.0000      67.2928
 43803.3532407407 08:28:40/04-Dec-2019     647.1856      85.1716       3.6300      -999.25      -999.25      -999.25      -999.25       1.1270      13.0000      67.2239
 43803.3533564815 08:28:50/04-Dec-2019     647.1844      89.3570       3.6300      -999.25      -999.25      -999.25      -999.25       1.1270      13.0000      67.2239
 43803.3534722222 08:29:00/04-Dec-2019     647.1832      93.4651       3.6300      -999.25      -999.25      -999.25      -999.25       1.1316      13.0000      67.4997
 43803.3535879630 08:29:10/04-Dec-2019     647.4619      96.4763       3.3500      -999.25      -999.25       0.0000       0.0000       1.1242      13.0000      67.0860
 43803.3537037037 08:29:20/04-Dec-2019     647.6407      96.4965       3.1700      -999.25      -999.25      -999.25      -999.25       1.1285      13.0000      67.3618
 43803.3538194444 08:29:30/04-Dec-2019     647.6395      95.4235       3.1700      -999.25      -999.25      -999.25      -999.25       1.1263      13.0000      67.2239
 43803.3539351852 08:29:40/04-Dec-2019     647.7283      94.3447       3.0800      -999.25      95.0000      -999.25      -999.25       1.1271      13.0000      67.2928
 43803.3540509259 08:29:50/04-Dec-2019     647.8270      92.5990       2.8000      -999.25      -999.25      -999.25      -999.25       1.1451      13.0000      68.3960
 43803.3541666667 08:30:00/04-Dec-2019     647.7258      91.6436       2.9800      24.0000      -999.25      -999.25      -999.25       1.1525      13.0000      68.8097
 43803.3542824074 08:30:10/04-Dec-2019     647.6345      91.4418       3.1700      -999.25      -999.25      -999.25      -999.25       1.1582      13.0000      69.1544
 43803.3543981481 08:30:20/04-Dec-2019     647.8233      91.6898       2.9800      -999.25      -999.25      -999.25      -999.25       1.1755      13.0000      70.1886
 43803.3545138889 08:30:30/04-Dec-2019     648.1821      91.1154       2.7100      -999.25      -999.25      -999.25      -999.25       1.1769      13.0000      70.3265
 43803.3546296296 08:30:40/04-Dec-2019     648.0909      90.6248       2.7100      -999.25      -999.25      -999.25      -999.25       1.1900      13.0000      71.0850
 43803.3547453704 08:30:50/04-Dec-2019     648.2697      90.8597       2.5300      -999.25      -999.25      -999.25      -999.25       1.1838      13.0000      70.7402
 43803.3548611111 08:31:00/04-Dec-2019     648.4485      91.6898       2.3500      -999.25      -999.25      -999.25      -999.25       1.1846      13.0000      70.8092
 43803.3549768519 08:31:10/04-Dec-2019     648.1772      92.7522       2.5300      -999.25      -999.25       0.0000       0.0000       1.1782      13.0000      70.3955
 43803.3550925926 08:31:20/04-Dec-2019     648.2661      93.7944       2.5300      -999.25      -999.25      -999.25      -999.25       1.1827      13.0000      70.6713
 43803.3552083333 08:31:30/04-Dec-2019     648.7148      93.0042       2.0800      -999.25      -999.25      -999.25      -999.25       1.1830      13.0000      70.7402
 43803.3553240741 08:31:40/04-Dec-2019     648.5236      91.3348       2.2700      -999.25      94.0000      -999.25      -999.25       1.1891      13.0000      71.0850
 43803.3554398148 08:31:50/04-Dec-2019     648.4224      90.1797       2.3400      -999.25      -999.25      -999.25      -999.25       1.1847      13.0000      70.8092
 43803.3555555556 08:32:00/04-Dec-2019     648.7711      88.8753       2.0200      18.0000      -999.25      -999.25      -999.25       1.1829      13.0000      70.7402
 43803.3556712963 08:32:10/04-Dec-2019     648.7699      93.8704       2.0200      -999.25      -999.25      -999.25      -999.25       1.1873      13.0000      71.0160
 43803.3557870370 08:32:20/04-Dec-2019     649.0386      96.2137       1.7500      -999.25      -999.25      -999.25      -999.25       1.1766      13.0000      70.3955
 43803.3559027778 08:32:30/04-Dec-2019     649.2074      94.9093       1.5800      -999.25      -999.25      -999.25      -999.25       1.1902      13.0000      71.2228
 43803.3560185185 08:32:40/04-Dec-2019     649.2062      93.7542       1.5800      -999.25      -999.25      -999.25      -999.25       1.1809      13.0000      70.6713
 43803.3561342593 08:32:50/04-Dec-2019     649.2050      92.0848       1.5800      -999.25      -999.25      -999.25      -999.25       1.1774      13.0000      70.4644
 43803.3562500000 08:33:00/04-Dec-2019     649.1938      91.2946       1.6000      -999.25      -999.25      -999.25      -999.25       1.1728      13.0000      70.1886
 43803.3563657407 08:33:10/04-Dec-2019     648.8125      89.5818       2.0000      -999.25      -999.25       0.0000       0.0000       1.1886      13.0000      71.0850
 43803.3564814815 08:33:20/04-Dec-2019     648.3513      88.8753       2.4500      -999.25      -999.25      -999.25      -999.25       1.1908      13.0000      71.1539
 43803.3565972222 08:33:30/04-Dec-2019     647.8901      90.1797       2.8900      -999.25      -999.25      -999.25      -999.25       1.1800      13.0000      70.4644
 43803.3567129630 08:33:40/04-Dec-2019     647.5089      91.3348       3.2700      -999.25      94.0000      -999.25      -999.25       1.2038      13.0000      71.8434
 43803.3568287037 08:33:50/04-Dec-2019     647.5377      93.0042       3.2400      15.0000      -999.25      -999.25      -999.25       1.2130      13.0000      72.3950
 43803.3569444444 08:34:00/04-Dec-2019     647.5364      93.7944       3.2400      -999.25      -999.25      -999.25      -999.25       1.2165      13.0000      72.6018
 43803.3570601852 08:34:10/04-Dec-2019     647.5352     118.6129       3.2400      -999.25      -999.25      -999.25      -999.25       1.1945      13.0000      71.2918
 43803.3571759259 08:34:20/04-Dec-2019     647.3340     152.9577       3.6000      -999.25      -999.25      -999.25      -999.25       1.1910      13.0000      71.0850
 43803.3572916667 08:34:30/04-Dec-2019     646.4027     192.6535       4.3900      -999.25      -999.25      -999.25      -999.25       1.1771      13.0000      70.1197
 43803.3574074074 08:34:40/04-Dec-2019     645.2415     236.9579       5.6100      -999.25      -999.25      -999.25      -999.25       1.1708      13.0000      69.6371
 43803.3575231481 08:34:50/04-Dec-2019     643.7402     246.0993       7.0700      -999.25      -999.25      -999.25      -999.25       1.2148      13.0000      72.0502
 43803.3576388889 08:35:00/04-Dec-2019     644.3191     243.9540       6.3800      -999.25      -999.25      -999.25      -999.25       1.2582      13.0000      74.6702
 43803.3577546296 08:35:10/04-Dec-2019     645.6278      -999.25       5.1100      -999.25      -999.25       3.0000     503.6582       1.2550      13.0000      74.6702
 43803.3578703704 08:35:20/04-Dec-2019     646.2966      -999.25       4.4800      -999.25      -999.25      -999.25      -999.25       1.2048      13.0000      71.7744
 43803.3579861111 08:35:30/04-Dec-2019     646.2559      -999.25       4.5100      -999.25      -999.25      -999.25      -999.25       1.2074      13.0000      71.9123
 43803.3581018519 08:35:40/04-Dec-2019     646.2559      -999.25       4.5100      -999.25       0.0000      -999.25      -999.25       1.2260      13.0000      73.0155
 43803.3582175926 08:35:50/04-Dec-2019     646.2559      -999.25       4.5100     180.0000      -999.25      -999.25      -999.25       1.0789      -999.25      64.2591
