~VERSION INFORMATION 
VERS  .    2.0                                     :CWLS Log ASCII Standard - VERSION 2.0
WRAP  .    NO                                      :One Line per Time step
PROD  .    Schlumberger Technology Corp.           :LAS Producer
PROG  .    Horizon LASWriter 9.0.106845.3100       :LAS Program name and version
SOURCE.    Run 1-TimeLogicalAcq                    :Run&Pass Information
CREA  .    12/03/2019                              :LAS Creation date {MM/DD/YYYY}
#--------------------------------------------------
~WELL INFORMATION 
#MNEM           .UNIT                      DATA            :DESCRIPTION
#----            ------          --------------            -----------------------------
STRT            .d               43801.7395833334          :START TIME(OLE Automation date)
STOP            .d               43802.2048611111          :STOP TIME(OLE Automation date)
STEP            .d                            0            :STEP TIME(10s in time)
NULL            .                       -999.25            :NULL VALUE
COMP            .                       Equinor            :COMPANY
WELL            .                        31/5-7            :WELL NAME
FLD             .                           Eos            :FIELD NAME
RIGN            .                 West Hercules            :Rig Name
RIGTYP          .                Semi-Submersible          :Rig Type
SON             .                     19SCA0085            :Service Order Number
SRVC            .                  Schlumberger            :SERVICE COMPANY
DATE            .                    12/02/2019            :LOG DATE(Composite Date for Composite LAP) (MM/DD/YYYY)
CLAB            .                       County:            :County Label
CNTY            .                                          :COUNTY
SLAB            .                                          :State/Province Label
STAT            .                                          :STATE or PROVINCE
PROV            .                                          :STATE or PROVINCE
CTRY            .                        Norway            :COUNTRY
CONT_REGION     .                        Europe            :Continent Region
SECT            .                                          :Section
TOWN            .                                          :Township
RANG            .                                          :Range
API             .                                          :API NUMBER
UWI             .                                          :UNIQUE WELL ID
LUL             .                Service Office            :Logging Unit Location
LUN             .                          A615            :Logging Unit Number
LOC             .                Norwegian North Sea       :FIELD LOCATION
FL1             .                Section: 36 in.           :Field Location Line 1
FL2             .                Job no.: 19SCA0085        :Field Location Line 2
LATI            .deg             60° 34' 35.14" N          :LATITUDE
LONG            .deg             3° 26' 36.13" E           :LONGITUDE
PDAT            .                           MSL            :Local Permanent Datum
LMF             .                            DF            :Logging Measured From
APD             .m                        31.00            :Elevation of Depth Reference (LMF) Above Permanent Datum
EPD             .m                         0.00            :Elevation of Permanent Datum (PDAT) above Mean Sea Level
EKB             .m                      -999.25            :Elevation of Kelly Bushing Above Permanent Datum
EDF             .m                        31.00            :Elevation of Drill Floor Above Permanent Datum
EGL             .m                      -307.00            :Elevation of Ground Level Above Permanent Datum
ECF             .m                      -999.25            :Elevation of Casing Flange above Permanent Datum
#--------------------------------------------------
~CURVE INFORMATION
#MNEM           .UNIT                  API CODE            :DESCRIPTION
#----            ------          --------------            -----------------------------
TIME_1900       .d                                         :                                                        Time Index(OLE Automation date)
TIME            .s                                         :                                (10s)                   Time(hh mm ss/dd-MMM-yyyy)
DEPTH           .m                                         :(RT)    (DnMWorkflow)                                   Depth Index
GR              .gAPI                                      :(RT)    (TELE900)                                       Gamma Ray
BLKP            .m                                         :(RT)    (DRILLING_SURFACE)                              Height of block above rig floor
CRPM            .c/min                                     :(RT)    (TELE900)                                       Collar Rotational Speed
STICK           .c/min                                     :(RT)    (TELE900)                                       Stick Slip Indicator
SHKPK           .gn                                        :(RT)    (TELE900)                                       Shock Peak
SHKRSK          .                                          :(RT)    (TELE900)                                       Shock Risk
TEMP_DNI        .degC                                      :(RM)    (TELE900)                                       Direction and Inclination Sensor Temperature
#-------------------------------------------------------------
#       TIME_1900                 TIME        DEPTH           GR         BLKP         CRPM        STICK        SHKPK       SHKRSK     TEMP_DNI 
#                                       (DnMWorkfl)    (TELE900)  (DRILLING_)    (TELE900)    (TELE900)    (TELE900)    (TELE900)    (TELE900) 
#                                              (RT)         (RT)         (RT)         (RT)         (RT)         (RT)         (RT)         (RM) 
#                                (10s)                                                                                                         
~ASCII
# ...
 43801.9340277778 22:25:00/02-Dec-2019     362.8400      47.0037      39.3200      -999.25      -999.25      -999.25      -999.25      -999.25
 43801.9341435185 22:25:10/02-Dec-2019     362.8800      51.1463      39.2700      -999.25      -999.25      -999.25      -999.25      -999.25
 43801.9342592593 22:25:20/02-Dec-2019     362.8300      51.1463      39.3200      46.0000      -999.25       0.0000       0.0000      -999.25
 43801.9343750000 22:25:30/02-Dec-2019     362.8700      46.2382      39.2800      -999.25      45.0000      -999.25      -999.25      -999.25
 43801.9344907407 22:25:40/02-Dec-2019     362.9200      45.4771      39.2300      -999.25      -999.25      -999.25      -999.25      -999.25
 43801.9346064815 22:25:50/02-Dec-2019     362.9600      40.5690      39.1900      -999.25      -999.25      -999.25      -999.25      -999.25
 43801.9347222222 22:26:00/02-Dec-2019     363.0000      38.7253      39.1500      48.0000      -999.25      -999.25      -999.25      14.1180
 43801.9348379630 22:26:10/02-Dec-2019     363.0400      44.7116      39.1100      -999.25      48.0000       0.0000       0.0000      -999.25
 43801.9349537037 22:26:20/02-Dec-2019     363.0900      45.5101      39.0600      -999.25      -999.25      -999.25      -999.25      -999.25
 43801.9350694444 22:26:30/02-Dec-2019     363.1300      40.4585      39.0200      -999.25      -999.25      -999.25      -999.25      -999.25
 43801.9351851852 22:26:40/02-Dec-2019     363.0800      34.4722      39.0700      -999.25      -999.25      -999.25      -999.25      -999.25
 43801.9353009259 22:26:50/02-Dec-2019     363.1200      36.3158      39.0300      51.0000      -999.25       0.0000       0.0000      -999.25
 43801.9354166667 22:27:00/02-Dec-2019     363.0700      44.0899      39.0800      -999.25      36.0000      -999.25      -999.25      -999.25
 43801.9355324074 22:27:10/02-Dec-2019     363.1100      45.5101      39.0400      -999.25      -999.25      -999.25      -999.25      -999.25
 43801.9356481481 22:27:20/02-Dec-2019     363.1600      40.5690      38.9900      -999.25      -999.25      -999.25      -999.25      -999.25
 43801.9357638889 22:27:30/02-Dec-2019     363.2000      40.5690      38.9500      50.0000      -999.25       0.0000       0.0000      -999.25
 43801.9358796296 22:27:40/02-Dec-2019     363.2400      44.7116      38.9100      -999.25      60.0000      -999.25      -999.25      -999.25
 43801.9359953704 22:27:50/02-Dec-2019     363.2900      44.0899      38.8600      -999.25      -999.25      -999.25      -999.25      -999.25
 43801.9361111111 22:28:00/02-Dec-2019     363.3300      40.4585      38.8200      -999.25      -999.25      -999.25      -999.25      14.1180
 43801.9362268519 22:28:10/02-Dec-2019     363.3700      34.4722      38.7800      -999.25      -999.25      -999.25      -999.25      -999.25
 43801.9363425926 22:28:20/02-Dec-2019     363.4100      40.4585      38.7400      51.0000      -999.25       0.0000       0.0000      -999.25
 43801.9364583333 22:28:30/02-Dec-2019     363.4600      43.7807      38.6900      -999.25      21.0000      -999.25      -999.25      -999.25
 43801.9365740741 22:28:40/02-Dec-2019     363.4000      36.4235      38.7500      -999.25      -999.25      -999.25      -999.25      -999.25
 43801.9366898148 22:28:50/02-Dec-2019     363.5400      32.2808      38.6100      -999.25      -999.25      -999.25      -999.25      -999.25
 43801.9368055556 22:29:00/02-Dec-2019     363.5800      32.2808      38.5700      51.0000      -999.25       0.0000       0.0000      -999.25
 43801.9369212963 22:29:10/02-Dec-2019     363.6300      39.7456      38.5200      -999.25      51.0000      -999.25      -999.25      -999.25
 43801.9370370370 22:29:20/02-Dec-2019     363.6700      39.2102      38.4800      -999.25      -999.25      -999.25      -999.25      -999.25
 43801.9371527778 22:29:30/02-Dec-2019     363.7100      46.6751      38.4400      -999.25      -999.25      -999.25      -999.25      -999.25
 43801.9372685185 22:29:40/02-Dec-2019     363.7500      48.5187      38.4000      51.0000      -999.25      -999.25      -999.25      -999.25
 43801.9373842593 22:29:50/02-Dec-2019     363.7000      42.5324      38.4500      -999.25      30.0000       0.0000       0.0000      -999.25
 43801.9375000000 22:30:00/02-Dec-2019     363.7500      53.8927      38.4000      -999.25      -999.25      -999.25      -999.25      14.1180
 43801.9376157407 22:30:10/02-Dec-2019     363.7900      58.9356      38.3600      -999.25      -999.25      -999.25      -999.25      -999.25
 43801.9377314815 22:30:20/02-Dec-2019     363.8300      43.6220      38.3200      -999.25      -999.25      -999.25      -999.25      -999.25
 43801.9378472222 22:30:30/02-Dec-2019     363.8700      35.1236      38.2800      59.0000      -999.25       0.0000       0.0000      -999.25
 43801.9379629630 22:30:40/02-Dec-2019     363.9200      32.0281      38.2300      -999.25      72.0000      -999.25      -999.25      -999.25
 43801.9380787037 22:30:50/02-Dec-2019     363.9600      47.0037      38.1900      -999.25      -999.25      -999.25      -999.25      -999.25
 43801.9381944444 22:31:00/02-Dec-2019     364.0000      51.1463      38.1500      -999.25      -999.25      -999.25      -999.25      -999.25
 43801.9383101852 22:31:10/02-Dec-2019     364.0500      51.1463      38.1000      60.0000      -999.25       0.0000       0.0000      -999.25
 43801.9384259259 22:31:20/02-Dec-2019     364.0900      43.6815      38.0600      -999.25      21.0000      -999.25      -999.25      -999.25
 43801.9385416667 22:31:30/02-Dec-2019     364.1300      43.6815      38.0200      -999.25      -999.25      -999.25      -999.25      -999.25
 43801.9386574074 22:31:40/02-Dec-2019     364.1700      51.1463      37.9800      -999.25      -999.25      -999.25      -999.25      -999.25
 43801.9387731481 22:31:50/02-Dec-2019     364.2200      52.9900      37.9300      60.0000      -999.25      -999.25      -999.25      -999.25
 43801.9388888889 22:32:00/02-Dec-2019     364.2600      47.0037      37.8900      -999.25      33.0000       0.0000       0.0000      14.1180
 43801.9390046296 22:32:10/02-Dec-2019     364.3000      43.6815      37.8500      -999.25      -999.25      -999.25      -999.25      -999.25
 43801.9391203704 22:32:20/02-Dec-2019     364.3400      40.4585      37.8100      -999.25      -999.25      -999.25      -999.25      -999.25
 43801.9392361111 22:32:30/02-Dec-2019     364.3900      36.3158      37.7600      -999.25      -999.25      -999.25      -999.25      -999.25
 43801.9393518518 22:32:40/02-Dec-2019     364.4300      36.3158      37.7200      60.0000      -999.25       0.0000       0.0000      -999.25
 43801.9394675926 22:32:50/02-Dec-2019     364.4700      48.8188      37.6800      -999.25      21.0000      -999.25      -999.25      -999.25
 43801.9395833333 22:33:00/02-Dec-2019     364.5100      55.2836      37.6400      -999.25      -999.25      -999.25      -999.25      -999.25
 43801.9396990741 22:33:10/02-Dec-2019     364.5600      52.1204      37.5900      -999.25      -999.25      -999.25      -999.25      -999.25
 43801.9398148148 22:33:20/02-Dec-2019     364.6000      43.6220      37.5500      58.0000      -999.25       0.0000       0.0000      -999.25
 43801.9399305556 22:33:30/02-Dec-2019     364.6400      28.3084      37.5100      -999.25      36.0000      -999.25      -999.25      -999.25
 43801.9400462963 22:33:40/02-Dec-2019     364.6900      35.2351      37.4600      -999.25      -999.25      -999.25      -999.25      -999.25
 43801.9401620370 22:33:50/02-Dec-2019     364.7300      42.3765      37.4200      -999.25      -999.25      -999.25      -999.25      -999.25
 43801.9402777778 22:34:00/02-Dec-2019     364.6800      57.6901      37.4700      -999.25      -999.25      -999.25      -999.25      14.1180
 43801.9403935185 22:34:10/02-Dec-2019     364.8100      73.0037      37.3400      58.0000      -999.25       0.0000       0.0000      -999.25
