~VERSION INFORMATION 
VERS  .    2.0                                     :CWLS Log ASCII Standard - VERSION 2.0
WRAP  .    NO                                      :One Line per Time step
PROD  .    Schlumberger Technology Corp.           :LAS Producer
PROG  .    Horizon LASWriter 9.0.106845.3100       :LAS Program name and version
SOURCE.    Run 1-TimeLogicalAcq                    :Run&Pass Information
CREA  .    12/03/2019                              :LAS Creation date {MM/DD/YYYY}
#--------------------------------------------------
~WELL INFORMATION 
#MNEM           .UNIT                      DATA            :DESCRIPTION
#----            ------          --------------            -----------------------------
STRT            .d               43801.7395833334          :START TIME(OLE Automation date)
STOP            .d               43802.2048611111          :STOP TIME(OLE Automation date)
STEP            .d                            0            :STEP TIME(10s in time)
NULL            .                       -999.25            :NULL VALUE
COMP            .                       Equinor            :COMPANY
WELL            .                        31/5-7            :WELL NAME
FLD             .                           Eos            :FIELD NAME
RIGN            .                 West Hercules            :Rig Name
RIGTYP          .                Semi-Submersible          :Rig Type
SON             .                     19SCA0085            :Service Order Number
SRVC            .                  Schlumberger            :SERVICE COMPANY
DATE            .                    12/02/2019            :LOG DATE(Composite Date for Composite LAP) (MM/DD/YYYY)
CLAB            .                       County:            :County Label
CNTY            .                                          :COUNTY
SLAB            .                                          :State/Province Label
STAT            .                                          :STATE or PROVINCE
PROV            .                                          :STATE or PROVINCE
CTRY            .                        Norway            :COUNTRY
CONT_REGION     .                        Europe            :Continent Region
SECT            .                                          :Section
TOWN            .                                          :Township
RANG            .                                          :Range
API             .                                          :API NUMBER
UWI             .                                          :UNIQUE WELL ID
LUL             .                Service Office            :Logging Unit Location
LUN             .                          A615            :Logging Unit Number
LOC             .                Norwegian North Sea       :FIELD LOCATION
FL1             .                Section: 36 in.           :Field Location Line 1
FL2             .                Job no.: 19SCA0085        :Field Location Line 2
LATI            .deg             60° 34' 35.14" N          :LATITUDE
LONG            .deg             3° 26' 36.13" E           :LONGITUDE
PDAT            .                           MSL            :Local Permanent Datum
LMF             .                            DF            :Logging Measured From
APD             .m                        31.00            :Elevation of Depth Reference (LMF) Above Permanent Datum
EPD             .m                         0.00            :Elevation of Permanent Datum (PDAT) above Mean Sea Level
EKB             .m                      -999.25            :Elevation of Kelly Bushing Above Permanent Datum
EDF             .m                        31.00            :Elevation of Drill Floor Above Permanent Datum
EGL             .m                      -307.00            :Elevation of Ground Level Above Permanent Datum
ECF             .m                      -999.25            :Elevation of Casing Flange above Permanent Datum
#--------------------------------------------------
~CURVE INFORMATION
#MNEM           .UNIT                  API CODE            :DESCRIPTION
#----            ------          --------------            -----------------------------
TIME_1900       .d                                         :                                                        Time Index(OLE Automation date)
TIME            .s                                         :                                (10s)                   Time(hh mm ss/dd-MMM-yyyy)
DEPTH           .m                                         :(RT)    (DnMWorkflow)                                   Depth Index
GR              .gAPI                                      :(RT)    (TELE900)                                       Gamma Ray
BLKP            .m                                         :(RT)    (DRILLING_SURFACE)                              Height of block above rig floor
CRPM            .c/min                                     :(RT)    (TELE900)                                       Collar Rotational Speed
STICK           .c/min                                     :(RT)    (TELE900)                                       Stick Slip Indicator
SHKPK           .gn                                        :(RT)    (TELE900)                                       Shock Peak
SHKRSK          .                                          :(RT)    (TELE900)                                       Shock Risk
TEMP_DNI        .degC                                      :(RM)    (TELE900)                                       Direction and Inclination Sensor Temperature
#-------------------------------------------------------------
#       TIME_1900                 TIME        DEPTH           GR         BLKP         CRPM        STICK        SHKPK       SHKRSK     TEMP_DNI 
#                                       (DnMWorkfl)    (TELE900)  (DRILLING_)    (TELE900)    (TELE900)    (TELE900)    (TELE900)    (TELE900) 
#                                              (RT)         (RT)         (RT)         (RT)         (RT)         (RT)         (RT)         (RM) 
#                                (10s)                                                                                                         
~ASCII
# ...
 43802.1025462963 02:27:40/03-Dec-2019     409.7700      55.8357      31.1000      -999.25      -999.25      -999.25      -999.25      -999.25
 43802.1026620370 02:27:50/03-Dec-2019     409.9800      55.8357      30.8900      69.0000      -999.25       0.0000       0.0000      -999.25
 43802.1027777778 02:28:00/03-Dec-2019     410.3800      51.5589      30.4800      -999.25      60.0000      -999.25      -999.25      14.9023
 43802.1028935185 02:28:10/03-Dec-2019     410.0300      54.6254      30.7400      -999.25      -999.25      -999.25      -999.25      -999.25
 43802.1030092593 02:28:20/03-Dec-2019     409.7700      65.2228      31.1000      -999.25      -999.25      -999.25      -999.25      -999.25
 43802.1031250000 02:28:30/03-Dec-2019     410.0700      73.7212      30.7900      73.0000      -999.25      -999.25      -999.25      -999.25
 43802.1032407407 02:28:40/03-Dec-2019     410.1000      89.0348      30.7700      -999.25      42.0000       0.0000       0.0000      -999.25
 43802.1033564815 02:28:50/03-Dec-2019     410.1200      85.7561      30.7500      -999.25      -999.25      -999.25      -999.25      -999.25
 43802.1034722222 02:29:00/03-Dec-2019     410.3200      80.5907      30.6400      -999.25      -999.25      -999.25      -999.25      -999.25
 43802.1035879630 02:29:10/03-Dec-2019     410.1300      74.6044      30.7400      -999.25      -999.25      -999.25      -999.25      -999.25
 43802.1037037037 02:29:20/03-Dec-2019     410.1300      80.5907      30.7400       0.0000      -999.25       0.0000       0.0000      -999.25
 43802.1038194444 02:29:30/03-Dec-2019     410.3200      79.8770      30.6400      -999.25      69.0000      -999.25      -999.25      -999.25
 43802.1039351852 02:29:40/03-Dec-2019     410.3200      78.4115      30.5500      -999.25      -999.25      -999.25      -999.25      -999.25
 43802.1040509259 02:29:50/03-Dec-2019     410.1300      82.5542      30.7400      -999.25      -999.25      -999.25      -999.25      -999.25
 43802.1041666667 02:30:00/03-Dec-2019     410.1300      82.5542      30.7400      -999.25      -999.25      -999.25      -999.25      15.6867
 43802.1042824074 02:30:10/03-Dec-2019     410.3200      75.0893      30.6400      -999.25      -999.25       0.0000       0.0000      -999.25
 43802.1043981481 02:30:20/03-Dec-2019     410.1300      70.0333      30.7400      -999.25      -999.25      -999.25      -999.25      -999.25
 43802.1045138889 02:30:30/03-Dec-2019     410.2300      66.2855      30.6400      -999.25      -999.25      -999.25      -999.25      -999.25
 43802.1046296296 02:30:40/03-Dec-2019     410.5100      63.6354      30.3600      -999.25      -999.25      -999.25      -999.25      -999.25
 43802.1047453704 02:30:50/03-Dec-2019     410.3200      70.0333      30.5500      -999.25      -999.25       0.0000       0.0000      -999.25
 43802.1048611111 02:31:00/03-Dec-2019     410.2500      68.7984      30.6200      -999.25      -999.25      -999.25      -999.25      -999.25
 43802.1049768519 02:31:10/03-Dec-2019     410.5700      66.2855      30.3000      -999.25      -999.25      -999.25      -999.25      -999.25
 43802.1050925926 02:31:20/03-Dec-2019     410.6300      72.6834      30.2400      -999.25      -999.25      -999.25      -999.25      -999.25
 43802.1052083333 02:31:30/03-Dec-2019     410.2400      70.0333      30.6300      66.0000      -999.25      -999.25      -999.25      -999.25
 43802.1053240741 02:31:40/03-Dec-2019     410.6300      66.2855      30.2400      -999.25      51.0000       0.0000       0.0000      -999.25
 43802.1054398148 02:31:50/03-Dec-2019     410.8200      58.2279      30.0500      -999.25      -999.25      -999.25      -999.25      -999.25
 43802.1055555556 02:32:00/03-Dec-2019     410.2400      53.8723      30.6300      -999.25      -999.25      -999.25      -999.25      15.6867
 43802.1056712963 02:32:10/03-Dec-2019     410.1500      47.8859      30.7200      -999.25      -999.25      -999.25      -999.25      -999.25
 43802.1057870370 02:32:20/03-Dec-2019     410.8300      53.8723      30.0400      61.0000      -999.25       0.0000       0.0000      -999.25
 43802.1059027778 02:32:30/03-Dec-2019     410.8900      54.5257      29.9800      -999.25      51.0000      -999.25      -999.25      -999.25
 43802.1060185185 02:32:40/03-Dec-2019     410.5200      49.1829      30.3500      -999.25      -999.25      -999.25      -999.25      -999.25
 43802.1061342593 02:32:50/03-Dec-2019     410.3400      45.0402      30.5300      -999.25      -999.25      -999.25      -999.25      -999.25
 43802.1062500000 02:33:00/03-Dec-2019     410.5200      45.0402      30.3500      66.0000      -999.25       0.0000       0.0000      -999.25
 43802.1063657407 02:33:10/03-Dec-2019     410.8300      47.0127      30.0400      -999.25      60.0000      -999.25      -999.25      -999.25
 43802.1064814815 02:33:20/03-Dec-2019     411.1100      44.7026      29.7600      -999.25      -999.25      -999.25      -999.25      -999.25
 43802.1065972222 02:33:30/03-Dec-2019     410.5900      46.6751      30.2800      -999.25      -999.25      -999.25      -999.25      -999.25
 43802.1067129630 02:33:40/03-Dec-2019     410.2400      48.5187      30.6300      64.0000      -999.25      -999.25      -999.25      -999.25
 43802.1068287037 02:33:50/03-Dec-2019     410.6900      42.5324      30.1800      -999.25      93.0000       0.0000       0.0000      -999.25
 43802.1069444444 02:34:00/03-Dec-2019     410.4200      39.2102      30.4500      -999.25      -999.25      -999.25      -999.25      15.6867
 43802.1070601852 02:34:10/03-Dec-2019     410.4200      36.4235      30.4500      -999.25      -999.25      -999.25      -999.25      -999.25
 43802.1071759259 02:34:20/03-Dec-2019     410.4200      30.4371      30.4500      -999.25      -999.25      -999.25      -999.25      -999.25
 43802.1072916667 02:34:30/03-Dec-2019     410.6900      32.2808      30.1800       0.0000      -999.25      -999.25      -999.25      -999.25
 43802.1074074074 02:34:40/03-Dec-2019     410.8700      34.9355      30.0000      -999.25      99.0000      -999.25      -999.25      -999.25
 43802.1075231481 02:34:50/03-Dec-2019     410.6900      -999.25      30.1800      -999.25      -999.25      -999.25      -999.25      -999.25
 43802.1076388889 02:35:00/03-Dec-2019     410.6000      -999.25      30.2700      -999.25      -999.25      -999.25      -999.25      -999.25
 43802.1077546296 02:35:10/03-Dec-2019     410.5100      -999.25      30.3600      -999.25      -999.25      -999.25      -999.25      -999.25
 43802.1078703704 02:35:20/03-Dec-2019     410.9600      32.3869      29.9100      -999.25      -999.25      -999.25      -999.25      -999.25
 43802.1079861111 02:35:30/03-Dec-2019     410.9600      29.7414      29.9100      -999.25      -999.25      -999.25      -999.25      -999.25
 43802.1081018519 02:35:40/03-Dec-2019     410.6000      32.4132      30.2700      -999.25      -999.25      -999.25      -999.25      -999.25
 43802.1082175926 02:35:50/03-Dec-2019     410.6000      34.2433      30.2700      -999.25      -999.25      -999.25      -999.25      -999.25
 43802.1083333333 02:36:00/03-Dec-2019     410.8700      38.7063      30.0000      -999.25      -999.25      -999.25      -999.25      15.6867
 43802.1084490741 02:36:10/03-Dec-2019     410.9600      43.9298      29.9100      -999.25      -999.25      -999.25      -999.25      -999.25
 43802.1085648148 02:36:20/03-Dec-2019     410.6000      46.6960      30.1800      -999.25      -999.25      -999.25      -999.25      -999.25
 43802.1086805556 02:36:30/03-Dec-2019     410.5100      52.2568      30.3600      -999.25      -999.25       0.0000       0.0000      -999.25
 43802.1087962963 02:36:40/03-Dec-2019     411.0500      57.4802      29.9100      -999.25      -999.25      -999.25      -999.25      -999.25
 43802.1089120370 02:36:50/03-Dec-2019     411.0500      59.8312      29.8200      -999.25      -999.25      -999.25      -999.25      -999.25
