~VERSION INFORMATION 
VERS  .    2.0                                     :CWLS Log ASCII Standard - VERSION 2.0
WRAP  .    NO                                      :One Line per Time step
PROD  .    Schlumberger Technology Corp.           :LAS Producer
PROG  .    Horizon LASWriter 9.2.113335.3100       :LAS Program name and version
SOURCE.    Run 7-TimeLogicalAcq                    :Run&Pass Information
CREA  .    12/27/2019                              :LAS Creation date {MM/DD/YYYY}
#--------------------------------------------------
~WELL INFORMATION 
#MNEM           .UNIT                      DATA            :DESCRIPTION
#----            ------          --------------            -----------------------------
STRT            .d               43818.4166666667          :START TIME(OLE Automation date)
STOP            .d               43819.7083333333          :STOP TIME(OLE Automation date)
STEP            .d                            0            :STEP TIME(10s in time)
NULL            .                       -999.25            :NULL VALUE
COMP            .                       Equinor            :COMPANY
WELL            .                        31/5-7            :WELL NAME
FLD             .                           Eos            :FIELD NAME
RIGN            .                 West Hercules            :Rig Name
RIGTYP          .                Semi-Submersible          :Rig Type
SON             .                     19SCA0085            :Service Order Number
SRVC            .                  Schlumberger            :SERVICE COMPANY
DATE            .                    12/19/2019            :LOG DATE(Composite Date for Composite LAP) (MM/DD/YYYY)
CLAB            .                       County:            :County Label
CNTY            .                                          :COUNTY
SLAB            .                                          :State/Province Label
STAT            .                                          :STATE or PROVINCE
PROV            .                                          :STATE or PROVINCE
CTRY            .                        Norway            :COUNTRY
CONT_REGION     .                        Europe            :Continent Region
SECT            .                                          :Section
TOWN            .                                          :Township
RANG            .                                          :Range
API             .                                          :API NUMBER
UWI             .                                          :UNIQUE WELL ID
LUL             .                Service Office            :Logging Unit Location
LUN             .                          A615            :Logging Unit Number
LOC             .                Norwegian North Sea       :FIELD LOCATION
FL1             .                Section: 12 1/4 x 17 1/5 in.:Field Location Line 1
FL2             .                Job no.: 19SCA0085        :Field Location Line 2
LATI            .deg             60° 34' 35.14" N          :LATITUDE
LONG            .deg             3° 26' 36.13" E           :LONGITUDE
PDAT            .                           MSL            :Local Permanent Datum
LMF             .                            DF            :Logging Measured From
APD             .m                        31.00            :Elevation of Depth Reference (LMF) Above Permanent Datum
EPD             .m                         0.00            :Elevation of Permanent Datum (PDAT) above Mean Sea Level
EKB             .m                      -999.25            :Elevation of Kelly Bushing Above Permanent Datum
EDF             .m                        31.00            :Elevation of Drill Floor Above Permanent Datum
EGL             .m                      -307.00            :Elevation of Ground Level Above Permanent Datum
ECF             .m                      -999.25            :Elevation of Casing Flange above Permanent Datum
#--------------------------------------------------
~CURVE INFORMATION
#MNEM           .UNIT                  API CODE            :DESCRIPTION
#----            ------          --------------            -----------------------------
TIME_1900       .d                                         :                                                        Time Index(OLE Automation date)
TIME            .s                                         :                                (10s)                   Time(hh mm ss/dd-MMM-yyyy)
DEPTH           .m                                         :(RT)    (DnMWorkflow)                                   Depth Index
BLKP            .m                                         :(RT)    (DRILLING_SURFACE)                              Height of block above rig floor
GR_CAL          .gAPI                                      :(RT)    (ARC9)                                          Calibrated Gamma Ray
STICK           .c/min                                     :(RT)    (TELE900)                                       Stick Slip Indicator
CRPM            .c/min                                     :(RT)    (TELE900)                                       Collar Rotational Speed
SHKRSK          .                                          :(RT)    (TELE900)                                       Shock Risk
SHKPK           .gn                                        :(RT)    (TELE900)                                       Shock Peak
DHAT            .degC                                      :(RM)    (ARC9)                                          Downhole Annulus Temperature
DHAP            .bar                                       :(RM)    (ARC9)                                          Downhole Annulus Pressure
ECD             .g/cm3                                     :(RM)    (ARC9)                                          Equivalent Circulating Density
#-------------------------------------------------------------
#       TIME_1900                 TIME        DEPTH         BLKP       GR_CAL        STICK         CRPM       SHKRSK        SHKPK         DHAT         DHAP          ECD 
#                                       (DnMWorkfl)  (DRILLING_)       (ARC9)    (TELE900)    (TELE900)    (TELE900)    (TELE900)       (ARC9)       (ARC9)       (ARC9) 
#                                              (RT)         (RT)         (RT)         (RT)         (RT)         (RT)         (RT)         (RM)         (RM)         (RM) 
#                                (10s)                                                                                                                                   
~ASCII
# ...
 43819.4555555556 10:56:00/20-Dec-2019   1890.29993     30.08000    158.06520      -999.25      -999.25      -999.25      -999.25     33.00000    237.04180      1.28801
 43819.4556712963 10:56:10/20-Dec-2019   1890.29993     30.08000    161.93480      -999.25      -999.25      0.00000      0.00000     33.00000    237.17960      1.28876
 43819.4557870370 10:56:20/20-Dec-2019   1890.29993     30.08000    164.89900      -999.25      -999.25      -999.25      -999.25     33.00000    237.04180      1.28801
 43819.4559027778 10:56:30/20-Dec-2019   1890.39001     29.99000    165.48360      -999.25      -999.25      -999.25      -999.25     33.00000    237.17960      1.28869
 43819.4560185185 10:56:40/20-Dec-2019   1890.29993     30.17000    162.00000      -999.25      -999.25      -999.25      -999.25     33.00000    237.31750      1.28951
 43819.4561342593 10:56:50/20-Dec-2019   1890.39001     29.99000    157.75250      -999.25      -999.25      0.00000      0.00000     33.00000    237.04180      1.28794
 43819.4562500000 10:57:00/20-Dec-2019   1890.21008     30.17000    157.05340      -999.25      -999.25      -999.25      -999.25     33.00000    237.24860      1.28919
 43819.4563657407 10:57:10/20-Dec-2019   1890.39001     29.99000    159.14240      -999.25      -999.25      -999.25      -999.25     33.00000    237.11070      1.28832
 43819.4564814815 10:57:20/20-Dec-2019   1890.29993     30.08000    162.44950      -999.25      -999.25      -999.25      -999.25     33.00000    237.17960      1.28876
 43819.4565972222 10:57:30/20-Dec-2019   1890.29993     30.08000    160.96740      -999.25     29.00000      -999.25      -999.25     33.00000    237.11070      1.28838
 43819.4567129630 10:57:40/20-Dec-2019   1890.29993     30.08000    159.03260      3.00000      -999.25      0.00000      0.00000     33.00000    237.04180      1.28801
 43819.4568287037 10:57:50/20-Dec-2019   1890.12000     30.26000    157.55050      -999.25      -999.25      -999.25      -999.25     33.00000    237.04180      1.28813
 43819.4569444444 10:58:00/20-Dec-2019   1890.21008     30.17000    158.02750      -999.25      -999.25      -999.25      -999.25     33.00000    237.04180      1.28807
 43819.4570601852 10:58:10/20-Dec-2019   1890.12000     30.35000    159.72940      -999.25      -999.25      -999.25      -999.25     33.00000    236.97280      1.28776
 43819.4571759259 10:58:20/20-Dec-2019   1890.21008     30.17000    160.65330      -999.25     29.00000      0.00000      0.00000     33.00000    237.17960      1.28882
 43819.4572916667 10:58:30/20-Dec-2019   1890.39001     30.08000    160.27060      3.00000      -999.25      -999.25      -999.25     33.00000    237.24860      1.28907
 43819.4574074074 10:58:40/20-Dec-2019   1890.29993     30.08000    157.13800      -999.25      -999.25      -999.25      -999.25     33.00000    237.04180      1.28801
 43819.4575231481 10:58:50/20-Dec-2019   1890.39001     29.99000      -999.25      -999.25      -999.25      -999.25      -999.25     33.00000    237.04180      1.28794
 43819.4576388889 10:59:00/20-Dec-2019   1890.29993     30.08000      -999.25      -999.25      -999.25      -999.25      -999.25     33.00000    237.17960      1.28876
 43819.4577546296 10:59:10/20-Dec-2019   1890.48999     29.89000    150.30820      -999.25      -999.25      -999.25      -999.25     33.00000    237.04180      1.28788
 43819.4578703704 10:59:20/20-Dec-2019   1890.03003     30.35000    148.19470      -999.25      -999.25      -999.25      -999.25     33.00000    236.90390      1.28744
 43819.4579861111 10:59:30/20-Dec-2019   1890.29993     30.08000    148.82120      -999.25      -999.25      -999.25      -999.25     33.00000    237.04180      1.28801
 43819.4581018519 10:59:40/20-Dec-2019   1890.21008     30.17000    149.70490      -999.25      -999.25      -999.25      -999.25     33.00000    237.04180      1.28807
 43819.4582175926 10:59:50/20-Dec-2019   1890.39001     29.99000    150.72660      -999.25      -999.25      -999.25      -999.25     33.00000    236.97280      1.28757
 43819.4583333333 11:00:00/20-Dec-2019   1890.39001     29.99000    151.74840      -999.25      -999.25      -999.25      -999.25     33.00000    236.90390      1.28720
 43819.4584490741 11:00:10/20-Dec-2019   1890.21008     30.17000    152.63210      -999.25      -999.25      0.00000      0.00000     33.00000    236.97280      1.28769
 43819.4585648148 11:00:20/20-Dec-2019   1890.29993     30.08000    153.25850      -999.25      -999.25      -999.25      -999.25     33.00000    236.90390      1.28726
 43819.4586805556 11:00:30/20-Dec-2019   1890.21008     30.17000    155.23560      -999.25      -999.25      -999.25      -999.25     33.00000    236.90390      1.28732
 43819.4587962963 11:00:40/20-Dec-2019   1890.29993     30.08000    158.68600      -999.25      -999.25      -999.25      -999.25     33.00000    237.04180      1.28801
 43819.4589120370 11:00:50/20-Dec-2019   1890.39001     29.99000    155.72180      -999.25      -999.25      -999.25      -999.25     33.00000    237.04180      1.28794
 43819.4590277778 11:01:00/20-Dec-2019   1890.39001     29.99000    151.85220      -999.25      -999.25      0.00000      0.00000     33.00000    237.04180      1.28794
 43819.4591435185 11:01:10/20-Dec-2019   1890.39001     29.99000    148.88800      -999.25      -999.25      -999.25      -999.25     33.00000    236.97280      1.28757
 43819.4592592593 11:01:20/20-Dec-2019   1890.39001     29.99000    145.99150      -999.25      -999.25      -999.25      -999.25     33.00000    237.17960      1.28869
 43819.4593750000 11:01:30/20-Dec-2019   1890.39001     29.99000    154.22430      -999.25      -999.25      -999.25      -999.25     33.00000    236.97280      1.28757
 43819.4594907407 11:01:40/20-Dec-2019   1890.29993     30.08000    162.53500      -999.25      -999.25      0.00000      0.00000     33.00000    237.11070      1.28838
 43819.4596064815 11:01:50/20-Dec-2019   1890.21008     30.08000    161.49660      -999.25      -999.25      -999.25      -999.25     33.00000    236.97280      1.28769
 43819.4597222222 11:02:00/20-Dec-2019   1890.29993     30.08000    155.55730      -999.25      -999.25      -999.25      -999.25     33.00000    236.90390      1.28726
 43819.4598379630 11:02:10/20-Dec-2019   1890.29993     30.08000    149.60440      -999.25      -999.25      -999.25      -999.25     33.00000    236.97280      1.28763
 43819.4599537037 11:02:20/20-Dec-2019   1890.48999     29.99000    154.16540      -999.25      -999.25      -999.25      -999.25     33.00000    237.17960      1.28863
 43819.4600694444 11:02:30/20-Dec-2019   1890.29993     30.08000    156.91950      -999.25      -999.25      0.00000      0.00000     33.00000    237.17960      1.28876
 43819.4601851852 11:02:40/20-Dec-2019   1890.39001     29.99000    155.78700      -999.25      -999.25      -999.25      -999.25     33.00000    237.17960      1.28869
 43819.4603009259 11:02:50/20-Dec-2019   1890.39001     29.99000    152.42770      -999.25      -999.25      -999.25      -999.25     33.00000    237.17960      1.28869
 43819.4604166667 11:03:00/20-Dec-2019   1890.39001     29.99000    147.81410      -999.25      -999.25      -999.25      -999.25     33.00000    237.24860      1.28907
 43819.4605324074 11:03:10/20-Dec-2019   1890.29993     30.08000    149.51850      -999.25     24.00000      0.00000      0.00000     33.00000    237.17960      1.28876
 43819.4606481481 11:03:20/20-Dec-2019   1890.39001     29.99000    157.41880      6.00000      -999.25      -999.25      -999.25     33.00000    237.04180      1.28794
 43819.4607638889 11:03:30/20-Dec-2019   1890.21008     30.17000    162.02550      -999.25      -999.25      -999.25      -999.25     33.00000    237.17960      1.28882
 43819.4608796296 11:03:40/20-Dec-2019   1890.39001     29.99000    157.03980      -999.25      -999.25      -999.25      -999.25     33.00000    237.04180      1.28794
 43819.4609953704 11:03:50/20-Dec-2019   1890.29993     30.08000    150.49470      -999.25      -999.25      -999.25      -999.25     33.00000    237.17960      1.28876
