~VERSION INFORMATION 
VERS  .    2.0                                     :CWLS Log ASCII Standard - VERSION 2.0
WRAP  .    NO                                      :One Line per Time step
PROD  .    Schlumberger Technology Corp.           :LAS Producer
PROG  .    Horizon LASWriter 9.2.113335.3100       :LAS Program name and version
SOURCE.    Run 7-TimeLogicalAcq                    :Run&Pass Information
CREA  .    12/27/2019                              :LAS Creation date {MM/DD/YYYY}
#--------------------------------------------------
~WELL INFORMATION 
#MNEM           .UNIT                      DATA            :DESCRIPTION
#----            ------          --------------            -----------------------------
STRT            .d               43818.4166666667          :START TIME(OLE Automation date)
STOP            .d               43819.7083333333          :STOP TIME(OLE Automation date)
STEP            .d                            0            :STEP TIME(10s in time)
NULL            .                       -999.25            :NULL VALUE
COMP            .                       Equinor            :COMPANY
WELL            .                        31/5-7            :WELL NAME
FLD             .                           Eos            :FIELD NAME
RIGN            .                 West Hercules            :Rig Name
RIGTYP          .                Semi-Submersible          :Rig Type
SON             .                     19SCA0085            :Service Order Number
SRVC            .                  Schlumberger            :SERVICE COMPANY
DATE            .                    12/19/2019            :LOG DATE(Composite Date for Composite LAP) (MM/DD/YYYY)
CLAB            .                       County:            :County Label
CNTY            .                                          :COUNTY
SLAB            .                                          :State/Province Label
STAT            .                                          :STATE or PROVINCE
PROV            .                                          :STATE or PROVINCE
CTRY            .                        Norway            :COUNTRY
CONT_REGION     .                        Europe            :Continent Region
SECT            .                                          :Section
TOWN            .                                          :Township
RANG            .                                          :Range
API             .                                          :API NUMBER
UWI             .                                          :UNIQUE WELL ID
LUL             .                Service Office            :Logging Unit Location
LUN             .                          A615            :Logging Unit Number
LOC             .                Norwegian North Sea       :FIELD LOCATION
FL1             .                Section: 12 1/4 x 17 1/5 in.:Field Location Line 1
FL2             .                Job no.: 19SCA0085        :Field Location Line 2
LATI            .deg             60° 34' 35.14" N          :LATITUDE
LONG            .deg             3° 26' 36.13" E           :LONGITUDE
PDAT            .                           MSL            :Local Permanent Datum
LMF             .                            DF            :Logging Measured From
APD             .m                        31.00            :Elevation of Depth Reference (LMF) Above Permanent Datum
EPD             .m                         0.00            :Elevation of Permanent Datum (PDAT) above Mean Sea Level
EKB             .m                      -999.25            :Elevation of Kelly Bushing Above Permanent Datum
EDF             .m                        31.00            :Elevation of Drill Floor Above Permanent Datum
EGL             .m                      -307.00            :Elevation of Ground Level Above Permanent Datum
ECF             .m                      -999.25            :Elevation of Casing Flange above Permanent Datum
#--------------------------------------------------
~CURVE INFORMATION
#MNEM           .UNIT                  API CODE            :DESCRIPTION
#----            ------          --------------            -----------------------------
TIME_1900       .d                                         :                                                        Time Index(OLE Automation date)
TIME            .s                                         :                                (10s)                   Time(hh mm ss/dd-MMM-yyyy)
DEPTH           .m                                         :(RT)    (DnMWorkflow)                                   Depth Index
BLKP            .m                                         :(RT)    (DRILLING_SURFACE)                              Height of block above rig floor
GR_CAL          .gAPI                                      :(RT)    (ARC9)                                          Calibrated Gamma Ray
STICK           .c/min                                     :(RT)    (TELE900)                                       Stick Slip Indicator
CRPM            .c/min                                     :(RT)    (TELE900)                                       Collar Rotational Speed
SHKRSK          .                                          :(RT)    (TELE900)                                       Shock Risk
SHKPK           .gn                                        :(RT)    (TELE900)                                       Shock Peak
DHAT            .degC                                      :(RM)    (ARC9)                                          Downhole Annulus Temperature
DHAP            .bar                                       :(RM)    (ARC9)                                          Downhole Annulus Pressure
ECD             .g/cm3                                     :(RM)    (ARC9)                                          Equivalent Circulating Density
#-------------------------------------------------------------
#       TIME_1900                 TIME        DEPTH         BLKP       GR_CAL        STICK         CRPM       SHKRSK        SHKPK         DHAT         DHAP          ECD 
#                                       (DnMWorkfl)  (DRILLING_)       (ARC9)    (TELE900)    (TELE900)    (TELE900)    (TELE900)       (ARC9)       (ARC9)       (ARC9) 
#                                              (RT)         (RT)         (RT)         (RT)         (RT)         (RT)         (RT)         (RM)         (RM)         (RM) 
#                                (10s)                                                                                                                                   
~ASCII
# ...
 43819.5388888889 12:56:00/20-Dec-2019   1889.90002     30.48000      -999.25      -999.25      -999.25      -999.25      -999.25     34.00000    235.31810      1.27891
 43819.5390046296 12:56:10/20-Dec-2019   1889.90002     30.48000      -999.25      -999.25      -999.25      -999.25      -999.25     34.00000    235.31810      1.27891
 43819.5391203704 12:56:20/20-Dec-2019   1889.90002     30.48000      -999.25      -999.25      -999.25      -999.25      -999.25     34.00000    235.18020      1.27816
 43819.5392361111 12:56:30/20-Dec-2019   1889.90002     30.48000      -999.25      -999.25      -999.25      -999.25      -999.25     34.00000    234.97330      1.27704
 43819.5393518518 12:56:40/20-Dec-2019   1889.90002     30.48000      -999.25      -999.25      -999.25      -999.25      -999.25     34.00000    235.24910      1.27854
 43819.5394675926 12:56:50/20-Dec-2019   1889.90002     30.48000      -999.25      -999.25      -999.25      -999.25      -999.25     34.00000    234.97330      1.27704
 43819.5395833333 12:57:00/20-Dec-2019   1889.90002     30.48000      -999.25      -999.25      -999.25      -999.25      -999.25     34.00000    235.18020      1.27816
 43819.5396990741 12:57:10/20-Dec-2019   1889.90002     30.48000      -999.25      -999.25      -999.25      -999.25      -999.25     34.00000    235.24910      1.27854
 43819.5398148148 12:57:20/20-Dec-2019   1889.90002     30.48000      -999.25      -999.25      -999.25      -999.25      -999.25     34.00000    235.31810      1.27891
 43819.5399305556 12:57:30/20-Dec-2019   1889.90002     30.48000      -999.25      -999.25      -999.25      -999.25      -999.25     34.00000    235.52490      1.28004
 43819.5400462963 12:57:40/20-Dec-2019   1889.90002     30.48000      -999.25      -999.25      -999.25      -999.25      -999.25     34.00000    235.52490      1.28004
 43819.5401620370 12:57:50/20-Dec-2019   1889.90002     30.48000      -999.25      -999.25      -999.25      -999.25      -999.25     34.00000    235.31810      1.27891
 43819.5402777778 12:58:00/20-Dec-2019   1889.90002     30.48000      -999.25      -999.25      -999.25      -999.25      -999.25     34.00000    235.04230      1.27741
 43819.5403935185 12:58:10/20-Dec-2019   1889.90002     30.48000      -999.25      -999.25      -999.25      -999.25      -999.25     34.00000    234.97330      1.27704
 43819.5405092593 12:58:20/20-Dec-2019   1889.90002     30.48000      -999.25      -999.25      -999.25      -999.25      -999.25     34.00000    234.76650      1.27592
 43819.5406250000 12:58:30/20-Dec-2019   1889.90002     30.48000      -999.25      -999.25      -999.25      -999.25      -999.25     34.00000    234.62860      1.27517
 43819.5407407407 12:58:40/20-Dec-2019   1889.90002     30.48000      -999.25      -999.25      -999.25      -999.25      -999.25     34.00000    235.04230      1.27741
 43819.5408564815 12:58:50/20-Dec-2019   1889.90002     30.48000      -999.25      -999.25      -999.25      -999.25      -999.25     34.00000    235.04230      1.27741
 43819.5409722222 12:59:00/20-Dec-2019   1889.90002     30.48000      -999.25      -999.25      -999.25      -999.25      -999.25     34.00000    235.31810      1.27891
 43819.5410879630 12:59:10/20-Dec-2019   1889.90002     30.48000      -999.25      -999.25      -999.25      -999.25      -999.25     34.00000    234.97330      1.27704
 43819.5412037037 12:59:20/20-Dec-2019   1889.90002     30.48000      -999.25      -999.25      -999.25      -999.25      -999.25     34.00000    235.04230      1.27741
 43819.5413194444 12:59:30/20-Dec-2019   1889.90002     30.48000      -999.25      -999.25      -999.25      -999.25      -999.25     34.00000    235.04230      1.27741
 43819.5414351852 12:59:40/20-Dec-2019   1889.90002     30.48000      -999.25      -999.25      -999.25      -999.25      -999.25     34.00000    235.04230      1.27741
 43819.5415509259 12:59:50/20-Dec-2019   1889.90002     30.48000      -999.25      -999.25      -999.25      -999.25      -999.25     34.00000    234.62860      1.27517
 43819.5416666667 13:00:00/20-Dec-2019   1889.90002     30.48000      -999.25      -999.25      -999.25      -999.25      -999.25     34.00000    234.69750      1.27554
 43819.5417824074 13:00:10/20-Dec-2019   1889.90002     30.48000      -999.25      -999.25      -999.25      -999.25      -999.25     34.00000    234.76650      1.27592
 43819.5418981481 13:00:20/20-Dec-2019   1889.90002     30.48000      -999.25      -999.25      -999.25      -999.25      -999.25     34.00000    235.24910      1.27854
 43819.5420138889 13:00:30/20-Dec-2019   1889.90002     30.48000      -999.25      -999.25      -999.25      -999.25      -999.25     34.00000    235.24910      1.27854
 43819.5421296296 13:00:40/20-Dec-2019   1889.90002     30.48000      -999.25      -999.25      -999.25      -999.25      -999.25     34.00000    235.24910      1.27854
 43819.5422453704 13:00:50/20-Dec-2019   1889.90002     30.48000      -999.25      -999.25      -999.25      -999.25      -999.25     34.00000    235.38700      1.27929
 43819.5423611111 13:01:00/20-Dec-2019   1889.90002     30.48000      -999.25      -999.25      -999.25      -999.25      -999.25     34.00000    235.31810      1.27891
 43819.5424768519 13:01:10/20-Dec-2019   1889.90002     30.48000      -999.25      -999.25      -999.25      -999.25      -999.25     34.00000    234.97330      1.27704
 43819.5425925926 13:01:20/20-Dec-2019   1889.90002     30.48000      -999.25      -999.25      -999.25      -999.25      -999.25     34.00000    235.04230      1.27741
 43819.5427083333 13:01:30/20-Dec-2019   1889.90002     30.48000      -999.25      -999.25      -999.25      -999.25      -999.25     34.00000    235.18020      1.27816
 43819.5428240741 13:01:40/20-Dec-2019   1889.90002     30.48000      -999.25      -999.25      -999.25      -999.25      -999.25     34.00000    235.45600      1.27966
 43819.5429398148 13:01:50/20-Dec-2019   1889.90002     30.48000      -999.25      -999.25      -999.25      -999.25      -999.25     34.00000    235.18020      1.27816
 43819.5430555556 13:02:00/20-Dec-2019   1889.90002     30.48000      -999.25      -999.25      -999.25      -999.25      -999.25     34.00000    235.45600      1.27966
 43819.5431712963 13:02:10/20-Dec-2019   1889.90002     30.48000      -999.25      -999.25      -999.25      -999.25      -999.25     34.00000    235.18020      1.27816
 43819.5432870370 13:02:20/20-Dec-2019   1889.90002     30.48000      -999.25      -999.25      -999.25      -999.25      -999.25     34.00000    235.24910      1.27854
 43819.5434027778 13:02:30/20-Dec-2019   1889.90002     30.48000      -999.25      -999.25      -999.25      -999.25      -999.25     34.00000    235.04230      1.27741
 43819.5435185185 13:02:40/20-Dec-2019   1889.90002     30.48000      -999.25      -999.25      -999.25      -999.25      -999.25     34.00000    234.97330      1.27704
 43819.5436342593 13:02:50/20-Dec-2019   1889.90002     30.48000      -999.25      -999.25      -999.25      -999.25      -999.25     34.00000    235.31810      1.27891
 43819.5437500000 13:03:00/20-Dec-2019   1889.90002     30.48000      -999.25      -999.25      -999.25      -999.25      -999.25     34.00000    235.38700      1.27929
 43819.5438657407 13:03:10/20-Dec-2019   1889.90002     30.48000      -999.25      -999.25      -999.25      -999.25      -999.25     34.00000    235.45600      1.27966
 43819.5439814815 13:03:20/20-Dec-2019   1889.90002     30.48000      -999.25      -999.25      -999.25      -999.25      -999.25     34.00000    235.38700      1.27929
 43819.5440972222 13:03:30/20-Dec-2019   1889.90002     30.48000      -999.25      -999.25      -999.25      -999.25      -999.25     34.00000    235.38700      1.27929
 43819.5442129630 13:03:40/20-Dec-2019   1889.90002     30.48000      -999.25      -999.25      -999.25      -999.25      -999.25     34.00000    234.55960      1.27479
 43819.5443287037 13:03:50/20-Dec-2019   1889.90002     30.48000      -999.25      -999.25      -999.25      -999.25      -999.25     34.00000    234.62860      1.27517
