~VERSION INFORMATION 
VERS  .    2.0                                     :CWLS Log ASCII Standard - VERSION 2.0
WRAP  .    NO                                      :One Line per Time step
PROD  .    Schlumberger Technology Corp.           :LAS Producer
PROG  .    Horizon LASWriter 9.2.113335.3100       :LAS Program name and version
SOURCE.    Run 13-TimeLogicalAcq                   :Run&Pass Information
CREA  .    01/21/2020                              :LAS Creation date {MM/DD/YYYY}
#--------------------------------------------------
~WELL INFORMATION 
#MNEM           .UNIT                      DATA            :DESCRIPTION
#----            ------          --------------            -----------------------------
STRT            .d               43844.3958333334          :START TIME(OLE Automation date)
STOP            .d               43845.1666666667          :STOP TIME(OLE Automation date)
STEP            .d                            0            :STEP TIME(10s in time)
NULL            .                       -999.25            :NULL VALUE
COMP            .                       Equinor            :COMPANY
WELL            .                        31/5-7            :WELL NAME
FLD             .                           Eos            :FIELD NAME
RIGN            .                 West Hercules            :Rig Name
RIGTYP          .                Semi-Submersible          :Rig Type
SON             .                     19SCA0085            :Service Order Number
SRVC            .                  Schlumberger            :SERVICE COMPANY
DATE            .                    01/13/2020            :LOG DATE(Composite Date for Composite LAP) (MM/DD/YYYY)
CLAB            .                       County:            :County Label
CNTY            .                                          :COUNTY
SLAB            .                                          :State/Province Label
STAT            .                                          :STATE or PROVINCE
PROV            .                                          :STATE or PROVINCE
CTRY            .                        Norway            :COUNTRY
CONT_REGION     .                        Europe            :Continent Region
SECT            .                                          :Section
TOWN            .                                          :Township
RANG            .                                          :Range
API             .                                          :API NUMBER
UWI             .                                          :UNIQUE WELL ID
LUL             .                Service Office            :Logging Unit Location
LUN             .                          A615            :Logging Unit Number
LOC             .                Norwegian North Sea       :FIELD LOCATION
FL1             .                Section: 8 1/2 in.        :Field Location Line 1
FL2             .                Job no.: 19SCA0085        :Field Location Line 2
LATI            .deg             60° 34' 35.14" N          :LATITUDE
LONG            .deg             3° 26' 36.13" E           :LONGITUDE
PDAT            .                           MSL            :Local Permanent Datum
LMF             .                            DF            :Logging Measured From
APD             .m                        31.00            :Elevation of Depth Reference (LMF) Above Permanent Datum
EPD             .m                         0.00            :Elevation of Permanent Datum (PDAT) above Mean Sea Level
EKB             .m                      -999.25            :Elevation of Kelly Bushing Above Permanent Datum
EDF             .m                        31.00            :Elevation of Drill Floor Above Permanent Datum
EGL             .m                      -307.00            :Elevation of Ground Level Above Permanent Datum
ECF             .m                      -999.25            :Elevation of Casing Flange above Permanent Datum
#--------------------------------------------------
~CURVE INFORMATION
#MNEM           .UNIT                  API CODE            :DESCRIPTION
#----            ------          --------------            -----------------------------
TIME_1900       .d                                         :                                                        Time Index(OLE Automation date)
TIME            .s                                         :                                (10s)                   Time(hh mm ss/dd-MMM-yyyy)
DEPTH           .m                                         :(RT)    (DnMWorkflow)                                   Depth Index
BLKP            .m                                         :(RT)    (DRILLING_SURFACE)                              Height of block above rig floor
GR              .gAPI                                      :(RT)    (ARC6)                                          Gamma Ray
CRPM            .c/min                                     :(RT)    (TELE675)                                       Collar Rotational Speed
STICK           .c/min                                     :(RT)    (TELE675)                                       Stick Slip Indicator
SHKRSK          .                                          :(RT)    (TELE675)                                       Shock Risk
SHKPK           .gn                                        :(RT)    (TELE675)                                       Shock Peak
DHAT            .degC                                      :(RM)    (ARC6)                                          Downhole Annulus Temperature
DHAP            .bar                                       :(RM)    (ARC6)                                          Downhole Annulus Pressure
ECD             .g/cm3                                     :(RM)    (ARC6)                                          Equivalent Circulating Density
#-------------------------------------------------------------
#       TIME_1900                 TIME        DEPTH         BLKP           GR         CRPM        STICK       SHKRSK        SHKPK         DHAT         DHAP          ECD 
#                                       (DnMWorkfl)  (DRILLING_)       (ARC6)    (TELE675)    (TELE675)    (TELE675)    (TELE675)       (ARC6)       (ARC6)       (ARC6) 
#                                              (RT)         (RT)         (RT)         (RT)         (RT)         (RT)         (RT)         (RM)         (RM)         (RM) 
#                                (10s)                                                                                                                                   
~ASCII
# ...
 43844.4513888889 10:50:00/14-Jan-2020   1154.70996     42.02000      -999.25      -999.25      -999.25      -999.25      -999.25     43.00000    149.82310      1.33329
 43844.4515046296 10:50:10/14-Jan-2020   1154.70996     42.02000      -999.25      -999.25      -999.25      -999.25      -999.25     43.00000    149.61620      1.33145
 43844.4516203704 10:50:20/14-Jan-2020   1154.70996     42.02000      -999.25      -999.25      -999.25      -999.25      -999.25     43.00000    149.61620      1.33145
 43844.4517361111 10:50:30/14-Jan-2020   1154.21997     42.69000      -999.25      -999.25      -999.25      -999.25      -999.25     43.00000    152.85680      1.36087
 43844.4518518519 10:50:40/14-Jan-2020   1161.60999     35.34000      -999.25      -999.25      -999.25      -999.25      -999.25     43.00000    153.27050      1.35591
 43844.4519675926 10:50:50/14-Jan-2020   1178.52002     19.37000      -999.25      -999.25      -999.25      -999.25      -999.25     43.00000    154.58050      1.34796
 43844.4520833333 10:51:00/14-Jan-2020   1191.90002      5.22000      -999.25      -999.25      -999.25      -999.25      -999.25     43.00000    152.99470      1.31875
 43844.4521990741 10:51:10/14-Jan-2020   1193.31006      3.64000      -999.25      -999.25      -999.25      -999.25      -999.25     43.00000    150.71940      1.29756
 43844.4523148148 10:51:20/14-Jan-2020   1193.31006      3.64000      -999.25      -999.25      -999.25      -999.25      -999.25     43.00000    152.58100      1.31358
 43844.4524305556 10:51:30/14-Jan-2020   1193.10999      3.84000      -999.25      -999.25      -999.25      -999.25      -999.25     43.00000    154.23570      1.32803
 43844.4525462963 10:51:40/14-Jan-2020   1193.22998      3.93000      -999.25      -999.25      -999.25      -999.25      -999.25     43.00000    155.75260      1.34098
 43844.4526620370 10:51:50/14-Jan-2020   1193.02002      3.96000      -999.25      -999.25      -999.25      -999.25      -999.25     43.00000    153.95990      1.32578
 43844.4527777778 10:52:00/14-Jan-2020   1193.18005      3.84000      -999.25      -999.25      -999.25      -999.25      -999.25     43.00000    152.85680      1.31610
 43844.4528935185 10:52:10/14-Jan-2020   1193.15002      3.91000      -999.25      -999.25      -999.25      -999.25      -999.25     43.00000    152.64990      1.31437
 43844.4530092593 10:52:20/14-Jan-2020   1193.38000      3.64000      -999.25      -999.25      -999.25      -999.25      -999.25     43.00000    154.02890      1.32597
 43844.4531250000 10:52:30/14-Jan-2020   1193.38000      4.47000      -999.25      -999.25      -999.25      -999.25      -999.25     43.00000    153.61520      1.32241
 43844.4532407407 10:52:40/14-Jan-2020   1193.38000     18.00000      -999.25      -999.25      -999.25      -999.25      -999.25     43.00000    152.37410      1.31173
 43844.4533564815 10:52:50/14-Jan-2020   1193.38000     34.58000      -999.25      -999.25      -999.25      -999.25      -999.25     43.00000    150.78830      1.29807
 43844.4534722222 10:53:00/14-Jan-2020   1193.38000     41.91000      -999.25      -999.25      -999.25      -999.25      -999.25     43.00000    149.82310      1.28977
 43844.4535879630 10:53:10/14-Jan-2020   1193.38000     42.03000      -999.25      -999.25      -999.25      -999.25      -999.25     43.00000    150.58150      1.29629
 43844.4537037037 10:53:20/14-Jan-2020   1193.38000     42.03000      -999.25      -999.25      -999.25      -999.25      -999.25     43.00000    154.23570      1.32775
 43844.4538194444 10:53:30/14-Jan-2020   1193.38000     42.03000      -999.25      -999.25      -999.25      -999.25      -999.25     43.00000    153.54620      1.32182
 43844.4539351852 10:53:40/14-Jan-2020   1193.38000     42.49000      -999.25      -999.25      -999.25      -999.25      -999.25     43.00000    151.54680      1.30460
 43844.4540509259 10:53:50/14-Jan-2020   1194.16003     41.44000      -999.25      -999.25      -999.25      -999.25      -999.25     43.00000    155.33890      1.33648
 43844.4541666667 10:54:00/14-Jan-2020   1209.11011     27.02000      -999.25      -999.25      -999.25      -999.25      -999.25     43.00000    157.26940      1.33628
 43844.4542824074 10:54:10/14-Jan-2020   1225.92004     10.51000      -999.25      -999.25      -999.25      -999.25      -999.25     43.00000    158.99310      1.33242
 43844.4543981481 10:54:20/14-Jan-2020   1231.52002      4.17000      -999.25      -999.25      -999.25      -999.25      -999.25     44.00000    158.44150      1.32143
 43844.4545138889 10:54:30/14-Jan-2020   1231.93994      3.66000      -999.25      -999.25      -999.25      -999.25      -999.25     44.00000    157.06260      1.30946
 43844.4546296296 10:54:40/14-Jan-2020   1232.22998      3.37000      -999.25      -999.25      -999.25      -999.25      -999.25     44.00000    155.95940      1.29996
 43844.4547453704 10:54:50/14-Jan-2020   1232.22998      9.86000      -999.25      -999.25      -999.25      -999.25      -999.25     44.00000    156.85570      1.30743
 43844.4548611111 10:55:00/14-Jan-2020   1232.22998     24.97000      -999.25      -999.25      -999.25      -999.25      -999.25     44.00000    158.51050      1.32122
 43844.4549768518 10:55:10/14-Jan-2020   1232.22998     40.12000      -999.25      -999.25      -999.25      -999.25      -999.25     44.00000    158.30360      1.31949
 43844.4550925926 10:55:20/14-Jan-2020   1232.22998     41.66999      -999.25      -999.25      -999.25      -999.25      -999.25     44.00000    158.23470      1.31892
 43844.4552083333 10:55:30/14-Jan-2020   1232.22998     41.66999      -999.25      -999.25      -999.25      -999.25      -999.25     44.00000    157.13150      1.30972
 43844.4553240741 10:55:40/14-Jan-2020   1232.22998     41.66999      -999.25      -999.25      -999.25      -999.25      -999.25     44.00000    157.61420      1.31375
 43844.4554398148 10:55:50/14-Jan-2020   1370.00000     41.66999      -999.25      -999.25      -999.25      -999.25      -999.25     44.00000    158.78630      1.18956
 43844.4555555556 10:56:00/14-Jan-2020   1370.00000     41.66999      -999.25      -999.25      -999.25      -999.25      -999.25     44.00000    158.64840      1.18852
 43844.4556712963 10:56:10/14-Jan-2020   1370.00000     42.19000      -999.25      -999.25      -999.25      -999.25      -999.25     44.00000    158.23470      1.18542
 43844.4557870370 10:56:20/14-Jan-2020   1369.09998     42.80000      -999.25      -999.25      -999.25      -999.25      -999.25     44.00000    160.85470      1.20584
 43844.4559027778 10:56:30/14-Jan-2020   1380.16003     31.74000      -999.25      -999.25      -999.25      -999.25      -999.25     44.00000    162.30260      1.20700
 43844.4560185185 10:56:40/14-Jan-2020   1396.89001     15.01000      -999.25      -999.25      -999.25      -999.25      -999.25     44.00000    160.09630      1.17642
 43844.4561342593 10:56:50/14-Jan-2020   1407.43005      4.47000      -999.25      -999.25      -999.25      -999.25      -999.25     44.00000    162.37150      1.18387
 43844.4562500000 10:57:00/14-Jan-2020   1408.08997      3.81000      -999.25      -999.25      -999.25      -999.25      -999.25     44.00000    163.47470      1.19132
 43844.4563657407 10:57:10/14-Jan-2020   1408.27002      3.52000      -999.25      -999.25      -999.25      -999.25      -999.25     44.00000    162.99210      1.18766
 43844.4564814815 10:57:20/14-Jan-2020   1408.27002      4.20000      -999.25      -999.25      -999.25      -999.25      -999.25     44.00000    160.57890      1.17009
 43844.4565972222 10:57:30/14-Jan-2020   1408.27002     17.40000      -999.25      -999.25      -999.25      -999.25      -999.25     44.00000    159.13100      1.15954
 43844.4567129630 10:57:40/14-Jan-2020   1408.27002     34.34000      -999.25      -999.25      -999.25      -999.25      -999.25     44.00000    159.40680      1.16155
 43844.4568287037 10:57:50/14-Jan-2020   1408.27002     41.87000      -999.25      -999.25      -999.25      -999.25      -999.25     44.00000    162.23360      1.18215
