~VERSION INFORMATION 
VERS  .    2.0                                     :CWLS Log ASCII Standard - VERSION 2.0
WRAP  .    NO                                      :One Line per Time step
PROD  .    Schlumberger Technology Corp.           :LAS Producer
PROG  .    Horizon LASWriter 9.2.113335.3100       :LAS Program name and version
SOURCE.    Run 9-TimeLogicalAcq                    :Run&Pass Information
CREA  .    01/21/2020                              :LAS Creation date {MM/DD/YYYY}
#--------------------------------------------------
~WELL INFORMATION 
#MNEM           .UNIT                      DATA            :DESCRIPTION
#----            ------          --------------            -----------------------------
STRT            .d               43828.3333333334          :START TIME(OLE Automation date)
STOP            .d               43829.1041666667          :STOP TIME(OLE Automation date)
STEP            .d                            0            :STEP TIME(10s in time)
NULL            .                       -999.25            :NULL VALUE
COMP            .                       Equinor            :COMPANY
WELL            .                        31/5-7            :WELL NAME
FLD             .                           Eos            :FIELD NAME
RIGN            .                 West Hercules            :Rig Name
RIGTYP          .                Semi-Submersible          :Rig Type
SON             .                     19SCA0085            :Service Order Number
SRVC            .                  Schlumberger            :SERVICE COMPANY
DATE            .                    12/29/2019            :LOG DATE(Composite Date for Composite LAP) (MM/DD/YYYY)
CLAB            .                       County:            :County Label
CNTY            .                                          :COUNTY
SLAB            .                                          :State/Province Label
STAT            .                                          :STATE or PROVINCE
PROV            .                                          :STATE or PROVINCE
CTRY            .                        Norway            :COUNTRY
CONT_REGION     .                        Europe            :Continent Region
SECT            .                                          :Section
TOWN            .                                          :Township
RANG            .                                          :Range
API             .                                          :API NUMBER
UWI             .                                          :UNIQUE WELL ID
LUL             .                Service Office            :Logging Unit Location
LUN             .                          A615            :Logging Unit Number
LOC             .                Norwegian North Sea       :FIELD LOCATION
FL1             .                Section: 8 1/2 in.        :Field Location Line 1
FL2             .                Job no.: 19SCA0085        :Field Location Line 2
LATI            .deg             60° 34' 35.14" N          :LATITUDE
LONG            .deg             3° 26' 36.13" E           :LONGITUDE
PDAT            .                           MSL            :Local Permanent Datum
LMF             .                            DF            :Logging Measured From
APD             .m                        31.00            :Elevation of Depth Reference (LMF) Above Permanent Datum
EPD             .m                         0.00            :Elevation of Permanent Datum (PDAT) above Mean Sea Level
EKB             .m                      -999.25            :Elevation of Kelly Bushing Above Permanent Datum
EDF             .m                        31.00            :Elevation of Drill Floor Above Permanent Datum
EGL             .m                      -307.00            :Elevation of Ground Level Above Permanent Datum
ECF             .m                      -999.25            :Elevation of Casing Flange above Permanent Datum
#--------------------------------------------------
~CURVE INFORMATION
#MNEM           .UNIT                  API CODE            :DESCRIPTION
#----            ------          --------------            -----------------------------
TIME_1900       .d                                         :                                                        Time Index(OLE Automation date)
TIME            .s                                         :                                (10s)                   Time(hh mm ss/dd-MMM-yyyy)
DEPTH           .m                                         :(RT)    (DnMWorkflow)                                   Depth Index
BLKP            .m                                         :(RT)    (DRILLING_SURFACE)                              Height of block above rig floor
GR              .gAPI                                      :(RT)    (ARC6)                                          Gamma Ray
CRPM            .c/min                                     :(RT)    (TELE675)                                       Collar Rotational Speed
STICK           .c/min                                     :(RT)    (TELE675)                                       Stick Slip Indicator
SHKRSK          .                                          :(RT)    (TELE675)                                       Shock Risk
SHKPK           .gn                                        :(RT)    (TELE675)                                       Shock Peak
DHAT            .degC                                      :(RM)    (ARC6)                                          Downhole Annulus Temperature
DHAP            .bar                                       :(RM)    (ARC6)                                          Downhole Annulus Pressure
ECD             .g/cm3                                     :(RM)    (ARC6)                                          Equivalent Circulating Density
#-------------------------------------------------------------
#       TIME_1900                 TIME        DEPTH         BLKP           GR         CRPM        STICK       SHKRSK        SHKPK         DHAT         DHAP          ECD 
#                                       (DnMWorkfl)  (DRILLING_)       (ARC6)    (TELE675)    (TELE675)    (TELE675)    (TELE675)       (ARC6)       (ARC6)       (ARC6) 
#                                              (RT)         (RT)         (RT)         (RT)         (RT)         (RT)         (RT)         (RM)         (RM)         (RM) 
#                                (10s)                                                                                                                                   
~ASCII
# ...
 43828.7388888889 17:44:00/29-Dec-2019   2574.91992     27.17000      -999.25      -999.25      -999.25      -999.25      -999.25     31.00000    288.95930      1.14827
 43828.7390046296 17:44:10/29-Dec-2019   2574.82983     27.26000      -999.25      -999.25      -999.25      -999.25      -999.25     31.00000    290.88980      1.15594
 43828.7391203704 17:44:20/29-Dec-2019   2575.10986     26.98000      -999.25      -999.25      -999.25      -999.25      -999.25     31.00000    291.02770      1.15640
 43828.7392361111 17:44:30/29-Dec-2019   2575.20996     26.88000      -999.25      -999.25      -999.25      -999.25      -999.25     31.00000    291.16560      1.15700
 43828.7393518519 17:44:40/29-Dec-2019   2574.91992     27.17000      -999.25      -999.25      -999.25      -999.25      -999.25     31.00000    290.75190      1.15539
 43828.7394675926 17:44:50/29-Dec-2019   2574.91992     27.17000      -999.25      -999.25      -999.25      -999.25      -999.25     31.00000    291.16560      1.15704
 43828.7395833333 17:45:00/29-Dec-2019   2575.20996     26.88000      -999.25      -999.25      -999.25      -999.25      -999.25     31.00000    291.23460      1.15713
 43828.7396990741 17:45:10/29-Dec-2019   2575.20996     26.88000      -999.25      -999.25      -999.25      -999.25      -999.25     31.00000    291.37240      1.15772
 43828.7398148148 17:45:20/29-Dec-2019   2574.73022     27.36000      -999.25      -999.25      -999.25      -999.25      -999.25     31.00000    291.44140      1.15821
 43828.7399305556 17:45:30/29-Dec-2019   2575.02002     27.17000      -999.25      -999.25      -999.25      -999.25      -999.25     31.00000    291.51030      1.15836
 43828.7400462963 17:45:40/29-Dec-2019   2575.10986     26.88000      -999.25      -999.25      -999.25      -999.25      -999.25     31.00000    291.57930      1.15855
 43828.7401620370 17:45:50/29-Dec-2019   2574.63989     27.36000      -999.25      -999.25      -999.25      -999.25      -999.25     31.00000    291.64820      1.15908
 43828.7402777778 17:46:00/29-Dec-2019   2574.91992     27.07000      -999.25      -999.25      -999.25      -999.25      -999.25     31.00000    291.71720      1.15922
 43828.7403935185 17:46:10/29-Dec-2019   2575.02002     26.98000      -999.25      -999.25      -999.25      -999.25      -999.25     31.00000    291.71720      1.15909
 43828.7405092593 17:46:20/29-Dec-2019   2574.91992     26.98000      -999.25      -999.25      -999.25      -999.25      -999.25     31.00000    291.71720      1.15931
 43828.7406250000 17:46:30/29-Dec-2019   2574.63989     27.26000      -999.25      -999.25      -999.25      -999.25      -999.25     31.00000    291.85510      1.15974
 43828.7407407407 17:46:40/29-Dec-2019   2574.63989     27.36000      -999.25      -999.25      -999.25      -999.25      -999.25     31.00000    291.85510      1.15990
 43828.7408564815 17:46:50/29-Dec-2019   2574.82983     27.26000      -999.25      -999.25      -999.25      -999.25      -999.25     31.00000    291.85510      1.15981
 43828.7409722222 17:47:00/29-Dec-2019   2574.82983     27.17000      -999.25      -999.25      -999.25      -999.25      -999.25     31.00000    291.92400      1.16005
 43828.7410879630 17:47:10/29-Dec-2019   2574.73022     27.36000      -999.25      -999.25      -999.25      -999.25      -999.25     31.00000    291.92400      1.16013
 43828.7412037037 17:47:20/29-Dec-2019   2575.10986     26.88000      -999.25      -999.25      -999.25      -999.25      -999.25     31.00000    291.99300      1.16019
 43828.7413194444 17:47:30/29-Dec-2019   2575.02002     26.98000      -999.25      -999.25      -999.25      -999.25      -999.25     31.00000    292.06190      1.16046
 43828.7414351852 17:47:40/29-Dec-2019   2574.82983     27.17000      -999.25      -999.25      -999.25      -999.25      -999.25     31.00000    292.06190      1.16070
 43828.7415509259 17:47:50/29-Dec-2019   2574.91992     27.17000      -999.25      -999.25      -999.25      -999.25      -999.25     31.00000    292.06190      1.16058
 43828.7416666667 17:48:00/29-Dec-2019   2574.85010     27.24000      -999.25      -999.25      -999.25      -999.25      -999.25     31.00000    292.13090      1.16087
 43828.7417824074 17:48:10/29-Dec-2019   2574.85986     27.23000      -999.25      -999.25      -999.25      -999.25      -999.25     31.00000    290.88980      1.15596
 43828.7418981481 17:48:20/29-Dec-2019   2574.50000     27.56000      -999.25      -999.25      -999.25      -999.25      -999.25     31.00000    289.99350      1.15256
 43828.7420138889 17:48:30/29-Dec-2019   2573.04980     29.12000      -999.25      -999.25      -999.25      -999.25      -999.25     31.00000    289.09720      1.14969
 43828.7421296296 17:48:40/29-Dec-2019   2571.93994     30.15000      -999.25      -999.25      -999.25      -999.25      -999.25     31.00000    288.13190      1.14626
 43828.7422453704 17:48:50/29-Dec-2019   2571.66992     30.42000      -999.25      -999.25      -999.25      -999.25      -999.25     31.00000    290.40720      1.15544
 43828.7423611111 17:49:00/29-Dec-2019   2570.65991     31.43000      -999.25      -999.25      -999.25      -999.25      -999.25     31.00000    289.99350      1.15437
 43828.7424768518 17:49:10/29-Dec-2019   2569.26001     32.83000      -999.25      -999.25      -999.25      -999.25      -999.25     31.00000    289.92460      1.15470
 43828.7425925926 17:49:20/29-Dec-2019   2569.53003     32.56000      -999.25      -999.25      -999.25      -999.25      -999.25     31.00000    290.13140      1.15535
 43828.7427083333 17:49:30/29-Dec-2019   2569.61987     32.47000      -999.25      -999.25      -999.25      -999.25      -999.25     31.00000    290.26930      1.15589
 43828.7428240741 17:49:40/29-Dec-2019   2569.46997     32.62000      -999.25      -999.25      -999.25      -999.25      -999.25     31.00000    290.33820      1.15618
 43828.7429398148 17:49:50/29-Dec-2019   2569.91992     32.17000      -999.25      -999.25      -999.25      -999.25      -999.25     31.00000    290.47610      1.15664
 43828.7430555556 17:50:00/29-Dec-2019   2569.60010     32.49000      -999.25      -999.25      -999.25      -999.25      -999.25     31.00000    290.54510      1.15699
 43828.7431712963 17:50:10/29-Dec-2019   2569.41016     32.68000      -999.25      -999.25      -999.25      -999.25      -999.25     31.00000    290.61400      1.15733
 43828.7432870370 17:50:20/29-Dec-2019   2569.60010     32.49000      -999.25      -999.25      -999.25      -999.25      -999.25     31.00000    290.75190      1.15783
 43828.7434027778 17:50:30/29-Dec-2019   2569.41016     32.68000      -999.25      -999.25      -999.25      -999.25      -999.25     31.00000    290.75190      1.15788
 43828.7435185185 17:50:40/29-Dec-2019   2569.60010     32.49000      -999.25      -999.25      -999.25      -999.25      -999.25     31.00000    290.82090      1.15817
 43828.7436342593 17:50:50/29-Dec-2019   2569.60010     32.40000      -999.25      -999.25      -999.25      -999.25      -999.25     31.00000    290.82090      1.15806
 43828.7437500000 17:51:00/29-Dec-2019   2569.31006     32.78000      -999.25      -999.25      -999.25      -999.25      -999.25     31.00000    290.88980      1.15847
 43828.7438657407 17:51:10/29-Dec-2019   2569.21021     32.88000      -999.25      -999.25      -999.25      -999.25      -999.25     31.00000    290.95880      1.15883
 43828.7439814815 17:51:20/29-Dec-2019   2569.79004     32.30000      -999.25      -999.25      -999.25      -999.25      -999.25     31.00000    290.95880      1.15853
 43828.7440972222 17:51:30/29-Dec-2019   2569.31006     32.78000      -999.25      -999.25      -999.25      -999.25      -999.25     31.00000    291.02770      1.15889
 43828.7442129630 17:51:40/29-Dec-2019   2569.11987     32.97000      -999.25      -999.25      -999.25      -999.25      -999.25     31.00000    291.02770      1.15910
 43828.7443287037 17:51:50/29-Dec-2019   2569.60010     32.49000      -999.25      -999.25      -999.25      -999.25      -999.25     31.00000    291.09670      1.15911
