~VERSION INFORMATION 
VERS  .    2.0                                     :CWLS Log ASCII Standard - VERSION 2.0
WRAP  .    NO                                      :One Line per Time step
PROD  .    Schlumberger Technology Corp.           :LAS Producer
PROG  .    Horizon LASWriter 9.2.113335.3100       :LAS Program name and version
SOURCE.    Run 10-TimeLogicalAcq                   :Run&Pass Information
CREA  .    01/21/2020                              :LAS Creation date {MM/DD/YYYY}
#--------------------------------------------------
~WELL INFORMATION 
#MNEM           .UNIT                      DATA            :DESCRIPTION
#----            ------          --------------            -----------------------------
STRT            .d               43830.7500000000          :START TIME(OLE Automation date)
STOP            .d               43831.2291666667          :STOP TIME(OLE Automation date)
STEP            .d                            0            :STEP TIME(10s in time)
NULL            .                       -999.25            :NULL VALUE
COMP            .                       Equinor            :COMPANY
WELL            .                        31/5-7            :WELL NAME
FLD             .                           Eos            :FIELD NAME
RIGN            .                 West Hercules            :Rig Name
RIGTYP          .                Semi-Submersible          :Rig Type
SON             .                     19SCA0085            :Service Order Number
SRVC            .                  Schlumberger            :SERVICE COMPANY
DATE            .                    12/31/2019            :LOG DATE(Composite Date for Composite LAP) (MM/DD/YYYY)
CLAB            .                       County:            :County Label
CNTY            .                                          :COUNTY
SLAB            .                                          :State/Province Label
STAT            .                                          :STATE or PROVINCE
PROV            .                                          :STATE or PROVINCE
CTRY            .                        Norway            :COUNTRY
CONT_REGION     .                        Europe            :Continent Region
SECT            .                                          :Section
TOWN            .                                          :Township
RANG            .                                          :Range
API             .                                          :API NUMBER
UWI             .                                          :UNIQUE WELL ID
LUL             .                Service Office            :Logging Unit Location
LUN             .                          A615            :Logging Unit Number
LOC             .                Norwegian North Sea       :FIELD LOCATION
FL1             .                Section: 8 1/2 in.        :Field Location Line 1
FL2             .                Job no.: 19SCA0085        :Field Location Line 2
LATI            .deg             60° 34' 35.14" N          :LATITUDE
LONG            .deg             3° 26' 36.13" E           :LONGITUDE
PDAT            .                           MSL            :Local Permanent Datum
LMF             .                            DF            :Logging Measured From
APD             .m                        31.00            :Elevation of Depth Reference (LMF) Above Permanent Datum
EPD             .m                         0.00            :Elevation of Permanent Datum (PDAT) above Mean Sea Level
EKB             .m                      -999.25            :Elevation of Kelly Bushing Above Permanent Datum
EDF             .m                        31.00            :Elevation of Drill Floor Above Permanent Datum
EGL             .m                      -307.00            :Elevation of Ground Level Above Permanent Datum
ECF             .m                      -999.25            :Elevation of Casing Flange above Permanent Datum
#--------------------------------------------------
~CURVE INFORMATION
#MNEM           .UNIT                  API CODE            :DESCRIPTION
#----            ------          --------------            -----------------------------
TIME_1900       .d                                         :                                                        Time Index(OLE Automation date)
TIME            .s                                         :                                (10s)                   Time(hh mm ss/dd-MMM-yyyy)
DEPTH           .m                                         :(RT)    (DnMWorkflow)                                   Depth Index
BLKP            .m                                         :(RT)    (DRILLING_SURFACE)                              Height of block above rig floor
GR              .gAPI                                      :(RT)    (ARC6)                                          Gamma Ray
CRPM            .c/min                                     :(RT)    (TELE675)                                       Collar Rotational Speed
STICK           .c/min                                     :(RT)    (TELE675)                                       Stick Slip Indicator
SHKRSK          .                                          :(RT)    (TELE675)                                       Shock Risk
SHKPK           .gn                                        :(RT)    (TELE675)                                       Shock Peak
DHAT            .degC                                      :(RM)    (ARC6)                                          Downhole Annulus Temperature
DHAP            .bar                                       :(RM)    (ARC6)                                          Downhole Annulus Pressure
ECD             .g/cm3                                     :(RM)    (ARC6)                                          Equivalent Circulating Density
#-------------------------------------------------------------
#       TIME_1900                 TIME        DEPTH         BLKP           GR         CRPM        STICK       SHKRSK        SHKPK         DHAT         DHAP          ECD 
#                                       (DnMWorkfl)  (DRILLING_)       (ARC6)    (TELE675)    (TELE675)    (TELE675)    (TELE675)       (ARC6)       (ARC6)       (ARC6) 
#                                              (RT)         (RT)         (RT)         (RT)         (RT)         (RT)         (RT)         (RM)         (RM)         (RM) 
#                                (10s)                                                                                                                                   
~ASCII
# ...
 43830.8055555556 19:20:00/31-Dec-2019   1914.28003     42.12000      -999.25      -999.25      -999.25      -999.25      -999.25     53.00000    224.97590      1.20399
 43830.8056712963 19:20:10/31-Dec-2019   1914.03992     42.21000      -999.25      -999.25      -999.25      -999.25      -999.25     53.00000    225.87220      1.20912
 43830.8057870370 19:20:20/31-Dec-2019   1927.37012     28.88000      -999.25      -999.25      -999.25      -999.25      -999.25     53.00000    225.45860      1.19962
 43830.8059027778 19:20:30/31-Dec-2019   1943.65002     12.60000      -999.25      -999.25      -999.25      -999.25      -999.25     53.00000    229.31960      1.20763
 43830.8060185185 19:20:40/31-Dec-2019   1952.07007      4.18000      -999.25      -999.25      -999.25      -999.25      -999.25     54.00000    235.66280      1.23660
 43830.8061342593 19:20:50/31-Dec-2019   1952.71997      3.53000      -999.25      -999.25      -999.25      -999.25      -999.25     54.00000    225.11380      1.18090
 43830.8062500000 19:21:00/31-Dec-2019   1952.97998      3.57000      -999.25      -999.25      -999.25      -999.25      -999.25     55.00000    226.28590      1.18689
 43830.8063657407 19:21:10/31-Dec-2019   1952.97998     15.00000      -999.25      -999.25      -999.25      -999.25      -999.25     55.00000    226.76860      1.18942
 43830.8064814815 19:21:20/31-Dec-2019   1952.97998     32.12000      -999.25      -999.25      -999.25      -999.25      -999.25     55.00000    226.76860      1.18942
 43830.8065972222 19:21:30/31-Dec-2019   1952.97998     41.41000      -999.25      -999.25      -999.25      -999.25      -999.25     55.00000    228.42330      1.19810
 43830.8067129630 19:21:40/31-Dec-2019   1952.97998     42.12000      -999.25      -999.25      -999.25      -999.25      -999.25     55.00000    227.45800      1.19304
 43830.8068287037 19:21:50/31-Dec-2019   1952.97998     42.12000      -999.25      -999.25      -999.25      -999.25      -999.25     55.00000    226.28590      1.18689
 43830.8069444444 19:22:00/31-Dec-2019   1956.13000     38.89000      -999.25      -999.25      -999.25      -999.25      -999.25     55.00000    228.63020      1.19811
 43830.8070601852 19:22:10/31-Dec-2019   1971.63000     23.39000      -999.25      -999.25      -999.25      -999.25      -999.25     55.00000    232.83600      1.20879
 43830.8071759259 19:22:20/31-Dec-2019   1986.90002      8.12000      -999.25      -999.25      -999.25      -999.25      -999.25     55.00000    237.45540      1.22328
 43830.8072916667 19:22:30/31-Dec-2019   1991.22998      3.83000      -999.25      -999.25      -999.25      -999.25      -999.25     55.00000    236.07650      1.21444
 43830.8074074074 19:22:40/31-Dec-2019   1991.48999      3.53000      -999.25      -999.25      -999.25      -999.25      -999.25     56.00000    236.21440      1.21490
 43830.8075231481 19:22:50/31-Dec-2019   1991.75000      5.05000      -999.25      -999.25      -999.25      -999.25      -999.25     56.00000    232.14650      1.19382
 43830.8076388889 19:23:00/31-Dec-2019   1991.75000     20.15000      -999.25      -999.25      -999.25      -999.25      -999.25     56.00000    233.24960      1.19950
 43830.8077546296 19:23:10/31-Dec-2019   1991.75000     37.08000      -999.25      -999.25      -999.25      -999.25      -999.25     56.00000    234.49070      1.20588
 43830.8078703704 19:23:20/31-Dec-2019   1991.75000     41.88000      -999.25      -999.25      -999.25      -999.25      -999.25     56.00000    233.24960      1.19950
 43830.8079861111 19:23:30/31-Dec-2019   1991.75000     42.12000      -999.25      -999.25      -999.25      -999.25      -999.25     56.00000    232.42230      1.19524
 43830.8081018519 19:23:40/31-Dec-2019   1991.75000     42.14000      -999.25      -999.25      -999.25      -999.25      -999.25     56.00000    230.21590      1.18390
 43830.8082175926 19:23:50/31-Dec-2019   1997.02002     36.72000      -999.25      -999.25      -999.25      -999.25      -999.25     56.00000    230.28490      1.18014
 43830.8083333333 19:24:00/31-Dec-2019   2013.34009     20.40000      -999.25      -999.25      -999.25      -999.25      -999.25     56.00000    240.35120      1.22153
 43830.8084490741 19:24:10/31-Dec-2019   2027.69995      6.04000      -999.25      -999.25      -999.25      -999.25      -999.25     56.00000    241.04070      1.21787
 43830.8085648148 19:24:20/31-Dec-2019   2030.18005      3.56000      -999.25      -999.25      -999.25      -999.25      -999.25     56.00000    238.35180      1.20246
 43830.8086805556 19:24:30/31-Dec-2019   2030.38000      3.36000      -999.25      -999.25      -999.25      -999.25      -999.25     57.00000    237.11070      1.19610
 43830.8087962963 19:24:40/31-Dec-2019   2030.41003      7.45000      -999.25      -999.25      -999.25      -999.25      -999.25     57.00000    234.42170      1.18247
 43830.8089120370 19:24:50/31-Dec-2019   2030.41003     23.47000      -999.25      -999.25      -999.25      -999.25      -999.25     57.00000    234.07700      1.18073
 43830.8090277778 19:25:00/31-Dec-2019   2030.41003     39.37000      -999.25      -999.25      -999.25      -999.25      -999.25     57.00000    237.38650      1.19742
 43830.8091435185 19:25:10/31-Dec-2019   2030.41003     42.12000      -999.25      -999.25      -999.25      -999.25      -999.25     57.00000    234.90440      1.18490
 43830.8092592593 19:25:20/31-Dec-2019   2030.41003     42.12000      -999.25      -999.25      -999.25      -999.25      -999.25     57.00000    233.93910      1.18004
 43830.8093750000 19:25:30/31-Dec-2019   2030.39014     41.85000      -999.25      -999.25      -999.25      -999.25      -999.25     57.00000    233.11170      1.17531
 43830.8094907407 19:25:40/31-Dec-2019   2044.33008     27.91000      -999.25      -999.25      -999.25      -999.25      -999.25     57.00000    243.45390      1.21866
 43830.8096064815 19:25:50/31-Dec-2019   2060.30005     11.94000      -999.25      -999.25      -999.25      -999.25      -999.25     57.00000    244.35020      1.21514
 43830.8097222222 19:26:00/31-Dec-2019   2068.18994      4.05000      -999.25      -999.25      -999.25      -999.25      -999.25     57.00000    246.69440      1.22161
 43830.8098379630 19:26:10/31-Dec-2019   2068.70996      3.53000      -999.25      -999.25      -999.25      -999.25      -999.25     58.00000    240.48910      1.19052
 43830.8099537037 19:26:20/31-Dec-2019   2068.95996      3.79000      -999.25      -999.25      -999.25      -999.25      -999.25     58.00000    241.24760      1.19413
 43830.8100694444 19:26:30/31-Dec-2019   2068.95996     16.88000      -999.25      -999.25      -999.25      -999.25      -999.25     58.00000    239.38600      1.18491
 43830.8101851852 19:26:40/31-Dec-2019   2068.95996     33.53000      -999.25      -999.25      -999.25      -999.25      -999.25     58.00000    238.21390      1.17911
 43830.8103009259 19:26:50/31-Dec-2019   2068.95996     41.66999      -999.25      -999.25      -999.25      -999.25      -999.25     58.00000    240.21330      1.18901
 43830.8104166667 19:27:00/31-Dec-2019   2068.95996     42.12000      -999.25      -999.25      -999.25      -999.25      -999.25     58.00000    241.38540      1.19481
 43830.8105324074 19:27:10/31-Dec-2019   2068.95996     42.12000      -999.25      -999.25      -999.25      -999.25      -999.25     58.00000    240.97180      1.19276
 43830.8106481481 19:27:20/31-Dec-2019   2068.95996     42.12000      -999.25      -999.25      -999.25      -999.25      -999.25     58.00000    241.17860      1.19379
 43830.8107638889 19:27:30/31-Dec-2019   2068.95996     42.12000      -999.25      -999.25      -999.25      -999.25      -999.25     58.00000    240.48910      1.19038
 43830.8108796296 19:27:40/31-Dec-2019   2072.18994     38.73000      -999.25      -999.25      -999.25      -999.25      -999.25     58.00000    238.21390      1.17778
 43830.8109953704 19:27:50/31-Dec-2019   2088.09009     22.83000      -999.25      -999.25      -999.25      -999.25      -999.25     58.00000    245.17760      1.20297
