~VERSION INFORMATION 
VERS  .    2.0                                     :CWLS Log ASCII Standard - VERSION 2.0
WRAP  .    NO                                      :One Line per Time step
PROD  .    Schlumberger Technology Corp.           :LAS Producer
PROG  .    Horizon LASWriter 9.2.113335.3100       :LAS Program name and version
SOURCE.    Run 3-TimeLogicalAcq                    :Run&Pass Information
CREA  .    12/12/2019                              :LAS Creation date {MM/DD/YYYY}
#--------------------------------------------------
~WELL INFORMATION 
#MNEM           .UNIT                      DATA            :DESCRIPTION
#----            ------          --------------            -----------------------------
STRT            .d               43804.6875000000          :START TIME(OLE Automation date)
STOP            .d               43805.8541666667          :STOP TIME(OLE Automation date)
STEP            .d                            0            :STEP TIME(10s in time)
NULL            .                       -999.25            :NULL VALUE
COMP            .                       Equinor            :COMPANY
WELL            .                        31/5-7            :WELL NAME
FLD             .                           Eos            :FIELD NAME
RIGN            .                 West Hercules            :Rig Name
RIGTYP          .                Semi-Submersible          :Rig Type
SON             .                     19SCA0085            :Service Order Number
SRVC            .                  Schlumberger            :SERVICE COMPANY
DATE            .                    12/05/2019            :LOG DATE(Composite Date for Composite LAP) (MM/DD/YYYY)
CLAB            .                       County:            :County Label
CNTY            .                                          :COUNTY
SLAB            .                                          :State/Province Label
STAT            .                                          :STATE or PROVINCE
PROV            .                                          :STATE or PROVINCE
CTRY            .                        Norway            :COUNTRY
CONT_REGION     .                        Europe            :Continent Region
SECT            .                                          :Section
TOWN            .                                          :Township
RANG            .                                          :Range
API             .                                          :API NUMBER
UWI             .                                          :UNIQUE WELL ID
LUL             .                Service Office            :Logging Unit Location
LUN             .                          A615            :Logging Unit Number
LOC             .                Norwegian North Sea       :FIELD LOCATION
FL1             .                Section: 26 in.           :Field Location Line 1
FL2             .                Job no.: 19SCA0085        :Field Location Line 2
LATI            .deg             60° 34' 35.14" N          :LATITUDE
LONG            .deg             3° 26' 36.13" E           :LONGITUDE
PDAT            .                           MSL            :Local Permanent Datum
LMF             .                            DF            :Logging Measured From
APD             .m                        31.00            :Elevation of Depth Reference (LMF) Above Permanent Datum
EPD             .m                         0.00            :Elevation of Permanent Datum (PDAT) above Mean Sea Level
EKB             .m                      -999.25            :Elevation of Kelly Bushing Above Permanent Datum
EDF             .m                        31.00            :Elevation of Drill Floor Above Permanent Datum
EGL             .m                      -307.00            :Elevation of Ground Level Above Permanent Datum
ECF             .m                      -999.25            :Elevation of Casing Flange above Permanent Datum
#--------------------------------------------------
~CURVE INFORMATION
#MNEM           .UNIT                  API CODE            :DESCRIPTION
#----            ------          --------------            -----------------------------
TIME_1900       .d                                         :                                                        Time Index(OLE Automation date)
TIME            .s                                         :                                (10s)                   Time(hh mm ss/dd-MMM-yyyy)
DEPTH           .m                                         :(RT)    (DnMWorkflow)                                   Depth Index
GR_CAL          .gAPI                                      :(RT)    (ARC9)                                          Calibrated Gamma Ray
BLKP            .m                                         :(RT)    (DRILLING_SURFACE)                              Height of block above rig floor
CRPM            .c/min                                     :(RT)    (TELE900)                                       Collar Rotational Speed
STICK           .c/min                                     :(RT)    (TELE900)                                       Stick Slip Indicator
SHKPK           .gn                                        :(RT)    (TELE900)                                       Shock Peak
SHKRSK          .                                          :(RT)    (TELE900)                                       Shock Risk
DHAP            .bar                                       :(RM)    (ARC9)                                          Downhole Annulus Pressure
DHAT            .degC                                      :(RM)    (ARC9)                                          Downhole Annulus Temperature
ECD             .g/cm3                                     :(RM)    (ARC9)                                          Equivalent Circulating Density
#-------------------------------------------------------------
#       TIME_1900                 TIME        DEPTH       GR_CAL         BLKP         CRPM        STICK        SHKPK       SHKRSK         DHAP         DHAT          ECD 
#                                       (DnMWorkfl)       (ARC9)  (DRILLING_)    (TELE900)    (TELE900)    (TELE900)    (TELE900)       (ARC9)       (ARC9)       (ARC9) 
#                                              (RT)         (RT)         (RT)         (RT)         (RT)         (RT)         (RT)         (RM)         (RM)         (RM) 
#                                (10s)                                                                                                                                   
~ASCII
# ...
 43804.7652777778 18:22:00/05-Dec-2019     404.8300      -999.25      24.7200      -999.25      -999.25      -999.25      -999.25      37.0249      12.0000       1.0742
 43804.7653935185 18:22:10/05-Dec-2019     404.8300      -999.25      24.7200      -999.25      -999.25      -999.25      -999.25      37.0249      12.0000       1.0742
 43804.7655092593 18:22:20/05-Dec-2019     404.8300      -999.25      24.7200      -999.25      -999.25      -999.25      -999.25      36.9559      12.0000       1.0722
 43804.7656250000 18:22:30/05-Dec-2019     404.8300      -999.25      24.7200      -999.25      -999.25      -999.25      -999.25      37.0249      12.0000       1.0742
 43804.7657407407 18:22:40/05-Dec-2019     404.8200      -999.25      24.7300      -999.25      -999.25      -999.25      -999.25      36.9559      12.0000       1.0722
 43804.7658564815 18:22:50/05-Dec-2019     404.8400      -999.25      24.7100      -999.25      -999.25      -999.25      -999.25      36.9559      12.0000       1.0721
 43804.7659722222 18:23:00/05-Dec-2019     404.7300      -999.25      24.8200      -999.25      -999.25      -999.25      -999.25      36.9559      12.0000       1.0725
 43804.7660879630 18:23:10/05-Dec-2019     404.2100      -999.25      25.3400      -999.25      -999.25      -999.25      -999.25      37.0249      12.0000       1.0761
 43804.7662037037 18:23:20/05-Dec-2019     404.1400      -999.25      25.4100      -999.25      -999.25      -999.25      -999.25      36.9559      12.0000       1.0743
 43804.7663194444 18:23:30/05-Dec-2019     404.1700      -999.25      25.3800      -999.25      -999.25      -999.25      -999.25      36.9559      12.0000       1.0742
 43804.7664351852 18:23:40/05-Dec-2019     404.2600      -999.25      25.2900      -999.25      -999.25      -999.25      -999.25      36.9559      12.0000       1.0739
 43804.7665509259 18:23:50/05-Dec-2019     404.1900      -999.25      25.3600      -999.25      -999.25      -999.25      -999.25      36.9559      12.0000       1.0741
 43804.7666666667 18:24:00/05-Dec-2019     404.1900      -999.25      25.3600      -999.25      -999.25      -999.25      -999.25      36.9559      12.0000       1.0741
 43804.7667824074 18:24:10/05-Dec-2019     404.1900      -999.25      25.3600      -999.25      -999.25      -999.25      -999.25      36.8870      12.0000       1.0721
 43804.7668981481 18:24:20/05-Dec-2019     404.1900      -999.25      25.3600      -999.25      -999.25      -999.25      -999.25      36.8870      12.0000       1.0721
 43804.7670138889 18:24:30/05-Dec-2019     404.1900      -999.25      25.3600      -999.25      -999.25      -999.25      -999.25      37.0249      12.0000       1.0761
 43804.7671296296 18:24:40/05-Dec-2019     404.1900      -999.25      25.3600      -999.25      -999.25      -999.25      -999.25      36.8870      12.0000       1.0721
 43804.7672453704 18:24:50/05-Dec-2019     404.1900      -999.25      25.3600      -999.25      -999.25      -999.25      -999.25      36.8870      12.0000       1.0721
 43804.7673611111 18:25:00/05-Dec-2019     403.7200      -999.25      25.8300      -999.25      -999.25      -999.25      -999.25      36.9559      12.0000       1.0756
 43804.7674768518 18:25:10/05-Dec-2019     403.3400      -999.25      26.2100      -999.25      -999.25      -999.25      -999.25      36.9559      12.0000       1.0767
 43804.7675925926 18:25:20/05-Dec-2019     403.6200      -999.25      25.9300      -999.25      -999.25      -999.25      -999.25      36.8180      12.0000       1.0718
 43804.7677083333 18:25:30/05-Dec-2019     403.6200      -999.25      25.9300      -999.25      -999.25      -999.25      -999.25      36.8180      12.0000       1.0719
 43804.7678240741 18:25:40/05-Dec-2019     403.6200      -999.25      25.9300      -999.25      -999.25      -999.25      -999.25      36.8870      12.0000       1.0739
 43804.7679398148 18:25:50/05-Dec-2019     403.6200      -999.25      25.9300      -999.25      -999.25      -999.25      -999.25      36.8870      12.0000       1.0739
 43804.7680555556 18:26:00/05-Dec-2019     403.6200      -999.25      25.9300      -999.25      -999.25      -999.25      -999.25      36.8870      12.0000       1.0739
 43804.7681712963 18:26:10/05-Dec-2019     403.6200      -999.25      25.9300      -999.25      -999.25      -999.25      -999.25      36.8870      12.0000       1.0739
 43804.7682870370 18:26:20/05-Dec-2019     403.6200      -999.25      25.9300      -999.25      -999.25      -999.25      -999.25      36.8870      12.0000       1.0739
 43804.7684027778 18:26:30/05-Dec-2019     403.6200      -999.25      25.9300      -999.25      -999.25      -999.25      -999.25      36.8180      12.0000       1.0719
 43804.7685185185 18:26:40/05-Dec-2019     403.4300      -999.25      26.1200      -999.25      -999.25      -999.25      -999.25      36.8870      12.0000       1.0744
 43804.7686342593 18:26:50/05-Dec-2019     403.6200      -999.25      25.9300      -999.25      -999.25      -999.25      -999.25      36.8180      12.0000       1.0719
 43804.7687500000 18:27:00/05-Dec-2019     403.6200      -999.25      25.9300      -999.25      -999.25      -999.25      -999.25      36.8180      12.0000       1.0719
 43804.7688657407 18:27:10/05-Dec-2019     403.6200      -999.25      25.9300      -999.25      -999.25      -999.25      -999.25      36.8180      12.0000       1.0719
 43804.7689814815 18:27:20/05-Dec-2019     403.6200      -999.25      25.9300      -999.25      -999.25      -999.25      -999.25      36.8180      12.0000       1.0719
 43804.7690972222 18:27:30/05-Dec-2019     403.6200      -999.25      25.9300      -999.25      -999.25      -999.25      -999.25      36.7491      12.0000       1.0699
 43804.7692129630 18:27:40/05-Dec-2019     403.8100      -999.25      25.8300      -999.25      -999.25      -999.25      -999.25      36.8870      12.0000       1.0733
 43804.7693287037 18:27:50/05-Dec-2019     403.9100      -999.25      25.6400      -999.25      -999.25      -999.25      -999.25      36.9559      12.0000       1.0750
 43804.7694444444 18:28:00/05-Dec-2019     404.0000      -999.25      25.4600      -999.25      -999.25      -999.25      -999.25      36.8870      12.0000       1.0727
 43804.7695601852 18:28:10/05-Dec-2019     403.9100      -999.25      25.6400      -999.25      -999.25      -999.25      -999.25      36.8870      12.0000       1.0730
 43804.7696759259 18:28:20/05-Dec-2019     404.1900      -999.25      25.3600      -999.25      -999.25      -999.25      -999.25      36.8870      12.0000       1.0721
 43804.7697916667 18:28:30/05-Dec-2019     404.1900      -999.25      25.3600      -999.25      -999.25      -999.25      -999.25      36.8180      12.0000       1.0701
 43804.7699074074 18:28:40/05-Dec-2019     404.1900      -999.25      25.5500      -999.25      -999.25      -999.25      -999.25      36.8180      12.0000       1.0702
 43804.7700231481 18:28:50/05-Dec-2019     403.7200      -999.25      25.8300      -999.25      -999.25      -999.25      -999.25      36.8180      12.0000       1.0716
 43804.7701388889 18:29:00/05-Dec-2019     403.9100      -999.25      25.6400      -999.25      -999.25      -999.25      -999.25      36.8870      12.0000       1.0730
 43804.7702546296 18:29:10/05-Dec-2019     403.9100      -999.25      25.8300      -999.25      -999.25      -999.25      -999.25      36.8180      12.0000       1.0711
 43804.7703703704 18:29:20/05-Dec-2019     403.7200      -999.25      25.8300      -999.25      -999.25      -999.25      -999.25      36.8870      12.0000       1.0736
 43804.7704861111 18:29:30/05-Dec-2019     404.3700      -999.25      25.1800      -999.25      -999.25      -999.25      -999.25      36.8870      12.0000       1.0716
 43804.7706018519 18:29:40/05-Dec-2019     404.2800      -999.25      25.2700      -999.25      -999.25      -999.25      -999.25      36.8870      12.0000       1.0719
 43804.7707175926 18:29:50/05-Dec-2019     404.1900      -999.25      25.3600      -999.25      -999.25      -999.25      -999.25      36.8180      12.0000       1.0702
