~VERSION INFORMATION 
VERS  .    2.0                                     :CWLS Log ASCII Standard - VERSION 2.0
WRAP  .    NO                                      :One Line per Time step
PROD  .    Schlumberger Technology Corp.           :LAS Producer
PROG  .    Horizon LASWriter 9.2.113335.3100       :LAS Program name and version
SOURCE.    Run 12-TimeLogicalAcq                   :Run&Pass Information
CREA  .    01/21/2020                              :LAS Creation date {MM/DD/YYYY}
#--------------------------------------------------
~WELL INFORMATION 
#MNEM           .UNIT                      DATA            :DESCRIPTION
#----            ------          --------------            -----------------------------
STRT            .d               43837.2295138889          :START TIME(OLE Automation date)
STOP            .d               43837.6875000000          :STOP TIME(OLE Automation date)
STEP            .d                            0            :STEP TIME(10s in time)
NULL            .                       -999.25            :NULL VALUE
COMP            .                       Equinor            :COMPANY
WELL            .                        31/5-7            :WELL NAME
FLD             .                           Eos            :FIELD NAME
RIGN            .                 West Hercules            :Rig Name
RIGTYP          .                Semi-Submersible          :Rig Type
SON             .                     19SCA0085            :Service Order Number
SRVC            .                  Schlumberger            :SERVICE COMPANY
DATE            .                    01/07/2020            :LOG DATE(Composite Date for Composite LAP) (MM/DD/YYYY)
CLAB            .                       County:            :County Label
CNTY            .                                          :COUNTY
SLAB            .                                          :State/Province Label
STAT            .                                          :STATE or PROVINCE
PROV            .                                          :STATE or PROVINCE
CTRY            .                        Norway            :COUNTRY
CONT_REGION     .                        Europe            :Continent Region
SECT            .                                          :Section
TOWN            .                                          :Township
RANG            .                                          :Range
API             .                                          :API NUMBER
UWI             .                                          :UNIQUE WELL ID
LUL             .                Service Office            :Logging Unit Location
LUN             .                          A615            :Logging Unit Number
LOC             .                Norwegian North Sea       :FIELD LOCATION
FL1             .                Section: 8 1/2 in.        :Field Location Line 1
FL2             .                Job no.: 19SCA0085        :Field Location Line 2
LATI            .deg             60° 34' 35.14" N          :LATITUDE
LONG            .deg             3° 26' 36.13" E           :LONGITUDE
PDAT            .                           MSL            :Local Permanent Datum
LMF             .                            DF            :Logging Measured From
APD             .m                        31.00            :Elevation of Depth Reference (LMF) Above Permanent Datum
EPD             .m                         0.00            :Elevation of Permanent Datum (PDAT) above Mean Sea Level
EKB             .m                      -999.25            :Elevation of Kelly Bushing Above Permanent Datum
EDF             .m                        31.00            :Elevation of Drill Floor Above Permanent Datum
EGL             .m                      -307.00            :Elevation of Ground Level Above Permanent Datum
ECF             .m                      -999.25            :Elevation of Casing Flange above Permanent Datum
#--------------------------------------------------
~CURVE INFORMATION
#MNEM           .UNIT                  API CODE            :DESCRIPTION
#----            ------          --------------            -----------------------------
TIME_1900       .d                                         :                                                        Time Index(OLE Automation date)
TIME            .s                                         :                                (10s)                   Time(hh mm ss/dd-MMM-yyyy)
DEPTH           .m                                         :(RT)    (DnMWorkflow)                                   Depth Index
BLKP            .m                                         :(RT)    (DRILLING_SURFACE)                              Height of block above rig floor
GR              .gAPI                                      :(RT)    (ARC6)                                          Gamma Ray
CRPM            .c/min                                     :(RT)    (TELE675)                                       Collar Rotational Speed
STICK           .c/min                                     :(RT)    (TELE675)                                       Stick Slip Indicator
SHKRSK          .                                          :(RT)    (TELE675)                                       Shock Risk
SHKPK           .gn                                        :(RT)    (TELE675)                                       Shock Peak
DHAT            .degC                                      :(RM)    (ARC6)                                          Downhole Annulus Temperature
DHAP            .bar                                       :(RM)    (ARC6)                                          Downhole Annulus Pressure
ECD             .g/cm3                                     :(RM)    (ARC6)                                          Equivalent Circulating Density
#-------------------------------------------------------------
#       TIME_1900                 TIME        DEPTH         BLKP           GR         CRPM        STICK       SHKRSK        SHKPK         DHAT         DHAP          ECD 
#                                       (DnMWorkfl)  (DRILLING_)       (ARC6)    (TELE675)    (TELE675)    (TELE675)    (TELE675)       (ARC6)       (ARC6)       (ARC6) 
#                                              (RT)         (RT)         (RT)         (RT)         (RT)         (RT)         (RT)         (RM)         (RM)         (RM) 
#                                (10s)                                                                                                                                   
~ASCII
# ...
 43837.3906250000 09:22:30/07-Jan-2020   2675.92993     42.00000     53.43343      -999.25      -999.25      -999.25      -999.25     40.00000    310.33300      1.18652
 43837.3907407407 09:22:40/07-Jan-2020   2675.57007     42.27000     52.49837      -999.25      -999.25      -999.25      -999.25     40.00000    313.57360      1.19906
 43837.3908564815 09:22:50/07-Jan-2020   2675.65991     42.18000     52.65668      -999.25      -999.25      -999.25      -999.25     40.00000    312.33250      1.19428
 43837.3909722222 09:23:00/07-Jan-2020   2675.65991     42.18000     52.86142      -999.25      -999.25      -999.25      -999.25     40.00000    312.88410      1.19639
 43837.3910879630 09:23:10/07-Jan-2020   2675.57007     42.27000     53.08984      -999.25      -999.25      -999.25      -999.25     39.00000    313.36670      1.19827
 43837.3912037037 09:23:20/07-Jan-2020   2675.75000     42.09000     53.31676      -999.25      -999.25      -999.25      -999.25     39.00000    311.57410      1.19134
 43837.3913194444 09:23:30/07-Jan-2020   2675.20996     42.63000     53.51766      -999.25      -999.25      -999.25      -999.25     39.00000    315.29720      1.20582
 43837.3914351852 09:23:40/07-Jan-2020   2675.84009     42.00000     53.67146      -999.25      -999.25      -999.25      -999.25     39.00000    313.09090      1.19710
 43837.3915509259 09:23:50/07-Jan-2020   2675.47998     42.36000     53.76301      -999.25      -999.25      -999.25      -999.25     39.00000    313.09090      1.19726
 43837.3916666667 09:24:00/07-Jan-2020   2675.57007     42.27000     53.78480      -999.25      -999.25      -999.25      -999.25     39.00000    312.12570      1.19353
 43837.3917824074 09:24:10/07-Jan-2020   2675.57007     42.27000     53.73775      -999.25      -999.25      -999.25      -999.25     39.00000    312.95300      1.19669
 43837.3918981481 09:24:20/07-Jan-2020   2675.47998     42.36000     53.63102      -999.25      -999.25      -999.25      -999.25     39.00000    312.47040      1.19488
 43837.3920138889 09:24:30/07-Jan-2020   2675.84009     42.00000     53.48078      -999.25      -999.25      -999.25      -999.25     39.00000    311.16040      1.18971
 43837.3921296296 09:24:40/07-Jan-2020   2675.47998     42.36000     53.30814      -999.25      -999.25      -999.25      -999.25     39.00000    312.12570      1.19357
 43837.3922453704 09:24:50/07-Jan-2020   2675.65991     42.18000     53.13655      -999.25      -999.25      -999.25      -999.25     39.00000    313.02200      1.19691
 43837.3923611111 09:25:00/07-Jan-2020   2675.57007     42.27000     52.98889      -999.25      -999.25      0.00000      0.00000     39.00000    311.50510      1.19115
 43837.3924768518 09:25:10/07-Jan-2020   2675.64990     42.19000     52.88461      -999.25      -999.25      -999.25      -999.25     39.00000    312.60830      1.19534
 43837.3925925926 09:25:20/07-Jan-2020   2675.97998     42.03000     52.41112      -999.25      -999.25      -999.25      -999.25     39.00000    311.98780      1.19283
 43837.3927083333 09:25:30/07-Jan-2020   2675.62988     42.21000     51.67934      -999.25      -999.25      -999.25      -999.25     39.00000    315.64200      1.20694
 43837.3928240741 09:25:40/07-Jan-2020   2675.54004     42.30000     50.84425      -999.25      -999.25      -999.25      -999.25     39.00000    314.53880      1.20277
 43837.3929398148 09:25:50/07-Jan-2020   2675.62988     42.21000     50.41815      -999.25      -999.25      0.00000      0.00000     39.00000    311.16040      1.18981
 43837.3930555556 09:26:00/07-Jan-2020   2675.72021     42.12000     50.84425      -999.25      -999.25      -999.25      -999.25     39.00000    313.15990      1.19741
 43837.3931712963 09:26:10/07-Jan-2020   2675.54004     42.30000     51.73016      -999.25      -999.25      -999.25      -999.25     39.00000    314.67670      1.20329
 43837.3932870370 09:26:20/07-Jan-2020   2675.81006     42.03000     52.09040      -999.25      -999.25      -999.25      -999.25     39.00000    311.71200      1.19184
 43837.3934027778 09:26:30/07-Jan-2020   2675.62988     42.30000     51.40350      -999.25      -999.25      -999.25      -999.25     39.00000    314.26300      1.20168
 43837.3935185185 09:26:40/07-Jan-2020   2675.72021     42.12000     49.91787     60.00000      -999.25      -999.25      -999.25     39.00000    313.50460      1.19873
 43837.3936342593 09:26:50/07-Jan-2020   2675.72021     42.12000     51.56068      -999.25     12.00000      0.00000      0.00000     39.00000    312.60830      1.19530
 43837.3937500000 09:27:00/07-Jan-2020   2675.54004     42.30000     55.81036      -999.25      -999.25      -999.25      -999.25     39.00000    313.02200      1.19697
 43837.3938657407 09:27:10/07-Jan-2020   2675.72021     42.12000     54.98770      -999.25      -999.25      -999.25      -999.25     39.00000    311.36720      1.19056
 43837.3939814815 09:27:20/07-Jan-2020   2675.35986     42.48000      -999.25      -999.25      -999.25      -999.25      -999.25     39.00000    313.78040      1.19995
 43837.3940972222 09:27:30/07-Jan-2020   2675.72021     42.12000      -999.25      0.00000      -999.25      -999.25      -999.25     39.00000    311.43620      1.19081
 43837.3942129630 09:27:40/07-Jan-2020   2675.81006     42.03000      -999.25      -999.25     75.00000      -999.25      -999.25     39.00000    311.22930      1.18999
 43837.3943287037 09:27:50/07-Jan-2020   2675.62988     42.21000     49.74689      -999.25      -999.25      -999.25      -999.25     39.00000    312.67720      1.19561
 43837.3944444444 09:28:00/07-Jan-2020   2675.44995     42.39000     50.06746      -999.25      -999.25      -999.25      -999.25     39.00000    312.12570      1.19357
 43837.3945601852 09:28:10/07-Jan-2020   2675.44995     42.39000     52.95673      -999.25      -999.25      -999.25      -999.25     39.00000    312.33250      1.19435
 43837.3946759259 09:28:20/07-Jan-2020   2675.72021     42.12000     55.37494      -999.25      -999.25      -999.25      -999.25     39.00000    309.57460      1.18369
 43837.3947916667 09:28:30/07-Jan-2020   2675.62988     42.21000     56.44640      -999.25      -999.25      -999.25      -999.25     39.00000    312.19460      1.19376
 43837.3949074074 09:28:40/07-Jan-2020   2675.62988     42.03000     56.02641      -999.25      -999.25      -999.25      -999.25     39.00000    311.64300      1.19163
 43837.3950231481 09:28:50/07-Jan-2020   2675.62988     42.21000     54.72078      -999.25      -999.25      0.00000      0.00000     39.00000    311.84990      1.19244
 43837.3951388889 09:29:00/07-Jan-2020   2675.81006     42.03000     54.21360      -999.25      -999.25      -999.25      -999.25     39.00000    311.36720      1.19052
 43837.3952546296 09:29:10/07-Jan-2020   2675.81006     42.03000     54.34435      -999.25      -999.25      -999.25      -999.25     39.00000    310.88460      1.18867
 43837.3953703704 09:29:20/07-Jan-2020   2675.62988     42.21000     54.83850      -999.25      -999.25      -999.25      -999.25     39.00000    311.91880      1.19271
 43837.3954861111 09:29:30/07-Jan-2020   2675.72021     42.12000     54.82006      -999.25      -999.25      -999.25      -999.25     39.00000    311.16040      1.18977
 43837.3956018519 09:29:40/07-Jan-2020   2675.62988     42.21000     54.75057      -999.25      -999.25      -999.25      -999.25     39.00000    311.29830      1.19034
 43837.3957175926 09:29:50/07-Jan-2020   2675.62988     42.21000     55.43355      -999.25      -999.25      -999.25      -999.25     39.00000    312.40140      1.19455
 43837.3958333333 09:30:00/07-Jan-2020   2675.62988     42.21000     56.05355      -999.25      -999.25      -999.25      -999.25     39.00000    311.84990      1.19244
 43837.3959490741 09:30:10/07-Jan-2020   2675.62988     42.21000      -999.25      -999.25      -999.25      -999.25      -999.25     39.00000    312.12570      1.19350
 43837.3960648148 09:30:20/07-Jan-2020   2675.81006     42.03000      -999.25      -999.25      -999.25      -999.25      -999.25     39.00000    310.88460      1.18867
