~VERSION INFORMATION 
VERS  .    2.0                                     :CWLS Log ASCII Standard - VERSION 2.0
WRAP  .    NO                                      :One Line per Time step
PROD  .    Schlumberger Technology Corp.           :LAS Producer
PROG  .    Horizon LASWriter 9.2.113335.3100       :LAS Program name and version
SOURCE.    Run 7-TimeLogicalAcq                    :Run&Pass Information
CREA  .    12/27/2019                              :LAS Creation date {MM/DD/YYYY}
#--------------------------------------------------
~WELL INFORMATION 
#MNEM           .UNIT                      DATA            :DESCRIPTION
#----            ------          --------------            -----------------------------
STRT            .d               43818.4166666667          :START TIME(OLE Automation date)
STOP            .d               43819.7083333333          :STOP TIME(OLE Automation date)
STEP            .d                            0            :STEP TIME(10s in time)
NULL            .                       -999.25            :NULL VALUE
COMP            .                       Equinor            :COMPANY
WELL            .                        31/5-7            :WELL NAME
FLD             .                           Eos            :FIELD NAME
RIGN            .                 West Hercules            :Rig Name
RIGTYP          .                Semi-Submersible          :Rig Type
SON             .                     19SCA0085            :Service Order Number
SRVC            .                  Schlumberger            :SERVICE COMPANY
DATE            .                    12/19/2019            :LOG DATE(Composite Date for Composite LAP) (MM/DD/YYYY)
CLAB            .                       County:            :County Label
CNTY            .                                          :COUNTY
SLAB            .                                          :State/Province Label
STAT            .                                          :STATE or PROVINCE
PROV            .                                          :STATE or PROVINCE
CTRY            .                        Norway            :COUNTRY
CONT_REGION     .                        Europe            :Continent Region
SECT            .                                          :Section
TOWN            .                                          :Township
RANG            .                                          :Range
API             .                                          :API NUMBER
UWI             .                                          :UNIQUE WELL ID
LUL             .                Service Office            :Logging Unit Location
LUN             .                          A615            :Logging Unit Number
LOC             .                Norwegian North Sea       :FIELD LOCATION
FL1             .                Section: 12 1/4 x 17 1/5 in.:Field Location Line 1
FL2             .                Job no.: 19SCA0085        :Field Location Line 2
LATI            .deg             60° 34' 35.14" N          :LATITUDE
LONG            .deg             3° 26' 36.13" E           :LONGITUDE
PDAT            .                           MSL            :Local Permanent Datum
LMF             .                            DF            :Logging Measured From
APD             .m                        31.00            :Elevation of Depth Reference (LMF) Above Permanent Datum
EPD             .m                         0.00            :Elevation of Permanent Datum (PDAT) above Mean Sea Level
EKB             .m                      -999.25            :Elevation of Kelly Bushing Above Permanent Datum
EDF             .m                        31.00            :Elevation of Drill Floor Above Permanent Datum
EGL             .m                      -307.00            :Elevation of Ground Level Above Permanent Datum
ECF             .m                      -999.25            :Elevation of Casing Flange above Permanent Datum
#--------------------------------------------------
~CURVE INFORMATION
#MNEM           .UNIT                  API CODE            :DESCRIPTION
#----            ------          --------------            -----------------------------
TIME_1900       .d                                         :                                                        Time Index(OLE Automation date)
TIME            .s                                         :                                (10s)                   Time(hh mm ss/dd-MMM-yyyy)
DEPTH           .m                                         :(RT)    (DnMWorkflow)                                   Depth Index
BLKP            .m                                         :(RT)    (DRILLING_SURFACE)                              Height of block above rig floor
GR_CAL          .gAPI                                      :(RT)    (ARC9)                                          Calibrated Gamma Ray
STICK           .c/min                                     :(RT)    (TELE900)                                       Stick Slip Indicator
CRPM            .c/min                                     :(RT)    (TELE900)                                       Collar Rotational Speed
SHKRSK          .                                          :(RT)    (TELE900)                                       Shock Risk
SHKPK           .gn                                        :(RT)    (TELE900)                                       Shock Peak
DHAT            .degC                                      :(RM)    (ARC9)                                          Downhole Annulus Temperature
DHAP            .bar                                       :(RM)    (ARC9)                                          Downhole Annulus Pressure
ECD             .g/cm3                                     :(RM)    (ARC9)                                          Equivalent Circulating Density
#-------------------------------------------------------------
#       TIME_1900                 TIME        DEPTH         BLKP       GR_CAL        STICK         CRPM       SHKRSK        SHKPK         DHAT         DHAP          ECD 
#                                       (DnMWorkfl)  (DRILLING_)       (ARC9)    (TELE900)    (TELE900)    (TELE900)    (TELE900)       (ARC9)       (ARC9)       (ARC9) 
#                                              (RT)         (RT)         (RT)         (RT)         (RT)         (RT)         (RT)         (RM)         (RM)         (RM) 
#                                (10s)                                                                                                                                   
~ASCII
# ...
 43819.6222222222 14:56:00/20-Dec-2019   1719.59009      4.41000      -999.25      -999.25      -999.25      -999.25      -999.25     35.00000    214.22010      1.28048
 43819.6223379630 14:56:10/20-Dec-2019   1719.59009      4.41000      -999.25      -999.25      -999.25      -999.25      -999.25     35.00000    214.15120      1.28007
 43819.6224537037 14:56:20/20-Dec-2019   1719.59009      4.42000      -999.25      -999.25      -999.25      -999.25      -999.25     35.00000    214.22010      1.28048
 43819.6225694444 14:56:30/20-Dec-2019   1719.59009      4.42000      -999.25      -999.25      -999.25      -999.25      -999.25     35.00000    214.35800      1.28130
 43819.6226851852 14:56:40/20-Dec-2019   1719.59009      4.42000      -999.25      -999.25      -999.25      -999.25      -999.25     35.00000    214.42700      1.28172
 43819.6228009259 14:56:50/20-Dec-2019   1719.59009      4.43000      -999.25      -999.25      -999.25      -999.25      -999.25     35.00000    214.22010      1.28048
 43819.6229166667 14:57:00/20-Dec-2019   1719.59009      4.43000      -999.25      -999.25      -999.25      -999.25      -999.25     35.00000    214.35800      1.28130
 43819.6230324074 14:57:10/20-Dec-2019   1719.59009      4.44000      -999.25      -999.25      -999.25      -999.25      -999.25     35.00000    213.94430      1.27883
 43819.6231481481 14:57:20/20-Dec-2019   1719.59009      4.44000      -999.25      -999.25      -999.25      -999.25      -999.25     36.00000    214.28910      1.28089
 43819.6232638889 14:57:30/20-Dec-2019   1719.59009      4.45000      -999.25      -999.25      -999.25      -999.25      -999.25     36.00000    214.22010      1.28048
 43819.6233796296 14:57:40/20-Dec-2019   1719.59009      4.45000      -999.25      -999.25      -999.25      -999.25      -999.25     36.00000    214.49590      1.28213
 43819.6234953704 14:57:50/20-Dec-2019   1719.59009      4.51000      -999.25      -999.25      -999.25      -999.25      -999.25     36.00000    214.15120      1.28007
 43819.6236111111 14:58:00/20-Dec-2019   1719.59009      4.77000      -999.25      -999.25      -999.25      -999.25      -999.25     36.00000    214.22010      1.28048
 43819.6237268519 14:58:10/20-Dec-2019   1719.59009      5.19000      -999.25      -999.25      -999.25      -999.25      -999.25     36.00000    214.15120      1.28007
 43819.6238425926 14:58:20/20-Dec-2019   1719.59009      5.74000      -999.25      -999.25      -999.25      -999.25      -999.25     36.00000    214.08220      1.27966
 43819.6239583333 14:58:30/20-Dec-2019   1719.59009      6.43000      -999.25      -999.25      -999.25      -999.25      -999.25     36.00000    213.94430      1.27883
 43819.6240740741 14:58:40/20-Dec-2019   1719.59009      6.59000      -999.25      -999.25      -999.25      -999.25      -999.25     36.00000    214.01330      1.27924
 43819.6241898148 14:58:50/20-Dec-2019   1719.59009      6.59000      -999.25      -999.25      -999.25      -999.25      -999.25     36.00000    213.80640      1.27801
 43819.6243055556 14:59:00/20-Dec-2019   1719.59009      6.59000      -999.25      -999.25      -999.25      -999.25      -999.25     36.00000    213.73750      1.27759
 43819.6244212963 14:59:10/20-Dec-2019   1719.59009      6.59000      -999.25      -999.25      -999.25      -999.25      -999.25     36.00000    213.94430      1.27883
 43819.6245370370 14:59:20/20-Dec-2019   1719.59009      6.59000      -999.25      -999.25      -999.25      -999.25      -999.25     36.00000    214.22010      1.28048
 43819.6246527778 14:59:30/20-Dec-2019   1719.59009      6.59000      -999.25      -999.25      -999.25      -999.25      -999.25     36.00000    214.42700      1.28172
 43819.6247685185 14:59:40/20-Dec-2019   1719.59009      6.59000      -999.25      -999.25      -999.25      -999.25      -999.25     36.00000    214.84060      1.28419
 43819.6248842593 14:59:50/20-Dec-2019   1719.59009      6.59000      -999.25      -999.25      -999.25      -999.25      -999.25     36.00000    213.87540      1.27842
 43819.6250000000 15:00:00/20-Dec-2019   1719.59009      6.59000      -999.25      -999.25      -999.25      -999.25      -999.25     36.00000    213.80640      1.27801
 43819.6251157407 15:00:10/20-Dec-2019   1719.59009      6.61000      -999.25      -999.25      -999.25      -999.25      -999.25     36.00000    213.80640      1.27801
 43819.6252314815 15:00:20/20-Dec-2019   1719.59009      6.69000      -999.25      -999.25      -999.25      -999.25      -999.25     36.00000    213.80640      1.27801
 43819.6253472222 15:00:30/20-Dec-2019   1719.59009      6.84000      -999.25      -999.25      -999.25      -999.25      -999.25     36.00000    214.22010      1.28048
 43819.6254629630 15:00:40/20-Dec-2019   1719.56006      6.89000      -999.25      -999.25      -999.25      -999.25      -999.25     36.00000    214.22010      1.28050
 43819.6255787037 15:00:50/20-Dec-2019   1719.56006      6.89000      -999.25      -999.25      -999.25      -999.25      -999.25     36.00000    214.49590      1.28215
 43819.6256944444 15:01:00/20-Dec-2019   1719.56006      6.89000      -999.25      -999.25      -999.25      -999.25      -999.25     36.00000    214.56480      1.28256
 43819.6258101852 15:01:10/20-Dec-2019   1719.89001      6.59000      -999.25      -999.25      -999.25      -999.25      -999.25     36.00000    214.84060      1.28397
 43819.6259259259 15:01:20/20-Dec-2019   1720.44995      6.02000      -999.25      -999.25      -999.25      -999.25      -999.25     36.00000    214.97850      1.28437
 43819.6260416667 15:01:30/20-Dec-2019   1720.97998      5.50000      -999.25      -999.25      -999.25      -999.25      -999.25     36.00000    215.11640      1.28479
 43819.6261574074 15:01:40/20-Dec-2019   1721.51001      4.97000      -999.25      -999.25      -999.25      -999.25      -999.25     36.00000    215.18540      1.28481
 43819.6262731481 15:01:50/20-Dec-2019   1721.89001      4.56000      -999.25      -999.25      -999.25      -999.25      -999.25     36.00000    214.84060      1.28246
 43819.6263888889 15:02:00/20-Dec-2019   1722.39990      4.05000      -999.25      -999.25      -999.25      -999.25      -999.25     36.00000    214.49590      1.28002
 43819.6265046296 15:02:10/20-Dec-2019   1722.91003      3.56000      -999.25      -999.25      -999.25      -999.25      -999.25     36.00000    214.97850      1.28252
 43819.6266203704 15:02:20/20-Dec-2019   1723.13000      3.32000      -999.25      -999.25      -999.25      -999.25      -999.25     36.00000    214.35800      1.27865
 43819.6267361111 15:02:30/20-Dec-2019   1723.15002      3.30000      -999.25      -999.25      -999.25      -999.25      -999.25     36.00000    214.22010      1.27781
 43819.6268518518 15:02:40/20-Dec-2019   1723.18994      3.26000      -999.25      -999.25      -999.25      -999.25      -999.25     36.00000    214.70270      1.28066
 43819.6269675926 15:02:50/20-Dec-2019   1723.18994      3.28000      -999.25      -999.25      -999.25      -999.25      -999.25     36.00000    214.90960      1.28190
 43819.6270833333 15:03:00/20-Dec-2019   1723.18994      3.28000      -999.25      -999.25      -999.25      -999.25      -999.25     36.00000    214.84060      1.28148
 43819.6271990741 15:03:10/20-Dec-2019   1723.18994      3.28000      -999.25      -999.25      -999.25      -999.25      -999.25     36.00000    215.04750      1.28272
 43819.6273148148 15:03:20/20-Dec-2019   1723.18994      3.28000      -999.25      -999.25      -999.25      -999.25      -999.25     36.00000    214.63380      1.28025
 43819.6274305556 15:03:30/20-Dec-2019   1723.18994      3.28000      -999.25      -999.25      -999.25      -999.25      -999.25     36.00000    214.77170      1.28107
 43819.6275462963 15:03:40/20-Dec-2019   1723.18994      3.28000      -999.25      -999.25      -999.25      -999.25      -999.25     36.00000    214.56480      1.27984
 43819.6276620370 15:03:50/20-Dec-2019   1723.18994      3.28000      -999.25      -999.25      -999.25      -999.25      -999.25     36.00000    215.11640      1.28313
