~VERSION INFORMATION 
VERS  .    2.0                                     :CWLS Log ASCII Standard - VERSION 2.0
WRAP  .    NO                                      :One Line per Time step
PROD  .    Schlumberger Technology Corp.           :LAS Producer
PROG  .    Horizon LASWriter 9.2.113335.3100       :LAS Program name and version
SOURCE.    Run 5-TimeLogicalAcq                    :Run&Pass Information
CREA  .    12/20/2019                              :LAS Creation date {MM/DD/YYYY}
#--------------------------------------------------
~WELL INFORMATION 
#MNEM           .UNIT                      DATA            :DESCRIPTION
#----            ------          --------------            -----------------------------
STRT            .d               43815.4062500000          :START TIME(OLE Automation date)
STOP            .d               43816.7395833333          :STOP TIME(OLE Automation date)
STEP            .d                            0            :STEP TIME(10s in time)
NULL            .                       -999.25            :NULL VALUE
COMP            .                       Equinor            :COMPANY
WELL            .                        31/5-7            :WELL NAME
FLD             .                           Eos            :FIELD NAME
RIGN            .                 West Hercules            :Rig Name
RIGTYP          .                Semi-Submersible          :Rig Type
SON             .                     19SCA0085            :Service Order Number
SRVC            .                  Schlumberger            :SERVICE COMPANY
DATE            .                    12/16/2019            :LOG DATE(Composite Date for Composite LAP) (MM/DD/YYYY)
CLAB            .                       County:            :County Label
CNTY            .                                          :COUNTY
SLAB            .                                          :State/Province Label
STAT            .                                          :STATE or PROVINCE
PROV            .                                          :STATE or PROVINCE
CTRY            .                        Norway            :COUNTRY
CONT_REGION     .                        Europe            :Continent Region
SECT            .                                          :Section
TOWN            .                                          :Township
RANG            .                                          :Range
API             .                                          :API NUMBER
UWI             .                                          :UNIQUE WELL ID
LUL             .                Service Office            :Logging Unit Location
LUN             .                          A615            :Logging Unit Number
LOC             .                Norwegian North Sea       :FIELD LOCATION
FL1             .                Section: 12 1/4 in. pilot :Field Location Line 1
FL2             .                Job no.: 19SCA0085        :Field Location Line 2
LATI            .deg             60° 34' 35.14" N          :LATITUDE
LONG            .deg             3° 26' 36.13" E           :LONGITUDE
PDAT            .                           MSL            :Local Permanent Datum
LMF             .                            DF            :Logging Measured From
APD             .m                        31.00            :Elevation of Depth Reference (LMF) Above Permanent Datum
EPD             .m                         0.00            :Elevation of Permanent Datum (PDAT) above Mean Sea Level
EKB             .m                      -999.25            :Elevation of Kelly Bushing Above Permanent Datum
EDF             .m                        31.00            :Elevation of Drill Floor Above Permanent Datum
EGL             .m                      -307.00            :Elevation of Ground Level Above Permanent Datum
ECF             .m                      -999.25            :Elevation of Casing Flange above Permanent Datum
#--------------------------------------------------
~CURVE INFORMATION
#MNEM           .UNIT                  API CODE            :DESCRIPTION
#----            ------          --------------            -----------------------------
TIME_1900       .d                                         :                                                        Time Index(OLE Automation date)
TIME            .s                                         :                                (10s)                   Time(hh mm ss/dd-MMM-yyyy)
DEPTH           .m                                         :(RT)    (DnMWorkflow)                                   Depth Index
GR              .gAPI                                      :(RT)    (ARC9)                                          Gamma Ray
BLKP            .m                                         :(RT)    (DRILLING_SURFACE)                              Height of block above rig floor
STICK           .c/min                                     :(RT)    (TELE900)                                       Stick Slip Indicator
CRPM            .c/min                                     :(RT)    (TELE900)                                       Collar Rotational Speed
SHKRSK          .                                          :(RT)    (TELE900)                                       Shock Risk
SHKPK           .gn                                        :(RT)    (TELE900)                                       Shock Peak
ECD             .g/cm3                                     :(RM)    (ARC9)                                          Equivalent Circulating Density
DHAP            .bar                                       :(RM)    (ARC9)                                          Downhole Annulus Pressure
DHAT            .degC                                      :(RM)    (ARC9)                                          Downhole Annulus Temperature
#-------------------------------------------------------------
#       TIME_1900                 TIME        DEPTH           GR         BLKP        STICK         CRPM       SHKRSK        SHKPK          ECD         DHAP         DHAT 
#                                       (DnMWorkfl)       (ARC9)  (DRILLING_)    (TELE900)    (TELE900)    (TELE900)    (TELE900)       (ARC9)       (ARC9)       (ARC9) 
#                                              (RT)         (RT)         (RT)         (RT)         (RT)         (RT)         (RT)         (RM)         (RM)         (RM) 
#                                (10s)                                                                                                                                   
~ASCII
# ...
 43815.6340277778 15:13:00/16-Dec-2019    1052.0701      96.0480      18.5900      -999.25      -999.25      -999.25      -999.25       1.3123     133.8962      23.0000
 43815.6341435185 15:13:10/16-Dec-2019    1052.1400      85.4677      18.5200      -999.25      -999.25      -999.25      -999.25       1.3121     133.8962      23.0000
 43815.6342592593 15:13:20/16-Dec-2019    1052.4100      80.7887      18.2500      -999.25      -999.25      -999.25      -999.25       1.3111     133.8272      23.0000
 43815.6343750000 15:13:30/16-Dec-2019    1052.8000      78.5219      17.8600     297.0000      -999.25      -999.25      -999.25       1.3135     134.1030      23.0000
 43815.6344907407 15:13:40/16-Dec-2019    1052.7700      80.6115      17.8900      -999.25      -999.25       0.0000       0.0000       1.3140     134.1720      23.0000
 43815.6346064815 15:13:50/16-Dec-2019    1053.0901      86.0797      17.5800      -999.25      -999.25      -999.25      -999.25       1.3136     134.1720      23.0000
 43815.6347222222 15:14:00/16-Dec-2019    1053.2600      89.7238      17.4200      -999.25      -999.25      -999.25      -999.25       1.3154     134.3788      23.0000
 43815.6348379630 15:14:10/16-Dec-2019    1053.5000      89.5833      17.0700      -999.25      -999.25      -999.25      -999.25       1.3144     134.3099      23.0000
 43815.6349537037 15:14:20/16-Dec-2019    1053.6700      87.2902      16.9100      -999.25     128.0000      -999.25      -999.25       1.3141     134.3099      23.0000
 43815.6350694444 15:14:30/16-Dec-2019    1054.1000      85.3462      16.5800      -999.25      -999.25      -999.25      -999.25       1.3145     134.3788      23.0000
 43815.6351851852 15:14:40/16-Dec-2019    1054.2500      89.9358      16.4300      -999.25      -999.25      -999.25      -999.25       1.3149     134.4478      23.0000
 43815.6353009259 15:14:50/16-Dec-2019    1054.7300      95.6712      16.0300      -999.25      -999.25      -999.25      -999.25       1.3156     134.5857      23.0000
 43815.6354166667 15:15:00/16-Dec-2019    1054.7100     100.1591      16.0600     288.0000      -999.25      -999.25      -999.25       1.3280     135.8267      23.0000
 43815.6355324074 15:15:10/16-Dec-2019    1054.7700      99.5983      15.9100      -999.25      -999.25       0.0000       0.0000       1.3141     134.4478      23.0000
 43815.6356481481 15:15:20/16-Dec-2019    1055.2200      99.3513      15.4500      -999.25      -999.25      -999.25      -999.25       1.3143     134.5167      23.0000
 43815.6357638889 15:15:30/16-Dec-2019    1055.3199     102.1842      15.3700      -999.25      -999.25      -999.25      -999.25       1.3142     134.5167      23.0000
 43815.6358796296 15:15:40/16-Dec-2019    1055.6000      98.2962      15.0700      -999.25     180.0000      -999.25      -999.25       1.3138     134.5167      23.0000
 43815.6359953704 15:15:50/16-Dec-2019    1055.9601      93.7100      14.7000      -999.25      -999.25      -999.25      -999.25       1.3147     134.6546      23.0000
 43815.6361111111 15:16:00/16-Dec-2019    1056.1600      93.3142      14.5000      -999.25      -999.25      -999.25      -999.25       1.3171     134.9304      23.0000
 43815.6362268519 15:16:10/16-Dec-2019    1056.8000      97.5668      13.8600      -999.25      -999.25      -999.25      -999.25       1.3150     134.7925      23.0000
 43815.6363425926 15:16:20/16-Dec-2019    1056.8000     100.1022      13.8600     300.0000      -999.25      -999.25      -999.25       1.3164     134.9304      23.0000
 43815.6364583333 15:16:30/16-Dec-2019    1056.9800     108.4605      13.6800      -999.25      -999.25      -999.25      -999.25       1.3154     134.8615      23.0000
 43815.6365740741 15:16:40/16-Dec-2019    1057.4301     118.7308      13.2300      -999.25      -999.25       0.0000       0.0000       1.3156     134.9304      23.0000
 43815.6366898148 15:16:50/16-Dec-2019    1057.6200     116.7262      13.0400      -999.25      -999.25      -999.25      -999.25       1.3186     135.2751      23.0000
 43815.6368055556 15:17:00/16-Dec-2019    1057.9900     110.3884      12.6700      -999.25      -999.25      -999.25      -999.25       1.3155     134.9993      23.0000
 43815.6369212963 15:17:10/16-Dec-2019    1058.0800     106.4421      12.5800      -999.25     181.0000      -999.25      -999.25       1.3154     134.9993      23.0000
 43815.6370370370 15:17:20/16-Dec-2019    1058.5300     108.4893      12.1300      -999.25      -999.25      -999.25      -999.25       1.3155     135.0683      23.0000
 43815.6371527778 15:17:30/16-Dec-2019    1058.8301     107.8976      11.8300      -999.25      -999.25      -999.25      -999.25       1.3146     134.9993      23.0000
 43815.6372685185 15:17:40/16-Dec-2019    1059.0901     107.8967      11.5700      -999.25      -999.25      -999.25      -999.25       1.3148     135.0683      23.0000
 43815.6373842593 15:17:50/16-Dec-2019    1059.3700     109.8603      11.2900     294.0000      -999.25      -999.25      -999.25       1.3138     134.9993      23.0000
 43815.6375000000 15:18:00/16-Dec-2019    1059.5601     111.8238      11.1000      -999.25      -999.25       0.0000       0.0000       1.3148     135.1372      23.0000
 43815.6376157407 15:18:10/16-Dec-2019    1060.0300     115.1030      10.6300      -999.25      -999.25      -999.25      -999.25       1.3144     135.1372      23.0000
 43815.6377314815 15:18:20/16-Dec-2019    1060.2100     121.3910      10.4500      -999.25      -999.25      -999.25      -999.25       1.3148     135.2062      23.0000
 43815.6378472222 15:18:30/16-Dec-2019    1060.5200     115.6623      10.1400      -999.25     180.0000      -999.25      -999.25       1.3158     135.3441      23.0000
 43815.6379629630 15:18:40/16-Dec-2019    1060.7900     102.5436       9.8700      -999.25      -999.25      -999.25      -999.25       1.3153     135.3441      23.0000
 43815.6380787037 15:18:50/16-Dec-2019    1061.2100      92.0577       9.4500      -999.25      -999.25      -999.25      -999.25       1.3149     135.3441      23.0000
 43815.6381944444 15:19:00/16-Dec-2019    1061.4800      93.7073       9.1800      -999.25      -999.25      -999.25      -999.25       1.3158     135.4820      23.0000
 43815.6383101852 15:19:10/16-Dec-2019    1061.8400      94.4038       8.8200     294.0000      -999.25      -999.25      -999.25       1.3169     135.6199      23.0000
 43815.6384259259 15:19:20/16-Dec-2019    1062.2001      94.0719       8.4600      -999.25      -999.25      -999.25      -999.25       1.3163     135.6199      23.0000
 43815.6385416667 15:19:30/16-Dec-2019    1062.5200      93.6184       8.1400      -999.25      -999.25       0.0000       0.0000       1.3158     135.6199      23.0000
 43815.6386574074 15:19:40/16-Dec-2019    1063.0200      95.3367       7.6400      -999.25      -999.25      -999.25      -999.25       1.3166     135.7578      23.0000
 43815.6387731481 15:19:50/16-Dec-2019    1063.2700      99.6442       7.3900      -999.25      -999.25      -999.25      -999.25       1.3176     135.8957      23.0000
 43815.6388888889 15:20:00/16-Dec-2019    1063.4399      97.7003       7.2300      -999.25     146.0000      -999.25      -999.25       1.3161     135.7578      23.0000
 43815.6390046296 15:20:10/16-Dec-2019    1063.8300      95.4072       6.8300      -999.25      -999.25      -999.25      -999.25       1.3169     135.8957      23.0000
 43815.6391203704 15:20:20/16-Dec-2019    1064.1200      92.3764       6.5400      -999.25      -999.25      -999.25      -999.25       1.3192     136.1715      23.0000
 43815.6392361111 15:20:30/16-Dec-2019    1064.4000      86.4711       6.2600      -999.25      -999.25      -999.25      -999.25       1.3229     136.5851      23.0000
 43815.6393518519 15:20:40/16-Dec-2019    1064.6300      85.1390       6.0300     288.0000      -999.25      -999.25      -999.25       1.3252     136.8609      23.0000
 43815.6394675926 15:20:50/16-Dec-2019    1064.9000      93.4973       5.7600      -999.25      -999.25       0.0000       0.0000       1.3256     136.9299      23.0000
