~VERSION INFORMATION 
VERS  .    2.0                                     :CWLS Log ASCII Standard - VERSION 2.0
WRAP  .    NO                                      :One Line per Time step
PROD  .    Schlumberger Technology Corp.           :LAS Producer
PROG  .    Horizon LASWriter 9.2.113335.3100       :LAS Program name and version
SOURCE.    Run 12-TimeLogicalAcq                   :Run&Pass Information
CREA  .    01/21/2020                              :LAS Creation date {MM/DD/YYYY}
#--------------------------------------------------
~WELL INFORMATION 
#MNEM           .UNIT                      DATA            :DESCRIPTION
#----            ------          --------------            -----------------------------
STRT            .d               43837.2295138889          :START TIME(OLE Automation date)
STOP            .d               43837.6875000000          :STOP TIME(OLE Automation date)
STEP            .d                            0            :STEP TIME(10s in time)
NULL            .                       -999.25            :NULL VALUE
COMP            .                       Equinor            :COMPANY
WELL            .                        31/5-7            :WELL NAME
FLD             .                           Eos            :FIELD NAME
RIGN            .                 West Hercules            :Rig Name
RIGTYP          .                Semi-Submersible          :Rig Type
SON             .                     19SCA0085            :Service Order Number
SRVC            .                  Schlumberger            :SERVICE COMPANY
DATE            .                    01/07/2020            :LOG DATE(Composite Date for Composite LAP) (MM/DD/YYYY)
CLAB            .                       County:            :County Label
CNTY            .                                          :COUNTY
SLAB            .                                          :State/Province Label
STAT            .                                          :STATE or PROVINCE
PROV            .                                          :STATE or PROVINCE
CTRY            .                        Norway            :COUNTRY
CONT_REGION     .                        Europe            :Continent Region
SECT            .                                          :Section
TOWN            .                                          :Township
RANG            .                                          :Range
API             .                                          :API NUMBER
UWI             .                                          :UNIQUE WELL ID
LUL             .                Service Office            :Logging Unit Location
LUN             .                          A615            :Logging Unit Number
LOC             .                Norwegian North Sea       :FIELD LOCATION
FL1             .                Section: 8 1/2 in.        :Field Location Line 1
FL2             .                Job no.: 19SCA0085        :Field Location Line 2
LATI            .deg             60° 34' 35.14" N          :LATITUDE
LONG            .deg             3° 26' 36.13" E           :LONGITUDE
PDAT            .                           MSL            :Local Permanent Datum
LMF             .                            DF            :Logging Measured From
APD             .m                        31.00            :Elevation of Depth Reference (LMF) Above Permanent Datum
EPD             .m                         0.00            :Elevation of Permanent Datum (PDAT) above Mean Sea Level
EKB             .m                      -999.25            :Elevation of Kelly Bushing Above Permanent Datum
EDF             .m                        31.00            :Elevation of Drill Floor Above Permanent Datum
EGL             .m                      -307.00            :Elevation of Ground Level Above Permanent Datum
ECF             .m                      -999.25            :Elevation of Casing Flange above Permanent Datum
#--------------------------------------------------
~CURVE INFORMATION
#MNEM           .UNIT                  API CODE            :DESCRIPTION
#----            ------          --------------            -----------------------------
TIME_1900       .d                                         :                                                        Time Index(OLE Automation date)
TIME            .s                                         :                                (10s)                   Time(hh mm ss/dd-MMM-yyyy)
DEPTH           .m                                         :(RT)    (DnMWorkflow)                                   Depth Index
BLKP            .m                                         :(RT)    (DRILLING_SURFACE)                              Height of block above rig floor
GR              .gAPI                                      :(RT)    (ARC6)                                          Gamma Ray
CRPM            .c/min                                     :(RT)    (TELE675)                                       Collar Rotational Speed
STICK           .c/min                                     :(RT)    (TELE675)                                       Stick Slip Indicator
SHKRSK          .                                          :(RT)    (TELE675)                                       Shock Risk
SHKPK           .gn                                        :(RT)    (TELE675)                                       Shock Peak
DHAT            .degC                                      :(RM)    (ARC6)                                          Downhole Annulus Temperature
DHAP            .bar                                       :(RM)    (ARC6)                                          Downhole Annulus Pressure
ECD             .g/cm3                                     :(RM)    (ARC6)                                          Equivalent Circulating Density
#-------------------------------------------------------------
#       TIME_1900                 TIME        DEPTH         BLKP           GR         CRPM        STICK       SHKRSK        SHKPK         DHAT         DHAP          ECD 
#                                       (DnMWorkfl)  (DRILLING_)       (ARC6)    (TELE675)    (TELE675)    (TELE675)    (TELE675)       (ARC6)       (ARC6)       (ARC6) 
#                                              (RT)         (RT)         (RT)         (RT)         (RT)         (RT)         (RT)         (RM)         (RM)         (RM) 
#                                (10s)                                                                                                                                   
~ASCII
# ...
 43837.6795138889 16:18:30/07-Jan-2020    802.37000     42.48000      -999.25      -999.25      -999.25      -999.25      -999.25     36.00000     95.42344      1.22620
 43837.6796296296 16:18:40/07-Jan-2020    802.65002     42.16000      -999.25      -999.25      -999.25      -999.25      -999.25     36.00000     94.94081      1.21957
 43837.6797453704 16:18:50/07-Jan-2020    802.65002     42.08000      -999.25      -999.25      -999.25      -999.25      -999.25     35.00000     95.42344      1.22577
 43837.6798611111 16:19:00/07-Jan-2020    802.65002     30.15000      -999.25      -999.25      -999.25      -999.25      -999.25     35.00000     95.83713      1.23108
 43837.6799768518 16:19:10/07-Jan-2020    802.65002     13.97000      -999.25      -999.25      -999.25      -999.25      -999.25     35.00000     95.63028      1.22842
 43837.6800925926 16:19:20/07-Jan-2020    802.65002      8.85000      -999.25      -999.25      -999.25      -999.25      -999.25     35.00000     95.21660      1.22311
 43837.6802083333 16:19:30/07-Jan-2020    802.65002      8.85000      -999.25      -999.25      -999.25      -999.25      -999.25     35.00000     95.49239      1.22665
 43837.6803240741 16:19:40/07-Jan-2020    802.65002      4.18000      -999.25      -999.25      -999.25      -999.25      -999.25     35.00000     95.97502      1.23285
 43837.6804398148 16:19:50/07-Jan-2020    802.65002      3.46000      -999.25      -999.25      -999.25      -999.25      -999.25     35.00000     95.97502      1.23285
 43837.6805555556 16:20:00/07-Jan-2020    797.02002      9.15000      -999.25      -999.25      -999.25      -999.25      -999.25     35.00000     93.90659      1.21506
 43837.6806712963 16:20:10/07-Jan-2020    781.72998     24.44000      -999.25      -999.25      -999.25      -999.25      -999.25     35.00000     92.66554      1.22309
 43837.6807870370 16:20:20/07-Jan-2020    765.91003     40.26000      -999.25      -999.25      -999.25      -999.25      -999.25     35.00000     91.35554      1.23057
 43837.6809027778 16:20:30/07-Jan-2020    763.72003     42.45000      -999.25      -999.25      -999.25      -999.25      -999.25     35.00000     91.14869      1.23123
 43837.6810185185 16:20:40/07-Jan-2020    764.06995     42.07000      -999.25      -999.25      -999.25      -999.25      -999.25     35.00000     90.18343      1.21762
 43837.6811342593 16:20:50/07-Jan-2020    764.06995     41.85000      -999.25      -999.25      -999.25      -999.25      -999.25     35.00000     90.39026      1.22042
 43837.6812500000 16:21:00/07-Jan-2020    764.06995     28.77000      -999.25      -999.25      -999.25      -999.25      -999.25     35.00000     91.49343      1.23531
 43837.6813657407 16:21:10/07-Jan-2020    764.06995     12.91000      -999.25      -999.25      -999.25      -999.25      -999.25     35.00000     90.80396      1.22600
 43837.6814814815 16:21:20/07-Jan-2020    764.06995      8.62000      -999.25      -999.25      -999.25      -999.25      -999.25     35.00000     90.73501      1.22507
 43837.6815972222 16:21:30/07-Jan-2020    764.06995      8.62000      -999.25      -999.25      -999.25      -999.25      -999.25     35.00000     90.59711      1.22321
 43837.6817129630 16:21:40/07-Jan-2020    764.06995      3.70000      -999.25      -999.25      -999.25      -999.25      -999.25     35.00000     90.25237      1.21856
 43837.6818287037 16:21:50/07-Jan-2020    764.06995      3.47000      -999.25      -999.25      -999.25      -999.25      -999.25     35.00000     91.07975      1.22973
 43837.6819444444 16:22:00/07-Jan-2020    754.35999     13.10000      -999.25      -999.25      -999.25      -999.25      -999.25     35.00000     89.21816      1.22045
 43837.6820601852 16:22:10/07-Jan-2020    738.67999     28.78000      -999.25      -999.25      -999.25      -999.25      -999.25     35.00000     87.56342      1.22429
 43837.6821759259 16:22:20/07-Jan-2020    725.78998     41.66999      -999.25      -999.25      -999.25      -999.25      -999.25     35.00000     86.04657      1.22383
 43837.6822916667 16:22:30/07-Jan-2020    724.98999     42.47000      -999.25      -999.25      -999.25      -999.25      -999.25     35.00000     86.32236      1.22909
 43837.6824074074 16:22:40/07-Jan-2020    725.22003     41.96000      -999.25      -999.25      -999.25      -999.25      -999.25     35.00000     86.73604      1.23458
 43837.6825231481 16:22:50/07-Jan-2020    725.22003     41.53000      -999.25      -999.25      -999.25      -999.25      -999.25     35.00000     86.87395      1.23654
 43837.6826388889 16:23:00/07-Jan-2020    725.22003     27.80000      -999.25      -999.25      -999.25      -999.25      -999.25     35.00000     86.32236      1.22869
 43837.6827546296 16:23:10/07-Jan-2020    725.22003     12.31000      -999.25      -999.25      -999.25      -999.25      -999.25     35.00000     86.32236      1.22869
 43837.6828703704 16:23:20/07-Jan-2020    725.22003      8.66000      -999.25      -999.25      -999.25      -999.25      -999.25     35.00000     86.39131      1.22967
 43837.6829861111 16:23:30/07-Jan-2020    725.22003      8.04000      -999.25      -999.25      -999.25      -999.25      -999.25     35.00000     86.80499      1.23556
 43837.6831018519 16:23:40/07-Jan-2020    725.22003      3.46000      -999.25      -999.25      -999.25      -999.25      -999.25     34.00000     86.94289      1.23752
 43837.6832175926 16:23:50/07-Jan-2020    725.22003      3.53000      -999.25      -999.25      -999.25      -999.25      -999.25     34.00000     87.01184      1.23851
 43837.6833333333 16:24:00/07-Jan-2020    716.02997     12.76000      -999.25      -999.25      -999.25      -999.25      -999.25     34.00000     84.73656      1.22200
 43837.6834490741 16:24:10/07-Jan-2020    699.94000     28.85000      -999.25      -999.25      -999.25      -999.25      -999.25     34.00000     83.15077      1.22733
 43837.6835648148 16:24:20/07-Jan-2020    687.28003     41.51000      -999.25      -999.25      -999.25      -999.25      -999.25     34.00000     82.32340      1.23732
 43837.6836805556 16:24:30/07-Jan-2020    686.31006     42.48000      -999.25      -999.25      -999.25      -999.25      -999.25     34.00000     82.46130      1.24114
 43837.6837962963 16:24:40/07-Jan-2020    686.56000     42.10000      -999.25      -999.25      -999.25      -999.25      -999.25     34.00000     81.90972      1.23238
 43837.6839120370 16:24:50/07-Jan-2020    686.56000     41.23000      -999.25      -999.25      -999.25      -999.25      -999.25     34.00000     81.56498      1.22720
 43837.6840277778 16:25:00/07-Jan-2020    686.56000     27.70000      -999.25      -999.25      -999.25      -999.25      -999.25     34.00000     81.35813      1.22408
 43837.6841435185 16:25:10/07-Jan-2020    686.56000     11.49000      -999.25      -999.25      -999.25      -999.25      -999.25     34.00000     81.77182      1.23031
 43837.6842592593 16:25:20/07-Jan-2020    686.56000      8.79000      -999.25      -999.25      -999.25      -999.25      -999.25     34.00000     81.84077      1.23135
 43837.6843750000 16:25:30/07-Jan-2020    686.56000      8.79000      -999.25      -999.25      -999.25      -999.25      -999.25     34.00000     81.63393      1.22823
 43837.6844907407 16:25:40/07-Jan-2020    686.56000      4.15000      -999.25      -999.25      -999.25      -999.25      -999.25     34.00000     81.70288      1.22927
 43837.6846064815 16:25:50/07-Jan-2020    686.56000      3.45000      -999.25      -999.25      -999.25      -999.25      -999.25     34.00000     81.56498      1.22720
 43837.6847222222 16:26:00/07-Jan-2020    686.56000      3.67000      -999.25      -999.25      -999.25      -999.25      -999.25     34.00000     81.63393      1.22823
 43837.6848379630 16:26:10/07-Jan-2020    675.54004     15.32000      -999.25      -999.25      -999.25      -999.25      -999.25     34.00000     79.84129      1.22146
 43837.6849537037 16:26:20/07-Jan-2020    658.60004     31.31000      -999.25      -999.25      -999.25      -999.25      -999.25     34.00000     78.18655      1.22729
