~VERSION INFORMATION 
VERS  .    2.0                                     :CWLS Log ASCII Standard - VERSION 2.0
WRAP  .    NO                                      :One Line per Time step
PROD  .    Schlumberger Technology Corp.           :LAS Producer
PROG  .    Horizon LASWriter 9.2.113335.3100       :LAS Program name and version
SOURCE.    Run 7-TimeLogicalAcq                    :Run&Pass Information
CREA  .    12/27/2019                              :LAS Creation date {MM/DD/YYYY}
#--------------------------------------------------
~WELL INFORMATION 
#MNEM           .UNIT                      DATA            :DESCRIPTION
#----            ------          --------------            -----------------------------
STRT            .d               43818.4166666667          :START TIME(OLE Automation date)
STOP            .d               43819.7083333333          :STOP TIME(OLE Automation date)
STEP            .d                            0            :STEP TIME(10s in time)
NULL            .                       -999.25            :NULL VALUE
COMP            .                       Equinor            :COMPANY
WELL            .                        31/5-7            :WELL NAME
FLD             .                           Eos            :FIELD NAME
RIGN            .                 West Hercules            :Rig Name
RIGTYP          .                Semi-Submersible          :Rig Type
SON             .                     19SCA0085            :Service Order Number
SRVC            .                  Schlumberger            :SERVICE COMPANY
DATE            .                    12/19/2019            :LOG DATE(Composite Date for Composite LAP) (MM/DD/YYYY)
CLAB            .                       County:            :County Label
CNTY            .                                          :COUNTY
SLAB            .                                          :State/Province Label
STAT            .                                          :STATE or PROVINCE
PROV            .                                          :STATE or PROVINCE
CTRY            .                        Norway            :COUNTRY
CONT_REGION     .                        Europe            :Continent Region
SECT            .                                          :Section
TOWN            .                                          :Township
RANG            .                                          :Range
API             .                                          :API NUMBER
UWI             .                                          :UNIQUE WELL ID
LUL             .                Service Office            :Logging Unit Location
LUN             .                          A615            :Logging Unit Number
LOC             .                Norwegian North Sea       :FIELD LOCATION
FL1             .                Section: 12 1/4 x 17 1/5 in.:Field Location Line 1
FL2             .                Job no.: 19SCA0085        :Field Location Line 2
LATI            .deg             60° 34' 35.14" N          :LATITUDE
LONG            .deg             3° 26' 36.13" E           :LONGITUDE
PDAT            .                           MSL            :Local Permanent Datum
LMF             .                            DF            :Logging Measured From
APD             .m                        31.00            :Elevation of Depth Reference (LMF) Above Permanent Datum
EPD             .m                         0.00            :Elevation of Permanent Datum (PDAT) above Mean Sea Level
EKB             .m                      -999.25            :Elevation of Kelly Bushing Above Permanent Datum
EDF             .m                        31.00            :Elevation of Drill Floor Above Permanent Datum
EGL             .m                      -307.00            :Elevation of Ground Level Above Permanent Datum
ECF             .m                      -999.25            :Elevation of Casing Flange above Permanent Datum
#--------------------------------------------------
~CURVE INFORMATION
#MNEM           .UNIT                  API CODE            :DESCRIPTION
#----            ------          --------------            -----------------------------
TIME_1900       .d                                         :                                                        Time Index(OLE Automation date)
TIME            .s                                         :                                (10s)                   Time(hh mm ss/dd-MMM-yyyy)
DEPTH           .m                                         :(RT)    (DnMWorkflow)                                   Depth Index
BLKP            .m                                         :(RT)    (DRILLING_SURFACE)                              Height of block above rig floor
GR_CAL          .gAPI                                      :(RT)    (ARC9)                                          Calibrated Gamma Ray
STICK           .c/min                                     :(RT)    (TELE900)                                       Stick Slip Indicator
CRPM            .c/min                                     :(RT)    (TELE900)                                       Collar Rotational Speed
SHKRSK          .                                          :(RT)    (TELE900)                                       Shock Risk
SHKPK           .gn                                        :(RT)    (TELE900)                                       Shock Peak
DHAT            .degC                                      :(RM)    (ARC9)                                          Downhole Annulus Temperature
DHAP            .bar                                       :(RM)    (ARC9)                                          Downhole Annulus Pressure
ECD             .g/cm3                                     :(RM)    (ARC9)                                          Equivalent Circulating Density
#-------------------------------------------------------------
#       TIME_1900                 TIME        DEPTH         BLKP       GR_CAL        STICK         CRPM       SHKRSK        SHKPK         DHAT         DHAP          ECD 
#                                       (DnMWorkfl)  (DRILLING_)       (ARC9)    (TELE900)    (TELE900)    (TELE900)    (TELE900)       (ARC9)       (ARC9)       (ARC9) 
#                                              (RT)         (RT)         (RT)         (RT)         (RT)         (RT)         (RT)         (RM)         (RM)         (RM) 
#                                (10s)                                                                                                                                   
~ASCII
# ...
 43818.4611111111 11:04:00/19-Dec-2019    917.38000     41.66000      -999.25      -999.25      -999.25      -999.25      -999.25     21.00000    115.83190      1.30694
 43818.4612268518 11:04:10/19-Dec-2019    917.38000     41.66000      -999.25      -999.25      -999.25      -999.25      -999.25     21.00000    115.76300      1.30616
 43818.4613425926 11:04:20/19-Dec-2019    917.38000     41.66000      -999.25      -999.25      -999.25      -999.25      -999.25     21.00000    115.69400      1.30539
 43818.4614583333 11:04:30/19-Dec-2019    917.38000     41.66000      -999.25      -999.25      -999.25      -999.25      -999.25     21.00000    115.83190      1.30694
 43818.4615740741 11:04:40/19-Dec-2019    917.38000     41.66000      -999.25      -999.25      -999.25      -999.25      -999.25     21.00000    115.83190      1.30694
 43818.4616898148 11:04:50/19-Dec-2019    917.38000     41.66000      -999.25      -999.25      -999.25      -999.25      -999.25     21.00000    115.69400      1.30539
 43818.4618055556 11:05:00/19-Dec-2019    917.38000     41.66000      -999.25      -999.25      -999.25      -999.25      -999.25     21.00000    115.55610      1.30383
 43818.4619212963 11:05:10/19-Dec-2019    917.38000     41.66000      -999.25      -999.25      -999.25      -999.25      -999.25     21.00000    115.34930      1.30150
 43818.4620370370 11:05:20/19-Dec-2019    917.38000     41.66000      -999.25      -999.25      -999.25      -999.25      -999.25     21.00000    115.55610      1.30383
 43818.4621527778 11:05:30/19-Dec-2019    917.38000     41.66000      -999.25      -999.25      -999.25      -999.25      -999.25     21.00000    115.28030      1.30072
 43818.4622685185 11:05:40/19-Dec-2019    917.38000     41.66000      -999.25      -999.25      -999.25      -999.25      -999.25     21.00000    115.55610      1.30383
 43818.4623842593 11:05:50/19-Dec-2019    917.38000     41.66000      -999.25      -999.25      -999.25      -999.25      -999.25     21.00000    115.69400      1.30539
 43818.4625000000 11:06:00/19-Dec-2019    917.38000     41.66000      -999.25      -999.25      -999.25      -999.25      -999.25     21.00000    115.76300      1.30616
 43818.4626157407 11:06:10/19-Dec-2019    917.38000     41.66000      -999.25      -999.25      -999.25      -999.25      -999.25     21.00000    115.90090      1.30772
 43818.4627314815 11:06:20/19-Dec-2019    917.38000     41.66000      -999.25      -999.25      -999.25      -999.25      -999.25     21.00000    115.55610      1.30383
 43818.4628472222 11:06:30/19-Dec-2019    917.38000     41.66000      -999.25      -999.25      -999.25      -999.25      -999.25     20.00000    115.76300      1.30616
 43818.4629629630 11:06:40/19-Dec-2019    917.38000     41.66000      -999.25      -999.25      -999.25      -999.25      -999.25     20.00000    115.48720      1.30305
 43818.4630787037 11:06:50/19-Dec-2019    917.38000     41.66000      -999.25      -999.25      -999.25      -999.25      -999.25     20.00000    115.83190      1.30694
 43818.4631944444 11:07:00/19-Dec-2019    917.38000     41.66000      -999.25      -999.25      -999.25      -999.25      -999.25     20.00000    115.55610      1.30383
 43818.4633101852 11:07:10/19-Dec-2019    917.38000     41.66000      -999.25      -999.25      -999.25      -999.25      -999.25     20.00000    115.48720      1.30305
 43818.4634259259 11:07:20/19-Dec-2019    917.38000     41.66000      -999.25      -999.25      -999.25      -999.25      -999.25     20.00000    115.48720      1.30305
 43818.4635416667 11:07:30/19-Dec-2019    917.38000     41.66000      -999.25      -999.25      -999.25      -999.25      -999.25     20.00000    115.55610      1.30383
 43818.4636574074 11:07:40/19-Dec-2019    917.38000     41.66000      -999.25      -999.25      -999.25      -999.25      -999.25     20.00000    115.41820      1.30227
 43818.4637731481 11:07:50/19-Dec-2019    917.38000     41.66000      -999.25      -999.25      -999.25      -999.25      -999.25     20.00000    115.83190      1.30694
 43818.4638888889 11:08:00/19-Dec-2019    917.38000     41.66000      -999.25      -999.25      -999.25      -999.25      -999.25     20.00000    115.55610      1.30383
 43818.4640046296 11:08:10/19-Dec-2019    917.38000     41.66000      -999.25      -999.25      -999.25      -999.25      -999.25     20.00000    115.62510      1.30461
 43818.4641203704 11:08:20/19-Dec-2019    917.38000     41.66000      -999.25      -999.25      -999.25      -999.25      -999.25     20.00000    115.48720      1.30305
 43818.4642361111 11:08:30/19-Dec-2019    917.38000     41.66000      -999.25      -999.25      -999.25      -999.25      -999.25     20.00000    115.28030      1.30072
 43818.4643518519 11:08:40/19-Dec-2019    917.38000     41.66000      -999.25      -999.25      -999.25      -999.25      -999.25     20.00000    115.83190      1.30694
 43818.4644675926 11:08:50/19-Dec-2019    917.38000     41.66000      -999.25      -999.25      -999.25      -999.25      -999.25     20.00000    115.83190      1.30694
 43818.4645833333 11:09:00/19-Dec-2019    917.38000     41.66000      -999.25      -999.25      -999.25      -999.25      -999.25     20.00000    115.83190      1.30694
 43818.4646990741 11:09:10/19-Dec-2019    917.38000     41.66000      -999.25      -999.25      -999.25      -999.25      -999.25     20.00000    115.55610      1.30383
 43818.4648148148 11:09:20/19-Dec-2019    917.38000     41.66000      -999.25      -999.25      -999.25      -999.25      -999.25     20.00000    115.90090      1.30772
 43818.4649305556 11:09:30/19-Dec-2019    917.38000     41.66000      -999.25      -999.25      -999.25      -999.25      -999.25     20.00000    115.83190      1.30694
 43818.4650462963 11:09:40/19-Dec-2019    917.38000     41.66000      -999.25      -999.25      -999.25      -999.25      -999.25     20.00000    115.62510      1.30461
 43818.4651620370 11:09:50/19-Dec-2019    917.38000     41.66000      -999.25      -999.25      -999.25      -999.25      -999.25     20.00000    115.41820      1.30227
 43818.4652777778 11:10:00/19-Dec-2019    917.38000     41.66000      -999.25      -999.25      -999.25      -999.25      -999.25     20.00000    115.41820      1.30227
 43818.4653935185 11:10:10/19-Dec-2019    917.38000     41.66000    113.45730      -999.25      -999.25      -999.25      -999.25     20.00000    115.76300      1.30616
 43818.4655092593 11:10:20/19-Dec-2019    917.38000     41.66000    113.96580      -999.25      -999.25      -999.25      -999.25     20.00000    115.90090      1.30772
 43818.4656250000 11:10:30/19-Dec-2019    917.38000     41.66000    115.09270      -999.25      -999.25      -999.25      -999.25     20.00000    115.90090      1.30772
 43818.4657407407 11:10:40/19-Dec-2019    917.38000     41.66000    116.70200      -999.25      -999.25      -999.25      -999.25     20.00000    116.03880      1.30928
 43818.4658564815 11:10:50/19-Dec-2019    917.38000     41.66000    118.59960      -999.25      -999.25      -999.25      -999.25     20.00000    115.90090      1.30772
 43818.4659722222 11:11:00/19-Dec-2019    917.38000     41.66000    120.55680      -999.25      -999.25      -999.25      -999.25     20.00000    115.76300      1.30616
 43818.4660879630 11:11:10/19-Dec-2019    917.38000     41.66000    122.33730      -999.25      -999.25      -999.25      -999.25     20.00000    115.76300      1.30616
 43818.4662037037 11:11:20/19-Dec-2019    917.38000     41.66000    123.72650      -999.25      -999.25      -999.25      -999.25     20.00000    115.90090      1.30772
 43818.4663194444 11:11:30/19-Dec-2019    917.38000     41.66000    124.55680      -999.25      -999.25      -999.25      -999.25     20.00000    115.90090      1.30772
 43818.4664351852 11:11:40/19-Dec-2019    917.38000     41.66000    124.72800      -999.25      -999.25      -999.25      -999.25     20.00000    115.90090      1.30772
 43818.4665509259 11:11:50/19-Dec-2019    916.94000     42.10000    124.21950      -999.25      -999.25      -999.25      -999.25     20.00000    115.69400      1.30602
