~VERSION INFORMATION 
VERS  .    2.0                                     :CWLS Log ASCII Standard - VERSION 2.0
WRAP  .    NO                                      :One Line per Time step
PROD  .    Schlumberger Technology Corp.           :LAS Producer
PROG  .    Horizon LASWriter 9.2.113335.3100       :LAS Program name and version
SOURCE.    Run 13-TimeLogicalAcq                   :Run&Pass Information
CREA  .    01/21/2020                              :LAS Creation date {MM/DD/YYYY}
#--------------------------------------------------
~WELL INFORMATION 
#MNEM           .UNIT                      DATA            :DESCRIPTION
#----            ------          --------------            -----------------------------
STRT            .d               43844.3958333334          :START TIME(OLE Automation date)
STOP            .d               43845.1666666667          :STOP TIME(OLE Automation date)
STEP            .d                            0            :STEP TIME(10s in time)
NULL            .                       -999.25            :NULL VALUE
COMP            .                       Equinor            :COMPANY
WELL            .                        31/5-7            :WELL NAME
FLD             .                           Eos            :FIELD NAME
RIGN            .                 West Hercules            :Rig Name
RIGTYP          .                Semi-Submersible          :Rig Type
SON             .                     19SCA0085            :Service Order Number
SRVC            .                  Schlumberger            :SERVICE COMPANY
DATE            .                    01/13/2020            :LOG DATE(Composite Date for Composite LAP) (MM/DD/YYYY)
CLAB            .                       County:            :County Label
CNTY            .                                          :COUNTY
SLAB            .                                          :State/Province Label
STAT            .                                          :STATE or PROVINCE
PROV            .                                          :STATE or PROVINCE
CTRY            .                        Norway            :COUNTRY
CONT_REGION     .                        Europe            :Continent Region
SECT            .                                          :Section
TOWN            .                                          :Township
RANG            .                                          :Range
API             .                                          :API NUMBER
UWI             .                                          :UNIQUE WELL ID
LUL             .                Service Office            :Logging Unit Location
LUN             .                          A615            :Logging Unit Number
LOC             .                Norwegian North Sea       :FIELD LOCATION
FL1             .                Section: 8 1/2 in.        :Field Location Line 1
FL2             .                Job no.: 19SCA0085        :Field Location Line 2
LATI            .deg             60° 34' 35.14" N          :LATITUDE
LONG            .deg             3° 26' 36.13" E           :LONGITUDE
PDAT            .                           MSL            :Local Permanent Datum
LMF             .                            DF            :Logging Measured From
APD             .m                        31.00            :Elevation of Depth Reference (LMF) Above Permanent Datum
EPD             .m                         0.00            :Elevation of Permanent Datum (PDAT) above Mean Sea Level
EKB             .m                      -999.25            :Elevation of Kelly Bushing Above Permanent Datum
EDF             .m                        31.00            :Elevation of Drill Floor Above Permanent Datum
EGL             .m                      -307.00            :Elevation of Ground Level Above Permanent Datum
ECF             .m                      -999.25            :Elevation of Casing Flange above Permanent Datum
#--------------------------------------------------
~CURVE INFORMATION
#MNEM           .UNIT                  API CODE            :DESCRIPTION
#----            ------          --------------            -----------------------------
TIME_1900       .d                                         :                                                        Time Index(OLE Automation date)
TIME            .s                                         :                                (10s)                   Time(hh mm ss/dd-MMM-yyyy)
DEPTH           .m                                         :(RT)    (DnMWorkflow)                                   Depth Index
BLKP            .m                                         :(RT)    (DRILLING_SURFACE)                              Height of block above rig floor
GR              .gAPI                                      :(RT)    (ARC6)                                          Gamma Ray
CRPM            .c/min                                     :(RT)    (TELE675)                                       Collar Rotational Speed
STICK           .c/min                                     :(RT)    (TELE675)                                       Stick Slip Indicator
SHKRSK          .                                          :(RT)    (TELE675)                                       Shock Risk
SHKPK           .gn                                        :(RT)    (TELE675)                                       Shock Peak
DHAT            .degC                                      :(RM)    (ARC6)                                          Downhole Annulus Temperature
DHAP            .bar                                       :(RM)    (ARC6)                                          Downhole Annulus Pressure
ECD             .g/cm3                                     :(RM)    (ARC6)                                          Equivalent Circulating Density
#-------------------------------------------------------------
#       TIME_1900                 TIME        DEPTH         BLKP           GR         CRPM        STICK       SHKRSK        SHKPK         DHAT         DHAP          ECD 
#                                       (DnMWorkfl)  (DRILLING_)       (ARC6)    (TELE675)    (TELE675)    (TELE675)    (TELE675)       (ARC6)       (ARC6)       (ARC6) 
#                                              (RT)         (RT)         (RT)         (RT)         (RT)         (RT)         (RT)         (RM)         (RM)         (RM) 
#                                (10s)                                                                                                                                   
~ASCII
# ...
 43844.7069444444 16:58:00/14-Jan-2020   2833.82007     37.87000     92.84632      -999.25      -999.25      -999.25      -999.25     49.00000    339.91150      1.22697
 43844.7070601852 16:58:10/14-Jan-2020   2833.46021     38.24000     93.41377      -999.25      -999.25      -999.25      -999.25     49.00000    339.98050      1.22737
 43844.7071759259 16:58:20/14-Jan-2020   2833.17993     38.52000     96.97385      -999.25      -999.25      -999.25      -999.25     50.00000    339.42890      1.22551
 43844.7072916667 16:58:30/14-Jan-2020   2834.33008     37.55000    105.36960    219.00000    174.00000      -999.25      -999.25     50.00000    339.77360      1.22626
 43844.7074074074 16:58:40/14-Jan-2020   2834.42993     37.26000    111.94080      -999.25      -999.25      0.00000      0.00000     50.00000    339.63570      1.22571
 43844.7075231481 16:58:50/14-Jan-2020   2833.88013     37.81000    114.60130      -999.25      -999.25      -999.25      -999.25     50.00000    339.98050      1.22719
 43844.7076388889 16:59:00/14-Jan-2020   2833.51001     38.19000    116.74680      -999.25      -999.25      -999.25      -999.25     50.00000    341.29050      1.23207
 43844.7077546296 16:59:10/14-Jan-2020   2833.04004     38.66000    118.09460      -999.25      -999.25      -999.25      -999.25     50.00000    339.98050      1.22756
 43844.7078703704 16:59:20/14-Jan-2020   2834.00977     37.69000    116.51140    170.00000      -999.25      -999.25      -999.25     50.00000    340.87680      1.23038
 43844.7079861111 16:59:30/14-Jan-2020   2834.02002     37.68000    111.78260      -999.25    252.00000      0.00000      0.00000     50.00000    340.39420      1.22863
 43844.7081018519 16:59:40/14-Jan-2020   2834.40991     37.29000    107.05370      -999.25      -999.25      -999.25      -999.25     50.00000    339.98050      1.22697
 43844.7082175926 16:59:50/14-Jan-2020   2834.70996     37.18000    105.17550      -999.25      -999.25      -999.25      -999.25     50.00000    340.60100      1.22908
 43844.7083333333 17:00:00/14-Jan-2020   2835.09985     36.60000    105.42230      -999.25      -999.25      -999.25      -999.25     50.00000    339.77360      1.22592
 43844.7084490741 17:00:10/14-Jan-2020   2835.02002     36.68000    106.30620    184.00000      -999.25      -999.25      -999.25     50.00000    340.67000      1.22918
 43844.7085648148 17:00:20/14-Jan-2020   2833.98999     37.71000    105.58930      -999.25    267.00000      -999.25      -999.25     50.00000    340.87680      1.23038
 43844.7086805556 17:00:30/14-Jan-2020   2833.80005     37.90000    105.58930      -999.25      -999.25      0.00000      0.00000     50.00000    340.39420      1.22872
 43844.7087962963 17:00:40/14-Jan-2020   2834.76001     36.94000    106.30620      -999.25      -999.25      -999.25      -999.25     49.00000    340.25630      1.22781
 43844.7089120370 17:00:50/14-Jan-2020   2834.76001     36.94000    109.61180      -999.25      -999.25      -999.25      -999.25     49.00000    339.77360      1.22607
 43844.7090277778 17:01:00/14-Jan-2020   2834.57983     37.12000    115.20690      -999.25      -999.25      -999.25      -999.25     49.00000    340.04940      1.22713
 43844.7091435185 17:01:10/14-Jan-2020   2834.15015     37.55000    114.93510    189.00000      -999.25      -999.25      -999.25     49.00000    340.60100      1.22932
 43844.7092592593 17:01:20/14-Jan-2020   2834.70996     37.17000    111.78260      -999.25    132.00000      0.00000      0.00000     49.00000    339.98050      1.22684
 43844.7093750000 17:01:30/14-Jan-2020   2835.28003     36.42000    108.63000      -999.25      -999.25      -999.25      -999.25     49.00000    339.29100      1.22410
 43844.7094907407 17:01:40/14-Jan-2020   2835.07983     36.62000    106.47840      -999.25      -999.25      -999.25      -999.25     49.00000    340.60100      1.22891
 43844.7096064815 17:01:50/14-Jan-2020   2835.07007     36.63000    106.11410      -999.25      -999.25      -999.25      -999.25     49.00000    339.70470      1.22568
 43844.7097222222 17:02:00/14-Jan-2020   2834.48999     37.11000    104.41400    181.00000      -999.25      -999.25      -999.25     49.00000    340.11840      1.22743
 43844.7098379630 17:02:10/14-Jan-2020   2835.04980     36.64000    102.92840      -999.25    228.00000      -999.25      -999.25     49.00000    340.46310      1.22843
 43844.7099537037 17:02:20/14-Jan-2020   2835.04004     36.66000    104.57120      -999.25      -999.25      0.00000      0.00000     49.00000    339.77360      1.22594
 43844.7100694444 17:02:30/14-Jan-2020   2835.32007     36.38000    108.82080      -999.25      -999.25      -999.25      -999.25     49.00000    340.04940      1.22682
 43844.7101851852 17:02:40/14-Jan-2020   2835.12012     36.58000    110.13110      -999.25      -999.25      -999.25      -999.25     49.00000    340.46310      1.22840
 43844.7103009259 17:02:50/14-Jan-2020   2834.82007     36.87000    111.34090      -999.25      -999.25      -999.25      -999.25     49.00000    339.91150      1.22654
 43844.7104166667 17:03:00/14-Jan-2020   2835.58008     36.12000    114.25500    193.00000      -999.25      -999.25      -999.25     49.00000    340.39420      1.22795
 43844.7105324074 17:03:10/14-Jan-2020   2835.47998     36.22000    117.53570      -999.25    120.00000      0.00000      0.00000     49.00000    340.25630      1.22749
 43844.7106481481 17:03:20/14-Jan-2020   2834.98999     36.71000    117.40760      -999.25      -999.25      -999.25      -999.25     49.00000    340.53210      1.22870
 43844.7107638889 17:03:30/14-Jan-2020   2835.36987     36.25000    115.36290      -999.25      -999.25      -999.25      -999.25     49.00000    340.67000      1.22903
 43844.7108796296 17:03:40/14-Jan-2020   2835.44995     36.26000    114.51510      -999.25      -999.25      -999.25      -999.25     49.00000    340.04940      1.22676
 43844.7109953704 17:03:50/14-Jan-2020   2836.48999     35.21000    113.49750    175.00000      -999.25      -999.25      -999.25     49.00000    339.91150      1.22581
 43844.7111111111 17:04:00/14-Jan-2020   2835.71997     35.98000    113.39390      -999.25     96.00000      -999.25      -999.25     49.00000    340.80790      1.22938
 43844.7112268518 17:04:10/14-Jan-2020   2835.89990     35.80000    116.67950      -999.25      -999.25      0.00000      0.00000     49.00000    340.39420      1.22782
 43844.7113425926 17:04:20/14-Jan-2020   2835.80005     35.90000    122.31120      -999.25      -999.25      -999.25      -999.25     49.00000    340.39420      1.22785
 43844.7114583333 17:04:30/14-Jan-2020   2835.59985     36.10000    126.05860      -999.25      -999.25      -999.25      -999.25     49.00000    341.63520      1.23242
 43844.7115740741 17:04:40/14-Jan-2020   2835.48999     36.12000    123.46620      -999.25      -999.25      -999.25      -999.25     49.00000    340.11840      1.22699
 43844.7116898148 17:04:50/14-Jan-2020   2836.14990     35.55000    115.18070    168.00000      -999.25      -999.25      -999.25     49.00000    340.94570      1.22969
 43844.7118055556 17:05:00/14-Jan-2020   2836.14990     35.37000    111.64380      -999.25    318.00000      0.00000      0.00000     49.00000    341.08360      1.23018
 43844.7119212963 17:05:10/14-Jan-2020   2836.13989     35.47000    118.33320      -999.25      -999.25      -999.25      -999.25     50.00000    339.77360      1.22547
 43844.7120370370 17:05:20/14-Jan-2020   2836.41992     35.29000    128.45460      -999.25      -999.25      -999.25      -999.25     50.00000    341.77310      1.23256
 43844.7121527778 17:05:30/14-Jan-2020   2836.40991     35.30000    134.98620      -999.25      -999.25      -999.25      -999.25     49.00000    340.60100      1.22833
 43844.7122685185 17:05:40/14-Jan-2020   2836.78003     35.02000    132.59260    220.00000      -999.25      -999.25      -999.25     50.00000    340.39420      1.22743
 43844.7123842593 17:05:50/14-Jan-2020   2836.28979     35.51000    126.28750      -999.25    381.00000      -999.25      -999.25     50.00000    341.63520      1.23212
