~VERSION INFORMATION 
VERS  .    2.0                                     :CWLS Log ASCII Standard - VERSION 2.0
WRAP  .    NO                                      :One Line per Time step
PROD  .    Schlumberger Technology Corp.           :LAS Producer
PROG  .    Horizon LASWriter 9.2.113335.3100       :LAS Program name and version
SOURCE.    Run 2-TimeLogicalAcq                    :Run&Pass Information
CREA  .    12/11/2019                              :LAS Creation date {MM/DD/YYYY}
#--------------------------------------------------
~WELL INFORMATION 
#MNEM           .UNIT                      DATA            :DESCRIPTION
#----            ------          --------------            -----------------------------
STRT            .d               43803.0416666667          :START TIME(OLE Automation date)
STOP            .d               43803.8437500000          :STOP TIME(OLE Automation date)
STEP            .d                            0            :STEP TIME(10s in time)
NULL            .                       -999.25            :NULL VALUE
COMP            .                       Equinor            :COMPANY
WELL            .                        31/5-7            :WELL NAME
FLD             .                           Eos            :FIELD NAME
RIGN            .                 West Hercules            :Rig Name
RIGTYP          .                Semi-Submersible          :Rig Type
SON             .                     19SCA0085            :Service Order Number
SRVC            .                  Schlumberger            :SERVICE COMPANY
DATE            .                    12/04/2019            :LOG DATE(Composite Date for Composite LAP) (MM/DD/YYYY)
CLAB            .                       County:            :County Label
CNTY            .                                          :COUNTY
SLAB            .                                          :State/Province Label
STAT            .                                          :STATE or PROVINCE
PROV            .                                          :STATE or PROVINCE
CTRY            .                        Norway            :COUNTRY
CONT_REGION     .                        Europe            :Continent Region
SECT            .                                          :Section
TOWN            .                                          :Township
RANG            .                                          :Range
API             .                                          :API NUMBER
UWI             .                                          :UNIQUE WELL ID
LUL             .                Service Office            :Logging Unit Location
LUN             .                          A615            :Logging Unit Number
LOC             .                Norwegian North Sea       :FIELD LOCATION
FL1             .                Section: 8 1/2 in. pilot  :Field Location Line 1
FL2             .                Job no.: 19SCA0085        :Field Location Line 2
LATI            .deg             60° 34' 35.14" N          :LATITUDE
LONG            .deg             3° 26' 36.13" E           :LONGITUDE
PDAT            .                           MSL            :Local Permanent Datum
LMF             .                            DF            :Logging Measured From
APD             .m                        31.00            :Elevation of Depth Reference (LMF) Above Permanent Datum
EPD             .m                         0.00            :Elevation of Permanent Datum (PDAT) above Mean Sea Level
EKB             .m                      -999.25            :Elevation of Kelly Bushing Above Permanent Datum
EDF             .m                        31.00            :Elevation of Drill Floor Above Permanent Datum
EGL             .m                      -307.00            :Elevation of Ground Level Above Permanent Datum
ECF             .m                      -999.25            :Elevation of Casing Flange above Permanent Datum
#--------------------------------------------------
~CURVE INFORMATION
#MNEM           .UNIT                  API CODE            :DESCRIPTION
#----            ------          --------------            -----------------------------
TIME_1900       .d                                         :                                                        Time Index(OLE Automation date)
TIME            .s                                         :                                (10s)                   Time(hh mm ss/dd-MMM-yyyy)
DEPTH           .m                                         :(RT)    (DnMWorkflow)                                   Depth Index
GR              .gAPI                                      :(RT)    (DV6MT)                                         Gamma Ray
BLKP            .m                                         :(RT)    (DRILLING_SURFACE)                              Height of block above rig floor
STICK           .c/min                                     :(RT)    (TELE675)                                       Stick Slip Indicator
CRPM            .c/min                                     :(RT)    (TELE675)                                       Collar Rotational Speed
SHKRSK          .                                          :(RT)    (TELE675)                                       Shock Risk
SHKPK           .gn                                        :(RT)    (TELE675)                                       Shock Peak
ECD             .g/cm3                                     :(RM)    (DV6MT)                                         Equivalent Circulating Density
DHAT            .degC                                      :(RM)    (DV6MT)                                         Downhole Annulus Temperature
DHAP            .bar                                       :(RM)    (DV6MT)                                         Downhole Annulus Pressure
#-------------------------------------------------------------
#       TIME_1900                 TIME        DEPTH           GR         BLKP        STICK         CRPM       SHKRSK        SHKPK          ECD         DHAT         DHAP 
#                                       (DnMWorkfl)      (DV6MT)  (DRILLING_)    (TELE675)    (TELE675)    (TELE675)    (TELE675)      (DV6MT)      (DV6MT)      (DV6MT) 
#                                              (RT)         (RT)         (RT)         (RT)         (RT)         (RT)         (RT)         (RM)         (RM)         (RM) 
#                                (10s)                                                                                                                                   
~ASCII
# ...
 43803.4805555556 11:32:00/04-Dec-2019     776.8400      78.0431      27.8100      -999.25      -999.25      -999.25      -999.25       1.2224      14.0000      88.4597
 43803.4806712963 11:32:10/04-Dec-2019     777.0701      79.1219      27.5800      -999.25      96.0000      -999.25      -999.25       1.2144      14.0000      87.9082
 43803.4807870370 11:32:20/04-Dec-2019     776.4500      80.8676      28.2000      -999.25      -999.25      -999.25      -999.25       1.2014      14.0000      86.9429
 43803.4809027778 11:32:30/04-Dec-2019     776.7300      81.8230      27.9200      18.0000      -999.25      -999.25      -999.25       1.1921      14.0000      86.2534
 43803.4810185185 11:32:40/04-Dec-2019     776.7700      80.7517      27.8800      -999.25      -999.25      -999.25      -999.25       1.2092      14.0000      87.4945
 43803.4811342593 11:32:50/04-Dec-2019     776.4200      77.7444      28.2300      -999.25      -999.25      -999.25      -999.25       1.2193      14.0000      88.1840
 43803.4812500000 11:33:00/04-Dec-2019     775.8800      76.9542      28.7700      -999.25      -999.25      -999.25      -999.25       1.2078      14.0000      87.2876
 43803.4813657407 11:33:10/04-Dec-2019     775.8800      75.2848      28.7700      -999.25      -999.25      -999.25      -999.25       1.1925      14.0000      86.1845
 43803.4814814815 11:33:20/04-Dec-2019     775.7900      74.1297      28.8600      -999.25      -999.25      -999.25      -999.25       1.1908      14.0000      86.0466
 43803.4815972222 11:33:30/04-Dec-2019     775.7900      72.8252      28.8600      -999.25      -999.25      -999.25      -999.25       1.2070      14.0000      87.2187
 43803.4817129630 11:33:40/04-Dec-2019     775.7900      70.9606      28.8600      -999.25      -999.25       0.0000       0.0000       1.2156      14.0000      87.8392
 43803.4818287037 11:33:50/04-Dec-2019     775.7900      68.5242      28.8600      -999.25      -999.25      -999.25      -999.25       1.2137      14.0000      87.7013
 43803.4819444444 11:34:00/04-Dec-2019     775.7900      69.3144      28.8600      -999.25      -999.25      -999.25      -999.25       1.2099      14.0000      87.4255
 43803.4820601852 11:34:10/04-Dec-2019     775.7900      70.9837      28.8600      -999.25      29.0000      -999.25      -999.25       1.1956      14.0000      86.3913
 43803.4821759259 11:34:20/04-Dec-2019     775.7900      72.1389      28.8600      -999.25      -999.25      -999.25      -999.25       1.1898      14.0000      85.9776
 43803.4822916667 11:34:30/04-Dec-2019     775.7900      73.4433      28.8600      15.0000      -999.25      -999.25      -999.25       1.1879      14.0000      85.8397
 43803.4824074074 11:34:40/04-Dec-2019     775.7900      73.6455      28.8600      -999.25      -999.25      -999.25      -999.25       1.1956      14.0000      86.3913
 43803.4825231481 11:34:50/04-Dec-2019     775.7900      -999.25      28.8600      -999.25      -999.25      -999.25      -999.25       1.2118      14.0000      87.5634
 43803.4826388889 11:35:00/04-Dec-2019     775.7900      -999.25      28.8600      -999.25      -999.25      -999.25      -999.25       1.1917      14.0000      86.1155
 43803.4827546296 11:35:10/04-Dec-2019     775.7900      -999.25      28.8600      -999.25      -999.25      -999.25      -999.25       1.2108      14.0000      87.4945
 43803.4828703704 11:35:20/04-Dec-2019     775.7900      -999.25      28.8600      -999.25      -999.25      -999.25      -999.25       1.0648      14.0000      76.9455
 43803.4829861111 11:35:30/04-Dec-2019     775.7900      -999.25      28.8600      -999.25      -999.25      -999.25      -999.25       1.0677      -999.25      77.1523
 43803.4831018519 11:35:40/04-Dec-2019     775.7900      -999.25      28.8600      -999.25      -999.25      -999.25      -999.25       1.0715      -999.25      77.4281
 43803.4832175926 11:35:50/04-Dec-2019     775.7900      -999.25      28.8600      -999.25      -999.25      -999.25      -999.25       1.0791      -999.25      77.9797
 43803.4833333333 11:36:00/04-Dec-2019     776.2401      -999.25      28.4100      -999.25      -999.25      -999.25      -999.25       1.0737      -999.25      77.6350
 43803.4834490741 11:36:10/04-Dec-2019     776.4200      -999.25      28.2300      -999.25      -999.25      -999.25      -999.25       1.0715      -999.25      77.4971
 43803.4835648148 11:36:20/04-Dec-2019     776.4200      -999.25      28.2300      -999.25      -999.25      -999.25      -999.25       1.0639      -999.25      76.9455
 43803.4836805556 11:36:30/04-Dec-2019     776.5100      -999.25      28.1400      -999.25      -999.25      -999.25      -999.25       1.0619      -999.25      76.8076
 43803.4837962963 11:36:40/04-Dec-2019     776.5100      -999.25      28.1400      -999.25      -999.25      -999.25      -999.25       1.0686      -999.25      77.2902
 43803.4839120370 11:36:50/04-Dec-2019     776.5100      -999.25      28.1400      -999.25      -999.25      -999.25      -999.25       1.0724      -999.25      77.5660
 43803.4840277778 11:37:00/04-Dec-2019     776.5100      -999.25      28.1400      -999.25      -999.25      -999.25      -999.25       1.0667      -999.25      77.1523
 43803.4841435185 11:37:10/04-Dec-2019     776.5100      -999.25      28.1400      -999.25      -999.25      -999.25      -999.25       1.0628      -999.25      76.8765
 43803.4842592593 11:37:20/04-Dec-2019     776.5100      -999.25      28.1400      -999.25      -999.25      -999.25      -999.25       1.0638      -999.25      76.9455
 43803.4843750000 11:37:30/04-Dec-2019     776.5100      -999.25      28.1400      -999.25      -999.25      -999.25      -999.25       1.0667      -999.25      77.1523
 43803.4844907407 11:37:40/04-Dec-2019     776.5100      -999.25      28.1400      -999.25      -999.25      -999.25      -999.25       1.0695      -999.25      77.3592
 43803.4846064815 11:37:50/04-Dec-2019     776.5100      -999.25      28.1400      -999.25      -999.25      -999.25      -999.25       1.0705      -999.25      77.4281
 43803.4847222222 11:38:00/04-Dec-2019     776.5100      -999.25      28.1400      -999.25      -999.25      -999.25      -999.25       1.0705      -999.25      77.4281
 43803.4848379630 11:38:10/04-Dec-2019     776.5100      -999.25      28.1400      -999.25      -999.25      -999.25      -999.25       1.0657      -999.25      77.0834
 43803.4849537037 11:38:20/04-Dec-2019     776.5100      -999.25      28.1400      -999.25      -999.25      -999.25      -999.25       1.0714      -999.25      77.4971
 43803.4850694444 11:38:30/04-Dec-2019     776.5100      -999.25      28.1400      -999.25      -999.25      -999.25      -999.25       1.0705      -999.25      77.4281
 43803.4851851852 11:38:40/04-Dec-2019     776.5100      -999.25      28.1400      -999.25      -999.25      -999.25      -999.25       1.0667      -999.25      77.1523
 43803.4853009259 11:38:50/04-Dec-2019     776.5100      -999.25      28.1400      -999.25      -999.25      -999.25      -999.25       1.0695      -999.25      77.3592
 43803.4854166667 11:39:00/04-Dec-2019     776.5100      -999.25      28.1400      -999.25      -999.25      -999.25      -999.25       1.0743      -999.25      77.7039
 43803.4855324074 11:39:10/04-Dec-2019     776.5100      -999.25      28.1400      -999.25      -999.25      -999.25      -999.25       1.0762      -999.25      77.8418
 43803.4856481481 11:39:20/04-Dec-2019     776.5100      -999.25      28.1400      -999.25      -999.25      -999.25      -999.25       1.0714      -999.25      77.4971
 43803.4857638889 11:39:30/04-Dec-2019     776.5100      -999.25      28.1400      -999.25      -999.25      -999.25      -999.25       1.0705      -999.25      77.4281
 43803.4858796296 11:39:40/04-Dec-2019     776.5100      -999.25      28.1400      -999.25      -999.25      -999.25      -999.25       1.0724      -999.25      77.5660
 43803.4859953704 11:39:50/04-Dec-2019     776.5100      -999.25      28.1400      -999.25      -999.25      -999.25      -999.25       1.0810      -999.25      78.1866
