~VERSION INFORMATION 
VERS  .    2.0                                     :CWLS Log ASCII Standard - VERSION 2.0
WRAP  .    NO                                      :One Line per Time step
PROD  .    Schlumberger Technology Corp.           :LAS Producer
PROG  .    Horizon LASWriter 9.2.113335.3100       :LAS Program name and version
SOURCE.    Run 8-TimeLogicalAcq                    :Run&Pass Information
CREA  .    12/30/2019                              :LAS Creation date {MM/DD/YYYY}
#--------------------------------------------------
~WELL INFORMATION 
#MNEM           .UNIT                      DATA            :DESCRIPTION
#----            ------          --------------            -----------------------------
STRT            .d               43822.4166666667          :START TIME(OLE Automation date)
STOP            .d               43824.6875000000          :STOP TIME(OLE Automation date)
STEP            .d                            0            :STEP TIME(10s in time)
NULL            .                       -999.25            :NULL VALUE
COMP            .                       Equinor            :COMPANY
WELL            .                        31/5-7            :WELL NAME
FLD             .                           Eos            :FIELD NAME
RIGN            .                 West Hercules            :Rig Name
RIGTYP          .                Semi-Submersible          :Rig Type
SON             .                     19SCA0085            :Service Order Number
SRVC            .                  Schlumberger            :SERVICE COMPANY
DATE            .                    12/23/2019            :LOG DATE(Composite Date for Composite LAP) (MM/DD/YYYY)
CLAB            .                       County:            :County Label
CNTY            .                                          :COUNTY
SLAB            .                                          :State/Province Label
STAT            .                                          :STATE or PROVINCE
PROV            .                                          :STATE or PROVINCE
CTRY            .                        Norway            :COUNTRY
CONT_REGION     .                        Europe            :Continent Region
SECT            .                                          :Section
TOWN            .                                          :Township
RANG            .                                          :Range
API             .                                          :API NUMBER
UWI             .                                          :UNIQUE WELL ID
LUL             .                Service Office            :Logging Unit Location
LUN             .                          A615            :Logging Unit Number
LOC             .                Norwegian North Sea       :FIELD LOCATION
FL1             .                Section: 12 1/4 in.       :Field Location Line 1
FL2             .                Job no.: 19SCA0085        :Field Location Line 2
LATI            .deg             60° 34' 35.14" N          :LATITUDE
LONG            .deg             3° 26' 36.13" E           :LONGITUDE
PDAT            .                           MSL            :Local Permanent Datum
LMF             .                            DF            :Logging Measured From
APD             .m                        31.00            :Elevation of Depth Reference (LMF) Above Permanent Datum
EPD             .m                         0.00            :Elevation of Permanent Datum (PDAT) above Mean Sea Level
EKB             .m                      -999.25            :Elevation of Kelly Bushing Above Permanent Datum
EDF             .m                        31.00            :Elevation of Drill Floor Above Permanent Datum
EGL             .m                      -307.00            :Elevation of Ground Level Above Permanent Datum
ECF             .m                      -999.25            :Elevation of Casing Flange above Permanent Datum
#--------------------------------------------------
~CURVE INFORMATION
#MNEM           .UNIT                  API CODE            :DESCRIPTION
#----            ------          --------------            -----------------------------
TIME_1900       .d                                         :                                                        Time Index(OLE Automation date)
TIME            .s                                         :                                (10s)                   Time(hh mm ss/dd-MMM-yyyy)
DEPTH           .m                                         :(RT)    (DnMWorkflow)                                   Depth Index
GR              .gAPI                                      :(RT)    (ARC9)                                          Gamma Ray
BLKP            .m                                         :(RT)    (DRILLING_SURFACE)                              Height of block above rig floor
CRPM            .c/min                                     :(RT)    (TELE900)                                       Collar Rotational Speed
STICK           .c/min                                     :(RT)    (TELE900)                                       Stick Slip Indicator
SHKPK           .gn                                        :(RT)    (TELE900)                                       Shock Peak
SHKRSK          .                                          :(RT)    (TELE900)                                       Shock Risk
DHAP            .bar                                       :(RM)    (ARC9)                                          Downhole Annulus Pressure
DHAT            .degC                                      :(RM)    (ARC9)                                          Downhole Annulus Temperature
ECD             .g/cm3                                     :(RM)    (ARC9)                                          Equivalent Circulating Density
#-------------------------------------------------------------
#       TIME_1900                 TIME        DEPTH           GR         BLKP         CRPM        STICK        SHKPK       SHKRSK         DHAP         DHAT          ECD 
#                                       (DnMWorkfl)       (ARC9)  (DRILLING_)    (TELE900)    (TELE900)    (TELE900)    (TELE900)       (ARC9)       (ARC9)       (ARC9) 
#                                              (RT)         (RT)         (RT)         (RT)         (RT)         (RT)         (RT)         (RM)         (RM)         (RM) 
#                                (10s)                                                                                                                                   
~ASCII
# ...
 43823.4444444444 10:40:00/24-Dec-2019    2188.9001      85.1840      35.1400      -999.25      -999.25      -999.25      -999.25     278.3413      39.0000       1.3035
 43823.4445601852 10:40:10/24-Dec-2019    2189.0500      91.7731      34.9900      -999.25      -999.25      -999.25      -999.25     278.3413      39.0000       1.3034
 43823.4446759259 10:40:20/24-Dec-2019    2189.2000      98.0125      34.8400     182.0000      -999.25      -999.25      -999.25     278.4103      39.0000       1.3036
 43823.4447916667 10:40:30/24-Dec-2019    2189.3401      97.9093      34.7000      -999.25      -999.25      -999.25      -999.25     278.4103      39.0000       1.3035
 43823.4449074074 10:40:40/24-Dec-2019    2189.5000     101.4582      34.5400      -999.25      -999.25      -999.25      -999.25     278.3413      39.0000       1.3031
 43823.4450231481 10:40:50/24-Dec-2019    2189.6401     102.4064      34.4000      -999.25      -999.25      -999.25      -999.25     278.5482      39.0000       1.3040
 43823.4451388889 10:41:00/24-Dec-2019    2189.7500     100.4428      34.2900      -999.25      78.0000      -999.25      -999.25     278.1345      39.0000       1.3020
 43823.4452546296 10:41:10/24-Dec-2019    2189.8699      98.4792      34.1700      -999.25      -999.25       0.0000       0.0000     278.6171      39.0000       1.3042
 43823.4453703704 10:41:20/24-Dec-2019    2190.0000      96.3985      34.0400      -999.25      -999.25      -999.25      -999.25     278.2035      39.0000       1.3022
 43823.4454861111 10:41:30/24-Dec-2019    2190.1101      92.6274      33.9300      -999.25      -999.25      -999.25      -999.25     278.6171      39.0000       1.3040
 43823.4456018518 10:41:40/24-Dec-2019    2190.2500      90.5802      33.7900     185.0000      -999.25      -999.25      -999.25     278.2035      39.0000       1.3020
 43823.4457175926 10:41:50/24-Dec-2019    2190.3701      94.5265      33.6700      -999.25      -999.25      -999.25      -999.25     278.6171      39.0000       1.3039
 43823.4458333333 10:42:00/24-Dec-2019    2190.5000      99.8167      33.5400      -999.25      -999.25      -999.25      -999.25     278.5482      39.0000       1.3035
 43823.4459490741 10:42:10/24-Dec-2019    2190.6199     100.2588      33.4200      -999.25      -999.25      -999.25      -999.25     278.7550      39.0000       1.3044
 43823.4460648148 10:42:20/24-Dec-2019    2190.7500      92.5238      33.2900      -999.25     381.0000      -999.25      -999.25     278.4103      39.0000       1.3027
 43823.4461805556 10:42:30/24-Dec-2019    2190.7900      92.5238      33.2500      -999.25      -999.25       0.0000       0.0000     278.7550      39.0000       1.3043
 43823.4462962963 10:42:40/24-Dec-2019    2191.0200     100.2588      33.0200      -999.25      -999.25      -999.25      -999.25     278.4792      39.0000       1.3029
 43823.4464120370 10:42:50/24-Dec-2019    2191.0400     110.1657      33.0000      -999.25      -999.25      -999.25      -999.25     278.8929      39.0000       1.3048
 43823.4465277778 10:43:00/24-Dec-2019    2191.1799     108.3249      32.8600     222.0000      -999.25      -999.25      -999.25     278.4792      39.0000       1.3028
 43823.4466435185 10:43:10/24-Dec-2019    2191.3899      99.7924      32.6500      -999.25      -999.25      -999.25      -999.25     278.8929      39.0000       1.3046
 43823.4467592593 10:43:20/24-Dec-2019    2191.4299      90.9844      32.6100      -999.25      -999.25      -999.25      -999.25     278.5482      39.0000       1.3029
 43823.4468750000 10:43:30/24-Dec-2019    2191.5598      87.7401      32.4800      -999.25      -999.25      -999.25      -999.25     278.8929      39.0000       1.3045
 43823.4469907407 10:43:40/24-Dec-2019    2191.6899      96.4097      32.3500      -999.25     375.0000      -999.25      -999.25     278.7550      39.0000       1.3037
 43823.4471064815 10:43:50/24-Dec-2019    2191.9099     102.6784      32.1300      -999.25      -999.25       0.0000       0.0000     279.0308      39.0000       1.3049
 43823.4472222222 10:44:00/24-Dec-2019    2192.0300     103.6131      32.0100      -999.25      -999.25      -999.25      -999.25     278.7550      39.0000       1.3035
 43823.4473379630 10:44:10/24-Dec-2019    2192.1599      98.4215      31.8800      -999.25      -999.25      -999.25      -999.25     279.0998      39.0000       1.3051
 43823.4474537037 10:44:20/24-Dec-2019    2192.2700      94.2203      31.7700      -999.25      -999.25      -999.25      -999.25     278.8240      39.0000       1.3037
 43823.4475694444 10:44:30/24-Dec-2019    2192.3101      89.6341      31.7300     171.0000      -999.25      -999.25      -999.25     279.0998      39.0000       1.3050
 43823.4476851852 10:44:40/24-Dec-2019    2192.5200      85.7461      31.5200      -999.25      -999.25      -999.25      -999.25     278.8929      39.0000       1.3039
 43823.4478009259 10:44:50/24-Dec-2019    2192.6399      88.4698      31.4000      -999.25      -999.25      -999.25      -999.25     278.8929      39.0000       1.3038
 43823.4479166667 10:45:00/24-Dec-2019    2192.6799      90.7303      31.3600      -999.25     378.0000      -999.25      -999.25     278.8929      39.0000       1.3038
 43823.4480324074 10:45:10/24-Dec-2019    2192.8999      91.4370      31.1400      -999.25      -999.25      -999.25      -999.25     279.0308      39.0000       1.3043
 43823.4481481481 10:45:20/24-Dec-2019    2192.9399      91.1339      31.1000      -999.25      -999.25       0.0000       0.0000     278.8929      39.0000       1.3036
 43823.4482638889 10:45:30/24-Dec-2019    2192.9099      88.3328      31.1300      -999.25      -999.25      -999.25      -999.25     279.0308      39.0000       1.3043
 43823.4483796296 10:45:40/24-Dec-2019    2193.0400      83.2062      31.0000      -999.25      -999.25      -999.25      -999.25     278.8240      39.0000       1.3033
 43823.4484953704 10:45:50/24-Dec-2019    2193.1301      89.0381      30.9100     207.0000      -999.25      -999.25      -999.25     278.8929      39.0000       1.3035
 43823.4486111111 10:46:00/24-Dec-2019    2193.1199      95.9174      30.9200      -999.25      -999.25      -999.25      -999.25     278.8929      39.0000       1.3035
 43823.4487268519 10:46:10/24-Dec-2019    2193.1099      96.7175      30.9300      -999.25      -999.25      -999.25      -999.25     278.8929      39.0000       1.3035
 43823.4488425926 10:46:20/24-Dec-2019    2193.0901      85.1928      30.9500      -999.25      -999.25      -999.25      -999.25     278.8240      39.0000       1.3032
 43823.4489583333 10:46:30/24-Dec-2019    2193.0801      84.6321      30.9600      -999.25     255.0000      -999.25      -999.25     278.8240      39.0000       1.3032
 43823.4490740741 10:46:40/24-Dec-2019    2193.1499      89.1199      30.8900      -999.25      -999.25       0.0000       0.0000     278.9619      39.0000       1.3038
 43823.4491898148 10:46:50/24-Dec-2019    2193.2100      94.2888      30.8300      -999.25      -999.25      -999.25      -999.25     278.8929      39.0000       1.3035
 43823.4493055556 10:47:00/24-Dec-2019    2193.2500      97.6449      30.7900      -999.25      -999.25      -999.25      -999.25     278.8929      39.0000       1.3035
 43823.4494212963 10:47:10/24-Dec-2019    2193.2800      97.4851      30.7600     185.0000      -999.25      -999.25      -999.25     278.8929      39.0000       1.3034
 43823.4495370370 10:47:20/24-Dec-2019    2193.3401      96.9316      30.7000      -999.25      -999.25      -999.25      -999.25     278.8929      39.0000       1.3034
 43823.4496527778 10:47:30/24-Dec-2019    2193.5400      98.9714      30.5100      -999.25      -999.25      -999.25      -999.25     278.8929      39.0000       1.3033
 43823.4497685185 10:47:40/24-Dec-2019    2193.6899     105.7338      30.3600      -999.25      -999.25      -999.25      -999.25     278.8929      39.0000       1.3032
 43823.4498842593 10:47:50/24-Dec-2019    2193.9299     102.5324      30.1200      -999.25     141.0000      -999.25      -999.25     278.9619      39.0000       1.3034
