~VERSION INFORMATION 
VERS  .    2.0                                     :CWLS Log ASCII Standard - VERSION 2.0
WRAP  .    NO                                      :One Line per Time step
PROD  .    Schlumberger Technology Corp.           :LAS Producer
PROG  .    Horizon LASWriter 9.2.113335.3100       :LAS Program name and version
SOURCE.    Run 10-TimeLogicalAcq                   :Run&Pass Information
CREA  .    01/21/2020                              :LAS Creation date {MM/DD/YYYY}
#--------------------------------------------------
~WELL INFORMATION 
#MNEM           .UNIT                      DATA            :DESCRIPTION
#----            ------          --------------            -----------------------------
STRT            .d               43830.7500000000          :START TIME(OLE Automation date)
STOP            .d               43831.2291666667          :STOP TIME(OLE Automation date)
STEP            .d                            0            :STEP TIME(10s in time)
NULL            .                       -999.25            :NULL VALUE
COMP            .                       Equinor            :COMPANY
WELL            .                        31/5-7            :WELL NAME
FLD             .                           Eos            :FIELD NAME
RIGN            .                 West Hercules            :Rig Name
RIGTYP          .                Semi-Submersible          :Rig Type
SON             .                     19SCA0085            :Service Order Number
SRVC            .                  Schlumberger            :SERVICE COMPANY
DATE            .                    12/31/2019            :LOG DATE(Composite Date for Composite LAP) (MM/DD/YYYY)
CLAB            .                       County:            :County Label
CNTY            .                                          :COUNTY
SLAB            .                                          :State/Province Label
STAT            .                                          :STATE or PROVINCE
PROV            .                                          :STATE or PROVINCE
CTRY            .                        Norway            :COUNTRY
CONT_REGION     .                        Europe            :Continent Region
SECT            .                                          :Section
TOWN            .                                          :Township
RANG            .                                          :Range
API             .                                          :API NUMBER
UWI             .                                          :UNIQUE WELL ID
LUL             .                Service Office            :Logging Unit Location
LUN             .                          A615            :Logging Unit Number
LOC             .                Norwegian North Sea       :FIELD LOCATION
FL1             .                Section: 8 1/2 in.        :Field Location Line 1
FL2             .                Job no.: 19SCA0085        :Field Location Line 2
LATI            .deg             60° 34' 35.14" N          :LATITUDE
LONG            .deg             3° 26' 36.13" E           :LONGITUDE
PDAT            .                           MSL            :Local Permanent Datum
LMF             .                            DF            :Logging Measured From
APD             .m                        31.00            :Elevation of Depth Reference (LMF) Above Permanent Datum
EPD             .m                         0.00            :Elevation of Permanent Datum (PDAT) above Mean Sea Level
EKB             .m                      -999.25            :Elevation of Kelly Bushing Above Permanent Datum
EDF             .m                        31.00            :Elevation of Drill Floor Above Permanent Datum
EGL             .m                      -307.00            :Elevation of Ground Level Above Permanent Datum
ECF             .m                      -999.25            :Elevation of Casing Flange above Permanent Datum
#--------------------------------------------------
~CURVE INFORMATION
#MNEM           .UNIT                  API CODE            :DESCRIPTION
#----            ------          --------------            -----------------------------
TIME_1900       .d                                         :                                                        Time Index(OLE Automation date)
TIME            .s                                         :                                (10s)                   Time(hh mm ss/dd-MMM-yyyy)
DEPTH           .m                                         :(RT)    (DnMWorkflow)                                   Depth Index
BLKP            .m                                         :(RT)    (DRILLING_SURFACE)                              Height of block above rig floor
GR              .gAPI                                      :(RT)    (ARC6)                                          Gamma Ray
CRPM            .c/min                                     :(RT)    (TELE675)                                       Collar Rotational Speed
STICK           .c/min                                     :(RT)    (TELE675)                                       Stick Slip Indicator
SHKRSK          .                                          :(RT)    (TELE675)                                       Shock Risk
SHKPK           .gn                                        :(RT)    (TELE675)                                       Shock Peak
DHAT            .degC                                      :(RM)    (ARC6)                                          Downhole Annulus Temperature
DHAP            .bar                                       :(RM)    (ARC6)                                          Downhole Annulus Pressure
ECD             .g/cm3                                     :(RM)    (ARC6)                                          Equivalent Circulating Density
#-------------------------------------------------------------
#       TIME_1900                 TIME        DEPTH         BLKP           GR         CRPM        STICK       SHKRSK        SHKPK         DHAT         DHAP          ECD 
#                                       (DnMWorkfl)  (DRILLING_)       (ARC6)    (TELE675)    (TELE675)    (TELE675)    (TELE675)       (ARC6)       (ARC6)       (ARC6) 
#                                              (RT)         (RT)         (RT)         (RT)         (RT)         (RT)         (RT)         (RM)         (RM)         (RM) 
#                                (10s)                                                                                                                                   
~ASCII
# ...
 43831.0444444444 01:04:00/01-Jan-2020   2609.53003     30.71000    101.86470      -999.25      -999.25      -999.25      -999.25     39.00000    304.61040      1.19437
 43831.0445601852 01:04:10/01-Jan-2020   2609.44019     30.80000     99.12327      -999.25      -999.25      -999.25      -999.25     39.00000    306.95460      1.20359
 43831.0446759259 01:04:20/01-Jan-2020   2609.34985     30.90000     99.23109      -999.25      -999.25      -999.25      -999.25     39.00000    305.57560      1.19823
 43831.0447916667 01:04:30/01-Jan-2020   2609.25000     30.99000    100.36280    100.00000      -999.25      -999.25      -999.25     39.00000    304.12780      1.19260
 43831.0449074074 01:04:40/01-Jan-2020   2609.15991     31.08000    100.78890      -999.25     12.00000      -999.25      -999.25     39.00000    303.36930      1.18967
 43831.0450231481 01:04:50/01-Jan-2020   2609.07007     31.17000    100.36280      -999.25      -999.25      0.00000      0.00000     39.00000    306.47200      1.20188
 43831.0451388889 01:05:00/01-Jan-2020   2608.97998     31.27000    101.07140      -999.25      -999.25      -999.25      -999.25     39.00000    307.23040      1.20489
 43831.0452546296 01:05:10/01-Jan-2020   2608.87988     31.36000    105.54720      -999.25      -999.25      -999.25      -999.25     39.00000    305.09300      1.19655
 43831.0453703704 01:05:20/01-Jan-2020   2608.79004     31.45000    108.06880      -999.25      -999.25      -999.25      -999.25     39.00000    303.78300      1.19146
 43831.0454861111 01:05:30/01-Jan-2020   2608.69995     31.54000    107.68450    100.00000      -999.25      -999.25      -999.25     39.00000    304.26560      1.19340
 43831.0456018519 01:05:40/01-Jan-2020   2608.60986     31.64000    107.90940      -999.25      6.00000      0.00000      0.00000     39.00000    304.05880      1.19263
 43831.0457175926 01:05:50/01-Jan-2020   2608.52002     31.72000    108.67210      -999.25      -999.25      -999.25      -999.25     39.00000    304.47250      1.19428
 43831.0458333333 01:06:00/01-Jan-2020   2608.42017     31.82000    109.16890      -999.25      -999.25      -999.25      -999.25     39.00000    306.74780      1.20325
 43831.0459490741 01:06:10/01-Jan-2020   2608.32983     31.91000    110.57850      -999.25      -999.25      -999.25      -999.25     39.00000    305.23090      1.19735
 43831.0460648148 01:06:20/01-Jan-2020   2608.23999     32.01000    118.97100    100.00000      -999.25      -999.25      -999.25     39.00000    307.50620      1.20632
 43831.0461805556 01:06:30/01-Jan-2020   2608.15015     32.10000    125.53230      -999.25      6.00000      0.00000      0.00000     39.00000    306.54090      1.20258
 43831.0462962963 01:06:40/01-Jan-2020   2608.05005     32.19000    125.27610      -999.25      -999.25      -999.25      -999.25     39.00000    304.05880      1.19288
 43831.0464120370 01:06:50/01-Jan-2020   2607.95996     32.28000    121.18680      -999.25      -999.25      -999.25      -999.25     39.00000    306.12720      1.20103
 43831.0465277778 01:07:00/01-Jan-2020   2607.86987     32.37000    119.92490      -999.25      -999.25      -999.25      -999.25     39.00000    305.23090      1.19756
 43831.0466435185 01:07:10/01-Jan-2020   2607.78003     32.47000    124.00750      -999.25      -999.25      -999.25      -999.25     39.00000    303.85200      1.19220
 43831.0467592593 01:07:20/01-Jan-2020   2607.68994     32.56000    128.36070    101.00000      -999.25      -999.25      -999.25     39.00000    303.85200      1.19224
 43831.0468750000 01:07:30/01-Jan-2020   2607.58984     32.65000    126.71790      -999.25      9.00000      0.00000      0.00000     39.00000    306.12720      1.20120
 43831.0469907407 01:07:40/01-Jan-2020   2607.50000     32.75000    119.60060      -999.25      -999.25      -999.25      -999.25     39.00000    305.98930      1.20071
 43831.0471064815 01:07:50/01-Jan-2020   2607.41016     32.84000    114.15310      -999.25      -999.25      -999.25      -999.25     39.00000    305.29980      1.19804
 43831.0472222222 01:08:00/01-Jan-2020   2607.31006     32.93000    109.92560      -999.25      -999.25      -999.25      -999.25     39.00000    304.33460      1.19431
 43831.0473379630 01:08:10/01-Jan-2020   2607.21997     33.02000    103.57770    100.00000      -999.25      -999.25      -999.25     39.00000    303.23140      1.19002
 43831.0474537037 01:08:20/01-Jan-2020   2607.13013     33.11000     97.14449      -999.25      9.00000      0.00000      0.00000     39.00000    304.61040      1.19546
 43831.0475694444 01:08:30/01-Jan-2020   2607.04004     33.21000     94.12007      -999.25      -999.25      -999.25      -999.25     39.00000    304.47250      1.19497
 43831.0476851852 01:08:40/01-Jan-2020   2606.94019     33.30000     95.32994      -999.25      -999.25      -999.25      -999.25     39.00000    303.57620      1.19149
 43831.0478009259 01:08:50/01-Jan-2020   2606.84985     33.39000    100.60360      -999.25      -999.25      -999.25      -999.25     39.00000    303.85200      1.19262
 43831.0479166667 01:09:00/01-Jan-2020   2606.76001     33.49000    104.05200      -999.25      -999.25      -999.25      -999.25     39.00000    302.40410      1.18698
 43831.0480324074 01:09:10/01-Jan-2020   2606.67017     33.58000    104.15560    100.00000      -999.25      -999.25      -999.25     39.00000    306.54090      1.20325
 43831.0481481481 01:09:20/01-Jan-2020   2606.57983     33.67000    100.86990      -999.25      9.00000      0.00000      0.00000     39.00000    305.16200      1.19788
 43831.0482638889 01:09:30/01-Jan-2020   2606.47998     33.76000     95.23826      -999.25      -999.25      -999.25      -999.25     39.00000    304.88620      1.19685
 43831.0483796296 01:09:40/01-Jan-2020   2606.39014     33.86000     91.49084      -999.25      -999.25      -999.25      -999.25     39.00000    303.36930      1.19094
 43831.0484953704 01:09:50/01-Jan-2020   2606.30005     33.95000     94.01436      -999.25      -999.25      -999.25      -999.25     39.00000    305.09300      1.19775
 43831.0486111111 01:10:00/01-Jan-2020   2606.20020     34.04000    105.63430    100.00000      -999.25      -999.25      -999.25     39.00000    305.23090      1.19833
 43831.0487268518 01:10:10/01-Jan-2020   2606.10986     34.13000    116.92440      -999.25      6.00000      0.00000      0.00000     39.00000    304.74830      1.19647
 43831.0488425926 01:10:20/01-Jan-2020   2606.02002     34.22000    121.39700      -999.25      -999.25      -999.25      -999.25     39.00000    305.50670      1.19949
 43831.0489583333 01:10:30/01-Jan-2020   2605.92993     34.31000    121.16190      -999.25      -999.25      -999.25      -999.25     39.00000    304.81720      1.19684
 43831.0490740741 01:10:40/01-Jan-2020   2605.83008     34.41000    121.92910      -999.25      -999.25      -999.25      -999.25     39.00000    305.92040      1.20121
 43831.0491898148 01:10:50/01-Jan-2020   2605.73999     34.50000    123.39490    100.00000      -999.25      -999.25      -999.25     39.00000    305.29980      1.19881
 43831.0493055556 01:11:00/01-Jan-2020   2605.65015     34.59000    124.77690      -999.25      9.00000      -999.25      -999.25     39.00000    303.09350      1.19019
 43831.0494212963 01:11:10/01-Jan-2020   2605.55981     34.68000    126.41970      -999.25      -999.25      0.00000      0.00000     39.00000    301.92140      1.18563
 43831.0495370370 01:11:20/01-Jan-2020   2605.46997     34.77000    127.80170      -999.25      -999.25      -999.25      -999.25     39.00000    302.12830      1.18649
 43831.0496527778 01:11:30/01-Jan-2020   2605.36987     34.87000    126.13330      -999.25      -999.25      -999.25      -999.25     39.00000    303.50720      1.19195
 43831.0497685185 01:11:40/01-Jan-2020   2605.28003     34.96000    123.02990      -999.25      -999.25      -999.25      -999.25     39.00000    305.85140      1.20119
 43831.0498842593 01:11:50/01-Jan-2020   2605.18994     35.05000    121.23460    100.00000      -999.25      -999.25      -999.25     39.00000    305.98930      1.20177
