~VERSION INFORMATION 
VERS  .    2.0                                     :CWLS Log ASCII Standard - VERSION 2.0
WRAP  .    NO                                      :One Line per Time step
PROD  .    Schlumberger Technology Corp.           :LAS Producer
PROG  .    Horizon LASWriter 9.2.113335.3100       :LAS Program name and version
SOURCE.    Run 8-TimeLogicalAcq                    :Run&Pass Information
CREA  .    12/30/2019                              :LAS Creation date {MM/DD/YYYY}
#--------------------------------------------------
~WELL INFORMATION 
#MNEM           .UNIT                      DATA            :DESCRIPTION
#----            ------          --------------            -----------------------------
STRT            .d               43822.4166666667          :START TIME(OLE Automation date)
STOP            .d               43824.6875000000          :STOP TIME(OLE Automation date)
STEP            .d                            0            :STEP TIME(10s in time)
NULL            .                       -999.25            :NULL VALUE
COMP            .                       Equinor            :COMPANY
WELL            .                        31/5-7            :WELL NAME
FLD             .                           Eos            :FIELD NAME
RIGN            .                 West Hercules            :Rig Name
RIGTYP          .                Semi-Submersible          :Rig Type
SON             .                     19SCA0085            :Service Order Number
SRVC            .                  Schlumberger            :SERVICE COMPANY
DATE            .                    12/23/2019            :LOG DATE(Composite Date for Composite LAP) (MM/DD/YYYY)
CLAB            .                       County:            :County Label
CNTY            .                                          :COUNTY
SLAB            .                                          :State/Province Label
STAT            .                                          :STATE or PROVINCE
PROV            .                                          :STATE or PROVINCE
CTRY            .                        Norway            :COUNTRY
CONT_REGION     .                        Europe            :Continent Region
SECT            .                                          :Section
TOWN            .                                          :Township
RANG            .                                          :Range
API             .                                          :API NUMBER
UWI             .                                          :UNIQUE WELL ID
LUL             .                Service Office            :Logging Unit Location
LUN             .                          A615            :Logging Unit Number
LOC             .                Norwegian North Sea       :FIELD LOCATION
FL1             .                Section: 12 1/4 in.       :Field Location Line 1
FL2             .                Job no.: 19SCA0085        :Field Location Line 2
LATI            .deg             60° 34' 35.14" N          :LATITUDE
LONG            .deg             3° 26' 36.13" E           :LONGITUDE
PDAT            .                           MSL            :Local Permanent Datum
LMF             .                            DF            :Logging Measured From
APD             .m                        31.00            :Elevation of Depth Reference (LMF) Above Permanent Datum
EPD             .m                         0.00            :Elevation of Permanent Datum (PDAT) above Mean Sea Level
EKB             .m                      -999.25            :Elevation of Kelly Bushing Above Permanent Datum
EDF             .m                        31.00            :Elevation of Drill Floor Above Permanent Datum
EGL             .m                      -307.00            :Elevation of Ground Level Above Permanent Datum
ECF             .m                      -999.25            :Elevation of Casing Flange above Permanent Datum
#--------------------------------------------------
~CURVE INFORMATION
#MNEM           .UNIT                  API CODE            :DESCRIPTION
#----            ------          --------------            -----------------------------
TIME_1900       .d                                         :                                                        Time Index(OLE Automation date)
TIME            .s                                         :                                (10s)                   Time(hh mm ss/dd-MMM-yyyy)
DEPTH           .m                                         :(RT)    (DnMWorkflow)                                   Depth Index
GR              .gAPI                                      :(RT)    (ARC9)                                          Gamma Ray
BLKP            .m                                         :(RT)    (DRILLING_SURFACE)                              Height of block above rig floor
CRPM            .c/min                                     :(RT)    (TELE900)                                       Collar Rotational Speed
STICK           .c/min                                     :(RT)    (TELE900)                                       Stick Slip Indicator
SHKPK           .gn                                        :(RT)    (TELE900)                                       Shock Peak
SHKRSK          .                                          :(RT)    (TELE900)                                       Shock Risk
DHAP            .bar                                       :(RM)    (ARC9)                                          Downhole Annulus Pressure
DHAT            .degC                                      :(RM)    (ARC9)                                          Downhole Annulus Temperature
ECD             .g/cm3                                     :(RM)    (ARC9)                                          Equivalent Circulating Density
#-------------------------------------------------------------
#       TIME_1900                 TIME        DEPTH           GR         BLKP         CRPM        STICK        SHKPK       SHKRSK         DHAP         DHAT          ECD 
#                                       (DnMWorkfl)       (ARC9)  (DRILLING_)    (TELE900)    (TELE900)    (TELE900)    (TELE900)       (ARC9)       (ARC9)       (ARC9) 
#                                              (RT)         (RT)         (RT)         (RT)         (RT)         (RT)         (RT)         (RM)         (RM)         (RM) 
#                                (10s)                                                                                                                                   
~ASCII
# ...
 43823.5833333333 14:00:00/24-Dec-2019    2278.1001      55.0562      22.6500     169.0000      -999.25      -999.25      -999.25     288.5456      40.0000       1.2981
 43823.5834490741 14:00:10/24-Dec-2019    2278.2200      54.6429      22.5300      -999.25      -999.25      -999.25      -999.25     288.6145      40.0000       1.2983
 43823.5835648148 14:00:20/24-Dec-2019    2278.3499      55.6407      22.4000      -999.25      -999.25      -999.25      -999.25     288.6835      40.0000       1.2986
 43823.5836805556 14:00:30/24-Dec-2019    2278.3799      65.2412      22.3700      -999.25      -999.25      -999.25      -999.25     288.7524      40.0000       1.2989
 43823.5837962963 14:00:40/24-Dec-2019    2278.5999      73.2447      22.1500      -999.25     228.0000      -999.25      -999.25     288.6835      40.0000       1.2984
 43823.5839120370 14:00:50/24-Dec-2019    2278.7200      83.6926      22.0400      -999.25      -999.25       0.0000       0.0000     288.6835      40.0000       1.2984
 43823.5840277778 14:01:00/24-Dec-2019    2278.7300      91.6962      22.0300      -999.25      -999.25      -999.25      -999.25     288.8903      40.0000       1.2993
 43823.5841435185 14:01:10/24-Dec-2019    2278.8501      95.4404      21.9100      -999.25      -999.25      -999.25      -999.25     288.6145      40.0000       1.2980
 43823.5842592593 14:01:20/24-Dec-2019    2278.9700      94.2203      21.7800      -999.25      -999.25      -999.25      -999.25     288.8903      40.0000       1.2991
 43823.5843750000 14:01:30/24-Dec-2019    2279.0901      89.6341      21.6600     172.0000      -999.25      -999.25      -999.25     288.6835      40.0000       1.2981
 43823.5844907407 14:01:40/24-Dec-2019    2279.2200      85.7461      21.5300      -999.25      -999.25      -999.25      -999.25     288.9593      40.0000       1.2993
 43823.5846064815 14:01:50/24-Dec-2019    2279.1599      84.6785      21.6000      -999.25      -999.25      -999.25      -999.25     288.9593      40.0000       1.2993
 43823.5847222222 14:02:00/24-Dec-2019    2279.2800      85.7233      21.4700      -999.25     231.0000      -999.25      -999.25     288.8903      40.0000       1.2990
 43823.5848379630 14:02:10/24-Dec-2019    2279.2000      87.6868      21.5600      -999.25      -999.25      -999.25      -999.25     288.8214      40.0000       1.2987
 43823.5849537037 14:02:20/24-Dec-2019    2279.3701      89.6504      21.4800      -999.25      -999.25       0.0000       0.0000     288.8903      40.0000       1.2989
 43823.5850694444 14:02:30/24-Dec-2019    2279.3398      89.5617      21.4200      -999.25      -999.25      -999.25      -999.25     288.6835      40.0000       1.2980
 43823.5851851852 14:02:40/24-Dec-2019    2279.2300      87.1208      21.5300      -999.25      -999.25      -999.25      -999.25     288.8214      40.0000       1.2987
 43823.5853009259 14:02:50/24-Dec-2019    2279.2900      85.1769      21.4700     189.0000      -999.25      -999.25      -999.25     288.8214      40.0000       1.2986
 43823.5854166667 14:03:00/24-Dec-2019    2279.3501      82.8838      21.4000      -999.25      -999.25      -999.25      -999.25     289.0972      40.0000       1.2998
 43823.5855324074 14:03:10/24-Dec-2019    2279.4199      82.6695      21.3300      -999.25      -999.25      -999.25      -999.25     288.8214      40.0000       1.2986
 43823.5856481481 14:03:20/24-Dec-2019    2279.3000      82.0869      21.4600      -999.25      -999.25      -999.25      -999.25     288.8214      40.0000       1.2986
 43823.5857638889 14:03:30/24-Dec-2019    2279.3999      81.5262      21.3600      -999.25      99.0000      -999.25      -999.25     288.8903      40.0000       1.2989
 43823.5858796296 14:03:40/24-Dec-2019    2279.3799      86.0140      21.3800      -999.25      -999.25      15.9892       0.0000     288.8903      40.0000       1.2989
 43823.5859953704 14:03:50/24-Dec-2019    2279.4399      88.3491      21.3200      -999.25      -999.25      -999.25      -999.25     289.0282      40.0000       1.2995
 43823.5861111111 14:04:00/24-Dec-2019    2279.5100      89.7861      21.2500      -999.25      -999.25      -999.25      -999.25     288.9593      40.0000       1.2991
 43823.5862268518 14:04:10/24-Dec-2019    2279.5601     101.6565      21.2000     194.0000      -999.25      -999.25      -999.25     288.8903      40.0000       1.2988
 43823.5863425926 14:04:20/24-Dec-2019    2279.4900     102.9363      21.2700      -999.25      -999.25      -999.25      -999.25     288.8903      40.0000       1.2988
 43823.5864583333 14:04:30/24-Dec-2019    2279.6499      97.0090      21.1100      -999.25      -999.25      -999.25      -999.25     288.8903      40.0000       1.2988
 43823.5865740741 14:04:40/24-Dec-2019    2279.8000      90.2812      20.9600      -999.25      -999.25      -999.25      -999.25     288.9593      40.0000       1.2990
 43823.5866898148 14:04:50/24-Dec-2019    2279.8301      80.9455      20.9300      -999.25      75.0000      -999.25      -999.25     288.8214      40.0000       1.2983
 43823.5868055556 14:05:00/24-Dec-2019    2280.0500      78.8559      20.7100      -999.25      -999.25       0.0000       0.0000     289.0282      40.0000       1.2991
 43823.5869212963 14:05:10/24-Dec-2019    2280.2400      84.9902      20.5200      -999.25      -999.25      -999.25      -999.25     289.0972      40.0000       1.2993
 43823.5870370370 14:05:20/24-Dec-2019    2280.2400      89.4460      20.5200      -999.25      -999.25      -999.25      -999.25     288.8903      40.0000       1.2984
 43823.5871527778 14:05:30/24-Dec-2019    2280.2900      89.4351      20.4700      -999.25      -999.25      -999.25      -999.25     289.0282      40.0000       1.2990
 43823.5872685185 14:05:40/24-Dec-2019    2280.3101      92.3681      20.4500     212.0000      -999.25      -999.25      -999.25     288.8903      41.0000       1.2984
 43823.5873842593 14:05:50/24-Dec-2019    2280.3201     100.2473      20.4400      -999.25      -999.25      -999.25      -999.25     289.0282      41.0000       1.2990
 43823.5875000000 14:06:00/24-Dec-2019    2280.4399     105.8940      20.3200      -999.25      -999.25      -999.25      -999.25     288.8903      41.0000       1.2983
 43823.5876157407 14:06:10/24-Dec-2019    2280.3201      99.3586      20.4400      -999.25     378.0000      -999.25      -999.25     288.8903      41.0000       1.2984
 43823.5877314815 14:06:20/24-Dec-2019    2280.3799      90.9436      20.3800      -999.25      -999.25       0.0000       0.0000     288.9593      41.0000       1.2986
 43823.5878472222 14:06:30/24-Dec-2019    2280.4099      87.5772      20.3500      -999.25      -999.25      -999.25      -999.25     288.8903      41.0000       1.2983
 43823.5879629630 14:06:40/24-Dec-2019    2280.4900      87.9408      20.2700      -999.25      -999.25      -999.25      -999.25     289.0282      41.0000       1.2989
 43823.5880787037 14:06:50/24-Dec-2019    2280.5500      94.9787      20.2100      -999.25      -999.25      -999.25      -999.25     288.8214      41.0000       1.2979
 43823.5881944444 14:07:00/24-Dec-2019    2280.4900     101.2181      20.2700     198.0000      -999.25      -999.25      -999.25     289.0282      41.0000       1.2989
 43823.5883101852 14:07:10/24-Dec-2019    2280.4500     101.1149      20.3100      -999.25      -999.25      -999.25      -999.25     289.1661      41.0000       1.2995
 43823.5884259259 14:07:20/24-Dec-2019    2280.4500      95.6287      20.3100      -999.25      -999.25      -999.25      -999.25     289.0282      41.0000       1.2989
 43823.5885416667 14:07:30/24-Dec-2019    2280.5400      92.7896      20.2200      -999.25      -999.25      -999.25      -999.25     289.2351      41.0000       1.2998
 43823.5886574074 14:07:40/24-Dec-2019    2280.6201      90.8260      20.1400      -999.25      69.0000      -999.25      -999.25     289.1661      41.0000       1.2994
 43823.5887731481 14:07:50/24-Dec-2019    2280.6399      88.8625      20.1200      -999.25      -999.25      23.9837       0.0000     288.9593      41.0000       1.2985
