~VERSION INFORMATION 
VERS  .    2.0                                     :CWLS Log ASCII Standard - VERSION 2.0
WRAP  .    NO                                      :One Line per Time step
PROD  .    Schlumberger Technology Corp.           :LAS Producer
PROG  .    Horizon LASWriter 9.2.113335.3100       :LAS Program name and version
SOURCE.    Run 3-TimeLogicalAcq                    :Run&Pass Information
CREA  .    12/12/2019                              :LAS Creation date {MM/DD/YYYY}
#--------------------------------------------------
~WELL INFORMATION 
#MNEM           .UNIT                      DATA            :DESCRIPTION
#----            ------          --------------            -----------------------------
STRT            .d               43804.6875000000          :START TIME(OLE Automation date)
STOP            .d               43805.8541666667          :STOP TIME(OLE Automation date)
STEP            .d                            0            :STEP TIME(10s in time)
NULL            .                       -999.25            :NULL VALUE
COMP            .                       Equinor            :COMPANY
WELL            .                        31/5-7            :WELL NAME
FLD             .                           Eos            :FIELD NAME
RIGN            .                 West Hercules            :Rig Name
RIGTYP          .                Semi-Submersible          :Rig Type
SON             .                     19SCA0085            :Service Order Number
SRVC            .                  Schlumberger            :SERVICE COMPANY
DATE            .                    12/05/2019            :LOG DATE(Composite Date for Composite LAP) (MM/DD/YYYY)
CLAB            .                       County:            :County Label
CNTY            .                                          :COUNTY
SLAB            .                                          :State/Province Label
STAT            .                                          :STATE or PROVINCE
PROV            .                                          :STATE or PROVINCE
CTRY            .                        Norway            :COUNTRY
CONT_REGION     .                        Europe            :Continent Region
SECT            .                                          :Section
TOWN            .                                          :Township
RANG            .                                          :Range
API             .                                          :API NUMBER
UWI             .                                          :UNIQUE WELL ID
LUL             .                Service Office            :Logging Unit Location
LUN             .                          A615            :Logging Unit Number
LOC             .                Norwegian North Sea       :FIELD LOCATION
FL1             .                Section: 26 in.           :Field Location Line 1
FL2             .                Job no.: 19SCA0085        :Field Location Line 2
LATI            .deg             60° 34' 35.14" N          :LATITUDE
LONG            .deg             3° 26' 36.13" E           :LONGITUDE
PDAT            .                           MSL            :Local Permanent Datum
LMF             .                            DF            :Logging Measured From
APD             .m                        31.00            :Elevation of Depth Reference (LMF) Above Permanent Datum
EPD             .m                         0.00            :Elevation of Permanent Datum (PDAT) above Mean Sea Level
EKB             .m                      -999.25            :Elevation of Kelly Bushing Above Permanent Datum
EDF             .m                        31.00            :Elevation of Drill Floor Above Permanent Datum
EGL             .m                      -307.00            :Elevation of Ground Level Above Permanent Datum
ECF             .m                      -999.25            :Elevation of Casing Flange above Permanent Datum
#--------------------------------------------------
~CURVE INFORMATION
#MNEM           .UNIT                  API CODE            :DESCRIPTION
#----            ------          --------------            -----------------------------
TIME_1900       .d                                         :                                                        Time Index(OLE Automation date)
TIME            .s                                         :                                (10s)                   Time(hh mm ss/dd-MMM-yyyy)
DEPTH           .m                                         :(RT)    (DnMWorkflow)                                   Depth Index
GR_CAL          .gAPI                                      :(RT)    (ARC9)                                          Calibrated Gamma Ray
BLKP            .m                                         :(RT)    (DRILLING_SURFACE)                              Height of block above rig floor
CRPM            .c/min                                     :(RT)    (TELE900)                                       Collar Rotational Speed
STICK           .c/min                                     :(RT)    (TELE900)                                       Stick Slip Indicator
SHKPK           .gn                                        :(RT)    (TELE900)                                       Shock Peak
SHKRSK          .                                          :(RT)    (TELE900)                                       Shock Risk
DHAP            .bar                                       :(RM)    (ARC9)                                          Downhole Annulus Pressure
DHAT            .degC                                      :(RM)    (ARC9)                                          Downhole Annulus Temperature
ECD             .g/cm3                                     :(RM)    (ARC9)                                          Equivalent Circulating Density
#-------------------------------------------------------------
#       TIME_1900                 TIME        DEPTH       GR_CAL         BLKP         CRPM        STICK        SHKPK       SHKRSK         DHAP         DHAT          ECD 
#                                       (DnMWorkfl)       (ARC9)  (DRILLING_)    (TELE900)    (TELE900)    (TELE900)    (TELE900)       (ARC9)       (ARC9)       (ARC9) 
#                                              (RT)         (RT)         (RT)         (RT)         (RT)         (RT)         (RT)         (RM)         (RM)         (RM) 
#                                (10s)                                                                                                                                   
~ASCII
# ...
 43805.2319444444 05:34:00/06-Dec-2019     663.2500      77.7560      34.2400      -999.25      51.0000      -999.25      -999.25      65.7760      14.0000       1.0998
 43805.2320601852 05:34:10/06-Dec-2019     662.8300      71.2108      34.7500      -999.25      -999.25      -999.25      -999.25      65.9139      14.0000       1.1029
 43805.2321759259 05:34:20/06-Dec-2019     662.4100      71.2108      34.9900      -999.25      -999.25      -999.25      -999.25      65.8449      14.0000       1.1024
 43805.2322916667 05:34:30/06-Dec-2019     663.4100      77.7560      34.0800      78.0000      -999.25      -999.25      -999.25      65.9139      14.0000       1.1018
 43805.2324074074 05:34:40/06-Dec-2019     663.4500      81.6255      34.1400      -999.25      30.0000       0.0000       0.0000      65.9828      14.0000       1.1030
 43805.2325231481 05:34:50/06-Dec-2019     663.3100      81.0088      34.3700      -999.25      -999.25      -999.25      -999.25      65.9139      14.0000       1.1021
 43805.2326388889 05:35:00/06-Dec-2019     662.8300      77.7728      34.6600      -999.25      -999.25      -999.25      -999.25      65.9139      14.0000       1.1028
 43805.2327546296 05:35:10/06-Dec-2019     663.0800      75.5959      34.3200      -999.25      -999.25      -999.25      -999.25      65.9139      14.0000       1.1023
 43805.2328703704 05:35:20/06-Dec-2019     663.8000      76.8948      33.5000      77.0000      -999.25       0.0000       0.0000      65.9139      14.0000       1.1009
 43805.2329861111 05:35:30/06-Dec-2019     663.8600      82.8682      33.5300      -999.25      39.0000      -999.25      -999.25      65.9139      14.0000       1.1009
 43805.2331018519 05:35:40/06-Dec-2019     663.8500      85.6922      33.6400      -999.25      -999.25      -999.25      -999.25      65.9139      14.0000       1.1010
 43805.2332175926 05:35:50/06-Dec-2019     663.9600      79.3172      33.5400      -999.25      -999.25      -999.25      -999.25      65.9139      14.0000       1.1008
 43805.2333333333 05:36:00/06-Dec-2019     664.6900      70.0566      32.8000      77.0000      -999.25       0.0000       0.0000      65.9828      14.0000       1.1006
 43805.2334490741 05:36:10/06-Dec-2019     664.3200      71.9913      33.1700      -999.25      45.0000      -999.25      -999.25      65.9139      14.0000       1.1002
 43805.2335648148 05:36:20/06-Dec-2019     664.4200      84.2162      33.0700      -999.25      -999.25      -999.25      -999.25      65.9139      14.0000       1.1000
 43805.2336805556 05:36:30/06-Dec-2019     664.6600      85.8643      32.8300      -999.25      -999.25      -999.25      -999.25      65.9828      14.0000       1.1007
 43805.2337962963 05:36:40/06-Dec-2019     664.7600      84.0910      32.8300      -999.25      -999.25      -999.25      -999.25      66.0518      14.0000       1.1017
 43805.2339120370 05:36:50/06-Dec-2019     664.3600      83.5067      33.1300      82.0000      45.0000       0.0000       0.0000      65.9828      14.0000       1.1012
 43805.2340277778 05:37:00/06-Dec-2019     664.5500      84.0910      32.8500      -999.25      -999.25      -999.25      -999.25      65.9828      14.0000       1.1008
 43805.2341435185 05:37:10/06-Dec-2019     665.5400      83.7866      32.0500      -999.25      -999.25      -999.25      -999.25      66.0518      14.0000       1.1003
 43805.2342592593 05:37:20/06-Dec-2019     664.6600      80.9178      32.9300      -999.25      -999.25      -999.25      -999.25      66.0518      14.0000       1.1019
 43805.2343750000 05:37:30/06-Dec-2019     664.8300      78.8190      32.6600      80.0000      -999.25       0.0000       0.0000      66.1207      14.0000       1.1027
 43805.2344907407 05:37:40/06-Dec-2019     665.7200      80.7538      31.7700      -999.25      39.0000      -999.25      -999.25      66.1207      14.0000       1.1011
 43805.2346064815 05:37:50/06-Dec-2019     665.3400      85.8168      32.1500      -999.25      -999.25      -999.25      -999.25      66.1207      14.0000       1.1018
 43805.2347222222 05:38:00/06-Dec-2019     665.2400      81.6688      32.2500      -999.25      -999.25      -999.25      -999.25      66.1897      14.0000       1.1032
 43805.2348379630 05:38:10/06-Dec-2019     665.5300      75.1237      31.9600      80.0000      -999.25      -999.25      -999.25      66.3276      14.0000       1.1049
 43805.2349537037 05:38:20/06-Dec-2019     665.6300      71.2542      32.1500      -999.25      42.0000       0.0000       0.0000      66.2586      14.0000       1.1038
 43805.2350694444 05:38:30/06-Dec-2019     665.0400      71.8709      32.6300      -999.25      -999.25      -999.25      -999.25      66.3276      14.0000       1.1059
 43805.2351851852 05:38:40/06-Dec-2019     664.7400      73.4920      32.5800      -999.25      -999.25      -999.25      -999.25      66.0518      14.0000       1.1016
 43805.2353009259 05:38:50/06-Dec-2019     662.4600      80.9666      34.8600      -999.25      -999.25      -999.25      -999.25      65.7760      14.0000       1.1011
 43805.2354166667 05:39:00/06-Dec-2019     662.7600      92.0531      34.9100       0.0000      -999.25       0.0000       0.0000      66.1897      14.0000       1.1077
 43805.2355324074 05:39:10/06-Dec-2019     662.1401      87.4609      35.3000      -999.25     105.0000      -999.25      -999.25      66.3276      14.0000       1.1110
 43805.2356481481 05:39:20/06-Dec-2019     664.8600      76.3744      32.6300      -999.25      -999.25      -999.25      -999.25      66.4655      14.0000       1.1084
 43805.2357638889 05:39:30/06-Dec-2019     662.7800      -999.25      34.7100      -999.25      -999.25      -999.25      -999.25      65.9828      14.0000       1.1041
 43805.2358796296 05:39:40/06-Dec-2019     662.7800      74.1744      34.7100      -999.25      -999.25      -999.25      -999.25      65.9828      14.0000       1.1041
 43805.2359953704 05:39:50/06-Dec-2019     663.6301      72.7836      33.8600      -999.25      -999.25      -999.25      -999.25      66.1207      14.0000       1.1049
 43805.2361111111 05:40:00/06-Dec-2019     664.9600      71.9486      32.5300      -999.25      -999.25      -999.25      -999.25      66.1207      14.0000       1.1024
 43805.2362268518 05:40:10/06-Dec-2019     663.0300      70.9839      34.4600      -999.25      -999.25      -999.25      -999.25      66.0518      14.0000       1.1048
 43805.2363425926 05:40:20/06-Dec-2019     663.3000      70.2452      34.1900      -999.25      -999.25      -999.25      -999.25      66.0518      14.0000       1.1044
 43805.2364583333 05:40:30/06-Dec-2019     664.9700      70.0531      32.5200      -999.25      -999.25      -999.25      -999.25      66.3965      14.0000       1.1071
 43805.2365740741 05:40:40/06-Dec-2019     664.5500      70.5988      32.9400      -999.25      -999.25      -999.25      -999.25      66.1897      14.0000       1.1043
 43805.2366898148 05:40:50/06-Dec-2019     664.9100      71.8832      32.5800      -999.25      -999.25      -999.25      -999.25      66.1207      14.0000       1.1025
 43805.2368055556 05:41:00/06-Dec-2019     665.4100      73.7070      32.0800      -999.25      -999.25      -999.25      -999.25      66.2586      14.0000       1.1039
 43805.2369212963 05:41:10/06-Dec-2019     664.6600      75.7137      32.8300      -999.25      -999.25      -999.25      -999.25      66.1207      14.0000       1.1030
 43805.2370370370 05:41:20/06-Dec-2019     664.7300      77.4766      32.7600      -999.25      -999.25       0.0000       0.0000      66.1207      14.0000       1.1029
 43805.2371527778 05:41:30/06-Dec-2019     664.9200      78.6052      32.5700      -999.25      -999.25      -999.25      -999.25      66.1207      14.0000       1.1025
 43805.2372685185 05:41:40/06-Dec-2019     665.2100      72.7665      32.2800      -999.25      -999.25      -999.25      -999.25      65.9828      14.0000       1.0997
 43805.2373842593 05:41:50/06-Dec-2019     664.5400      68.8019      32.9500      -999.25      -999.25      -999.25      -999.25      66.0518      14.0000       1.1021
