~VERSION INFORMATION 
VERS  .    2.0                                     :CWLS Log ASCII Standard - VERSION 2.0
WRAP  .    NO                                      :One Line per Time step
PROD  .    Schlumberger Technology Corp.           :LAS Producer
PROG  .    Horizon LASWriter 9.2.113335.3100       :LAS Program name and version
SOURCE.    Run 7-TimeLogicalAcq                    :Run&Pass Information
CREA  .    12/27/2019                              :LAS Creation date {MM/DD/YYYY}
#--------------------------------------------------
~WELL INFORMATION 
#MNEM           .UNIT                      DATA            :DESCRIPTION
#----            ------          --------------            -----------------------------
STRT            .d               43818.4166666667          :START TIME(OLE Automation date)
STOP            .d               43819.7083333333          :STOP TIME(OLE Automation date)
STEP            .d                            0            :STEP TIME(10s in time)
NULL            .                       -999.25            :NULL VALUE
COMP            .                       Equinor            :COMPANY
WELL            .                        31/5-7            :WELL NAME
FLD             .                           Eos            :FIELD NAME
RIGN            .                 West Hercules            :Rig Name
RIGTYP          .                Semi-Submersible          :Rig Type
SON             .                     19SCA0085            :Service Order Number
SRVC            .                  Schlumberger            :SERVICE COMPANY
DATE            .                    12/19/2019            :LOG DATE(Composite Date for Composite LAP) (MM/DD/YYYY)
CLAB            .                       County:            :County Label
CNTY            .                                          :COUNTY
SLAB            .                                          :State/Province Label
STAT            .                                          :STATE or PROVINCE
PROV            .                                          :STATE or PROVINCE
CTRY            .                        Norway            :COUNTRY
CONT_REGION     .                        Europe            :Continent Region
SECT            .                                          :Section
TOWN            .                                          :Township
RANG            .                                          :Range
API             .                                          :API NUMBER
UWI             .                                          :UNIQUE WELL ID
LUL             .                Service Office            :Logging Unit Location
LUN             .                          A615            :Logging Unit Number
LOC             .                Norwegian North Sea       :FIELD LOCATION
FL1             .                Section: 12 1/4 x 17 1/5 in.:Field Location Line 1
FL2             .                Job no.: 19SCA0085        :Field Location Line 2
LATI            .deg             60° 34' 35.14" N          :LATITUDE
LONG            .deg             3° 26' 36.13" E           :LONGITUDE
PDAT            .                           MSL            :Local Permanent Datum
LMF             .                            DF            :Logging Measured From
APD             .m                        31.00            :Elevation of Depth Reference (LMF) Above Permanent Datum
EPD             .m                         0.00            :Elevation of Permanent Datum (PDAT) above Mean Sea Level
EKB             .m                      -999.25            :Elevation of Kelly Bushing Above Permanent Datum
EDF             .m                        31.00            :Elevation of Drill Floor Above Permanent Datum
EGL             .m                      -307.00            :Elevation of Ground Level Above Permanent Datum
ECF             .m                      -999.25            :Elevation of Casing Flange above Permanent Datum
#--------------------------------------------------
~CURVE INFORMATION
#MNEM           .UNIT                  API CODE            :DESCRIPTION
#----            ------          --------------            -----------------------------
TIME_1900       .d                                         :                                                        Time Index(OLE Automation date)
TIME            .s                                         :                                (10s)                   Time(hh mm ss/dd-MMM-yyyy)
DEPTH           .m                                         :(RT)    (DnMWorkflow)                                   Depth Index
BLKP            .m                                         :(RT)    (DRILLING_SURFACE)                              Height of block above rig floor
GR_CAL          .gAPI                                      :(RT)    (ARC9)                                          Calibrated Gamma Ray
STICK           .c/min                                     :(RT)    (TELE900)                                       Stick Slip Indicator
CRPM            .c/min                                     :(RT)    (TELE900)                                       Collar Rotational Speed
SHKRSK          .                                          :(RT)    (TELE900)                                       Shock Risk
SHKPK           .gn                                        :(RT)    (TELE900)                                       Shock Peak
DHAT            .degC                                      :(RM)    (ARC9)                                          Downhole Annulus Temperature
DHAP            .bar                                       :(RM)    (ARC9)                                          Downhole Annulus Pressure
ECD             .g/cm3                                     :(RM)    (ARC9)                                          Equivalent Circulating Density
#-------------------------------------------------------------
#       TIME_1900                 TIME        DEPTH         BLKP       GR_CAL        STICK         CRPM       SHKRSK        SHKPK         DHAT         DHAP          ECD 
#                                       (DnMWorkfl)  (DRILLING_)       (ARC9)    (TELE900)    (TELE900)    (TELE900)    (TELE900)       (ARC9)       (ARC9)       (ARC9) 
#                                              (RT)         (RT)         (RT)         (RT)         (RT)         (RT)         (RT)         (RM)         (RM)         (RM) 
#                                (10s)                                                                                                                                   
~ASCII
# ...
 43818.7111111111 17:04:00/19-Dec-2019   1205.57007     22.68000    138.88840      -999.25      -999.25      -999.25      -999.25     26.00000    152.71890      1.30654
 43818.7112268518 17:04:10/19-Dec-2019   1205.81995     22.43000    139.24400      -999.25      -999.25      -999.25      -999.25     26.00000    152.78780      1.30685
 43818.7113425926 17:04:20/19-Dec-2019   1206.22998     22.02000    144.69820    381.00000    228.00000      0.00000      0.00000     26.00000    152.85680      1.30705
 43818.7114583333 17:04:30/19-Dec-2019   1206.52991     21.72000    150.15240      -999.25      -999.25      -999.25      -999.25     26.00000    152.58100      1.30431
 43818.7115740741 17:04:40/19-Dec-2019   1206.82996     21.42000    153.05460      -999.25      -999.25      -999.25      -999.25     26.00000    153.13260      1.30870
 43818.7116898148 17:04:50/19-Dec-2019   1207.02002     21.23000    155.42520      -999.25      -999.25      -999.25      -999.25     26.00000    152.99470      1.30730
 43818.7118055556 17:05:00/19-Dec-2019   1207.19995     21.05000    165.55130      -999.25    164.00000      0.00000      0.00000     26.00000    153.13260      1.30827
 43818.7119212963 17:05:10/19-Dec-2019   1207.56006     20.69000    169.42080    381.00000      -999.25      -999.25      -999.25     26.00000    153.20150      1.30847
 43818.7120370370 17:05:20/19-Dec-2019   1207.81995     20.43000    165.22320      -999.25      -999.25      -999.25      -999.25     26.00000    153.27050      1.30877
 43818.7121527778 17:05:30/19-Dec-2019   1208.13000     20.12000    154.76890      -999.25      -999.25      -999.25      -999.25     26.00000    153.54620      1.31079
 43818.7122685185 17:05:40/19-Dec-2019   1208.34998     19.90000    157.11640      -999.25    218.00000      -999.25      -999.25     26.00000    153.06360      1.30642
 43818.7123842593 17:05:50/19-Dec-2019   1208.66992     19.58000    164.85550    381.00000      -999.25      0.00000      0.00000     26.00000    153.27050      1.30784
 43818.7125000000 17:06:00/19-Dec-2019   1209.00000     19.25000    174.36480      -999.25      -999.25      -999.25      -999.25     26.00000    153.68410      1.31101
 43818.7126157407 17:06:10/19-Dec-2019   1209.58997     18.66000    165.81840      -999.25      -999.25      -999.25      -999.25     26.00000    153.13260      1.30571
 43818.7127314815 17:06:20/19-Dec-2019   1209.95007     18.30000    156.44090      -999.25      -999.25      -999.25      -999.25     26.00000    153.40830      1.30766
 43818.7128472222 17:06:30/19-Dec-2019   1210.26001     17.99000    148.13020      -999.25    238.00000      0.00000      0.00000     26.00000    152.71890      1.30141
 43818.7129629630 17:06:40/19-Dec-2019   1210.27002     17.97000    149.16850    150.00000      -999.25      -999.25      -999.25     26.00000    152.92570      1.30316
 43818.7130787037 17:06:50/19-Dec-2019   1210.17993     18.06000    153.53180      -999.25      -999.25      -999.25      -999.25     26.00000    153.75310      1.31031
 43818.7131944444 17:07:00/19-Dec-2019   1210.54004     17.70000    154.14060      -999.25      -999.25      -999.25      -999.25     26.00000    153.27050      1.30580
 43818.7133101852 17:07:10/19-Dec-2019   1210.10999     18.04000    153.24530      -999.25    249.00000      0.00000      0.00000     26.00000    153.75310      1.31034
 43818.7134259259 17:07:20/19-Dec-2019   1210.42004     17.90000    153.24530    381.00000      -999.25      -999.25      -999.25     26.00000    153.61520      1.30891
 43818.7135416667 17:07:30/19-Dec-2019   1210.92004     17.59000    154.14060      -999.25      -999.25      -999.25      -999.25     26.00000    154.37360      1.31492
 43818.7136574074 17:07:40/19-Dec-2019   1211.21997     17.02000    158.74810      -999.25      -999.25      -999.25      -999.25     26.00000    154.23570      1.31328
 43818.7137731481 17:07:50/19-Dec-2019   1211.35999     16.87000    162.30920      -999.25      -999.25      -999.25      -999.25     26.00000    154.23570      1.31312
 43818.7138888889 17:08:00/19-Dec-2019   1211.89001     16.44000    162.82840    381.00000    255.00000      0.00000      0.00000     26.00000    153.75310      1.30848
 43818.7140046296 17:08:10/19-Dec-2019   1212.14001     16.09000    158.67310      -999.25      -999.25      -999.25      -999.25     26.00000    153.95990      1.30992
 43818.7141203704 17:08:20/19-Dec-2019   1212.33008     15.91000    156.84040      -999.25      -999.25      -999.25      -999.25     26.00000    153.89100      1.30913
 43818.7142361111 17:08:30/19-Dec-2019   1212.58997     15.65000    160.70310      -999.25      -999.25      -999.25      -999.25     26.00000    153.54620      1.30591
 43818.7143518519 17:08:40/19-Dec-2019   1212.75000     15.49000    162.18530      -999.25    204.00000      0.00000      0.00000     26.00000    154.30470      1.31219
 43818.7144675926 17:08:50/19-Dec-2019   1213.27002     14.97000    164.12000    381.00000      -999.25      -999.25      -999.25     26.00000    154.30470      1.31162
 43818.7145833333 17:09:00/19-Dec-2019   1213.54993     14.78000    165.60210      -999.25      -999.25      -999.25      -999.25     26.00000    153.82200      1.30726
 43818.7146990741 17:09:10/19-Dec-2019   1213.89001     14.34000    174.86560      -999.25      -999.25      -999.25      -999.25     26.00000    153.95990      1.30801
 43818.7148148148 17:09:20/19-Dec-2019   1213.96997     14.28000    179.06320      -999.25    188.00000      -999.25      -999.25     26.00000    153.54620      1.30442
 43818.7149305556 17:09:30/19-Dec-2019   1213.77002     14.37000    175.19370    381.00000      -999.25      0.00000      0.00000     26.00000    154.09780      1.30927
 43818.7150462963 17:09:40/19-Dec-2019   1214.46997     13.77000    165.06770      -999.25      -999.25      -999.25      -999.25     26.00000    154.30470      1.31031
 43818.7151620370 17:09:50/19-Dec-2019   1214.63000     13.60000    160.67860      -999.25      -999.25      -999.25      -999.25     26.00000    154.37360      1.31072
 43818.7152777778 17:10:00/19-Dec-2019   1214.89001     13.35000    161.00540      -999.25      -999.25      -999.25      -999.25     26.00000    154.16680      1.30868
 43818.7153935185 17:10:10/19-Dec-2019   1215.14001     13.09000    159.70660      -999.25    229.00000      0.00000      0.00000     26.00000    154.78730      1.31367
 43818.7155092593 17:10:20/19-Dec-2019   1215.31995     13.01000    153.73310    381.00000      -999.25      -999.25      -999.25     26.00000    154.37360      1.31001
 43818.7156250000 17:10:30/19-Dec-2019   1215.81995     12.41000    150.70300      -999.25      -999.25      -999.25      -999.25     26.00000    154.99410      1.31468
 43818.7157407407 17:10:40/19-Dec-2019   1216.14001     12.10000    153.43350      -999.25      -999.25      -999.25      -999.25     26.00000    154.51150      1.31024
 43818.7158564815 17:10:50/19-Dec-2019   1216.54993     11.69000    154.32870      -999.25    213.00000      0.00000      0.00000     26.00000    154.44260      1.30921
 43818.7159722222 17:11:00/19-Dec-2019   1216.69995     11.54000    154.32870    381.00000      -999.25      -999.25      -999.25     26.00000    154.51150      1.30964
 43818.7160879630 17:11:10/19-Dec-2019   1216.82996     11.40000    153.43350      -999.25      -999.25      -999.25      -999.25     26.00000    154.37360      1.30832
 43818.7162037037 17:11:20/19-Dec-2019   1217.14001     11.10000    153.51210      -999.25      -999.25      -999.25      -999.25     26.00000    154.64940      1.31032
 43818.7163194444 17:11:30/19-Dec-2019   1217.46997     10.76000    152.54470      -999.25      -999.25      -999.25      -999.25     26.00000    154.51150      1.30879
 43818.7164351852 17:11:40/19-Dec-2019   1217.79004     10.46000    150.72660    381.00000    255.00000      0.00000      0.00000     26.00000    154.64940      1.30962
 43818.7165509259 17:11:50/19-Dec-2019   1217.94006     10.31000    148.90860      -999.25      -999.25      -999.25      -999.25     26.00000    154.71830      1.31004
