~VERSION INFORMATION 
VERS  .    2.0                                     :CWLS Log ASCII Standard - VERSION 2.0
WRAP  .    NO                                      :One Line per Time step
PROD  .    Schlumberger Technology Corp.           :LAS Producer
PROG  .    Horizon LASWriter 9.2.113335.3100       :LAS Program name and version
SOURCE.    Run 2-TimeLogicalAcq                    :Run&Pass Information
CREA  .    12/11/2019                              :LAS Creation date {MM/DD/YYYY}
#--------------------------------------------------
~WELL INFORMATION 
#MNEM           .UNIT                      DATA            :DESCRIPTION
#----            ------          --------------            -----------------------------
STRT            .d               43803.0416666667          :START TIME(OLE Automation date)
STOP            .d               43803.8437500000          :STOP TIME(OLE Automation date)
STEP            .d                            0            :STEP TIME(10s in time)
NULL            .                       -999.25            :NULL VALUE
COMP            .                       Equinor            :COMPANY
WELL            .                        31/5-7            :WELL NAME
FLD             .                           Eos            :FIELD NAME
RIGN            .                 West Hercules            :Rig Name
RIGTYP          .                Semi-Submersible          :Rig Type
SON             .                     19SCA0085            :Service Order Number
SRVC            .                  Schlumberger            :SERVICE COMPANY
DATE            .                    12/04/2019            :LOG DATE(Composite Date for Composite LAP) (MM/DD/YYYY)
CLAB            .                       County:            :County Label
CNTY            .                                          :COUNTY
SLAB            .                                          :State/Province Label
STAT            .                                          :STATE or PROVINCE
PROV            .                                          :STATE or PROVINCE
CTRY            .                        Norway            :COUNTRY
CONT_REGION     .                        Europe            :Continent Region
SECT            .                                          :Section
TOWN            .                                          :Township
RANG            .                                          :Range
API             .                                          :API NUMBER
UWI             .                                          :UNIQUE WELL ID
LUL             .                Service Office            :Logging Unit Location
LUN             .                          A615            :Logging Unit Number
LOC             .                Norwegian North Sea       :FIELD LOCATION
FL1             .                Section: 8 1/2 in. pilot  :Field Location Line 1
FL2             .                Job no.: 19SCA0085        :Field Location Line 2
LATI            .deg             60° 34' 35.14" N          :LATITUDE
LONG            .deg             3° 26' 36.13" E           :LONGITUDE
PDAT            .                           MSL            :Local Permanent Datum
LMF             .                            DF            :Logging Measured From
APD             .m                        31.00            :Elevation of Depth Reference (LMF) Above Permanent Datum
EPD             .m                         0.00            :Elevation of Permanent Datum (PDAT) above Mean Sea Level
EKB             .m                      -999.25            :Elevation of Kelly Bushing Above Permanent Datum
EDF             .m                        31.00            :Elevation of Drill Floor Above Permanent Datum
EGL             .m                      -307.00            :Elevation of Ground Level Above Permanent Datum
ECF             .m                      -999.25            :Elevation of Casing Flange above Permanent Datum
#--------------------------------------------------
~CURVE INFORMATION
#MNEM           .UNIT                  API CODE            :DESCRIPTION
#----            ------          --------------            -----------------------------
TIME_1900       .d                                         :                                                        Time Index(OLE Automation date)
TIME            .s                                         :                                (10s)                   Time(hh mm ss/dd-MMM-yyyy)
DEPTH           .m                                         :(RT)    (DnMWorkflow)                                   Depth Index
GR              .gAPI                                      :(RT)    (DV6MT)                                         Gamma Ray
BLKP            .m                                         :(RT)    (DRILLING_SURFACE)                              Height of block above rig floor
STICK           .c/min                                     :(RT)    (TELE675)                                       Stick Slip Indicator
CRPM            .c/min                                     :(RT)    (TELE675)                                       Collar Rotational Speed
SHKRSK          .                                          :(RT)    (TELE675)                                       Shock Risk
SHKPK           .gn                                        :(RT)    (TELE675)                                       Shock Peak
ECD             .g/cm3                                     :(RM)    (DV6MT)                                         Equivalent Circulating Density
DHAT            .degC                                      :(RM)    (DV6MT)                                         Downhole Annulus Temperature
DHAP            .bar                                       :(RM)    (DV6MT)                                         Downhole Annulus Pressure
#-------------------------------------------------------------
#       TIME_1900                 TIME        DEPTH           GR         BLKP        STICK         CRPM       SHKRSK        SHKPK          ECD         DHAT         DHAP 
#                                       (DnMWorkfl)      (DV6MT)  (DRILLING_)    (TELE675)    (TELE675)    (TELE675)    (TELE675)      (DV6MT)      (DV6MT)      (DV6MT) 
#                                              (RT)         (RT)         (RT)         (RT)         (RT)         (RT)         (RT)         (RM)         (RM)         (RM) 
#                                (10s)                                                                                                                                   
~ASCII
# ...
 43803.5416666667 13:00:00/04-Dec-2019     802.7700      59.4881       1.8800      -999.25      95.0000      -999.25      -999.25       1.2049      14.0000      90.2524
 43803.5417824074 13:00:10/04-Dec-2019     802.7600      59.4881       1.8900      -999.25      -999.25      -999.25      -999.25       1.2095      14.0000      90.5971
 43803.5418981481 13:00:20/04-Dec-2019     802.5500      58.7653       2.1300      21.0000      -999.25      -999.25      -999.25       1.1979      14.0000      89.7008
 43803.5420138889 13:00:30/04-Dec-2019     802.0500      58.4148       2.6200      -999.25      -999.25      -999.25      -999.25       1.1708      14.0000      87.6324
 43803.5421296296 13:00:40/04-Dec-2019     801.5699      -999.25       3.1100      -999.25      -999.25      -999.25      -999.25       1.1625      14.0000      86.9429
 43803.5422453704 13:00:50/04-Dec-2019     801.0600      -999.25       3.6100      -999.25      -999.25      -999.25      -999.25       1.2212      14.0000      91.2866
 43803.5423611111 13:01:00/04-Dec-2019     800.6200      -999.25       4.0300      -999.25      -999.25      -999.25      -999.25       1.2166      14.0000      90.8729
 43803.5424768519 13:01:10/04-Dec-2019     800.1901      -999.25       4.4800      -999.25      -999.25      -999.25      -999.25       1.1912      14.0000      88.9424
 43803.5425925926 13:01:20/04-Dec-2019     800.1400      -999.25       4.5100      -999.25      -999.25      -999.25      -999.25       1.2063      14.0000      90.0455
 43803.5427083333 13:01:30/04-Dec-2019     800.1400      -999.25       4.5100      -999.25      -999.25      -999.25      -999.25       1.0853      14.0000      81.0134
 43803.5428240741 13:01:40/04-Dec-2019     800.1901      -999.25       4.4600      -999.25      -999.25      -999.25      -999.25       1.0603      -999.25      79.1518
 43803.5429398148 13:01:50/04-Dec-2019     800.1901      -999.25       4.4600      -999.25      -999.25      -999.25      -999.25       1.0575      -999.25      78.9450
 43803.5430555556 13:02:00/04-Dec-2019     800.1901      -999.25       4.4600      -999.25      -999.25      -999.25      -999.25       1.0760      -999.25      80.3239
 43803.5431712963 13:02:10/04-Dec-2019     800.1901      -999.25       4.4600      -999.25      -999.25      -999.25      -999.25       1.0760      -999.25      80.3239
 43803.5432870370 13:02:20/04-Dec-2019     800.1901      -999.25       4.4600      -999.25      -999.25      -999.25      -999.25       1.0704      -999.25      79.9102
 43803.5434027778 13:02:30/04-Dec-2019     800.1901      -999.25       4.4600      -999.25      -999.25      -999.25      -999.25       1.0658      -999.25      79.5655
 43803.5435185185 13:02:40/04-Dec-2019     800.1901      -999.25       4.5300      -999.25      -999.25      -999.25      -999.25       1.0676      -999.25      79.7034
 43803.5436342593 13:02:50/04-Dec-2019     800.1901      -999.25       7.0000      -999.25      -999.25      -999.25      -999.25       1.0667      -999.25      79.6345
 43803.5437500000 13:03:00/04-Dec-2019     800.1901      -999.25      21.7200      -999.25      -999.25      -999.25      -999.25       1.0760      -999.25      80.3239
 43803.5438657407 13:03:10/04-Dec-2019     800.1901      -999.25      38.4400      -999.25      -999.25      -999.25      -999.25       1.0797      -999.25      80.5997
 43803.5439814815 13:03:20/04-Dec-2019     800.1901      -999.25      43.3500      -999.25      -999.25      -999.25      -999.25       1.0612      -999.25      79.2208
 43803.5440972222 13:03:30/04-Dec-2019     800.1901      -999.25      43.3500      -999.25      -999.25      -999.25      -999.25       1.0732      -999.25      80.1171
 43803.5442129630 13:03:40/04-Dec-2019     800.1901      -999.25      43.3500      -999.25      -999.25      -999.25      -999.25       1.0787      -999.25      80.5308
 43803.5443287037 13:03:50/04-Dec-2019     800.1901      -999.25      43.4800      -999.25      -999.25      -999.25      -999.25       1.0686      -999.25      79.7723
 43803.5444444444 13:04:00/04-Dec-2019     800.1901      -999.25      43.5300      -999.25      -999.25      -999.25      -999.25       1.0732      -999.25      80.1171
 43803.5445601852 13:04:10/04-Dec-2019     800.1901      -999.25      43.5300      -999.25      -999.25      -999.25      -999.25       1.0806      -999.25      80.6687
 43803.5446759259 13:04:20/04-Dec-2019     800.1901      -999.25      43.5000      -999.25      -999.25      -999.25      -999.25       1.0667      -999.25      79.6345
 43803.5447916667 13:04:30/04-Dec-2019     800.1901      -999.25      43.3800      -999.25      -999.25      -999.25      -999.25       1.0612      -999.25      79.2208
 43803.5449074074 13:04:40/04-Dec-2019     800.1901      -999.25      43.3400      -999.25      -999.25      -999.25      -999.25       1.0713      -999.25      79.9792
 43803.5450231481 13:04:50/04-Dec-2019     800.1901      -999.25      43.3100      -999.25      -999.25      -999.25      -999.25       1.0741      -999.25      80.1860
 43803.5451388889 13:05:00/04-Dec-2019     800.1901      -999.25      43.3000      -999.25      -999.25      -999.25      -999.25       1.0750      -999.25      80.2550
 43803.5452546296 13:05:10/04-Dec-2019     800.1901      -999.25      43.3000      -999.25      -999.25      -999.25      -999.25       1.0649      -999.25      79.4966
 43803.5453703704 13:05:20/04-Dec-2019     800.1901      -999.25      43.3000      -999.25      -999.25      -999.25      -999.25       1.0640      -999.25      79.4276
 43803.5454861111 13:05:30/04-Dec-2019     799.8800      -999.25      43.3300      -999.25      -999.25      -999.25      -999.25       1.0598      -999.25      79.0829
 43803.5456018519 13:05:40/04-Dec-2019     799.8800      -999.25      43.3300      -999.25      -999.25      -999.25      -999.25       1.0792      -999.25      80.5308
 43803.5457175926 13:05:50/04-Dec-2019     799.6300      -999.25      43.5800      -999.25      -999.25      -999.25      -999.25       1.0851      -999.25      80.9445
 43803.5458333333 13:06:00/04-Dec-2019     799.5200      -999.25      43.6900      -999.25      -999.25      -999.25      -999.25       1.1194      -999.25      83.4955
 43803.5459490741 13:06:10/04-Dec-2019     799.5200      -999.25      43.6900      -999.25      -999.25      -999.25      -999.25       1.1675      -999.25      87.0808
 43803.5460648148 13:06:20/04-Dec-2019     799.5200      -999.25      43.6900      -999.25      -999.25      -999.25      -999.25       1.2461      -999.25      92.9413
 43803.5461805556 13:06:30/04-Dec-2019     799.9400       0.0000      43.2700      -999.25      -999.25      -999.25      -999.25       1.2454      -999.25      92.9413
 43803.5462962963 13:06:40/04-Dec-2019     801.4000       0.0000      41.8100      -999.25      -999.25      -999.25      -999.25       1.2338      -999.25      92.2519
 43803.5464120370 13:06:50/04-Dec-2019     802.2600       0.0000      40.9500      -999.25      -999.25      -999.25      -999.25       1.2595      -999.25      94.2513
 43803.5465277778 13:07:00/04-Dec-2019     802.3900       0.0000      40.8200      -999.25      -999.25      -999.25      -999.25       1.2331      14.0000      92.3208
 43803.5466435185 13:07:10/04-Dec-2019     802.3900       0.0000      40.8200      -999.25      -999.25      -999.25      -999.25       1.2313      14.0000      92.1829
 43803.5467592593 13:07:20/04-Dec-2019     802.3000       0.0000      40.9100      -999.25      -999.25      -999.25      -999.25       1.2378      14.0000      92.6655
 43803.5468750000 13:07:30/04-Dec-2019     802.3000       3.2865      40.9100      -999.25      -999.25      -999.25      -999.25       1.2314      14.0000      92.1829
 43803.5469907407 13:07:40/04-Dec-2019     802.2100      13.3753      41.0000      -999.25      -999.25      -999.25      -999.25       1.2315      14.0000      92.1829
 43803.5471064815 13:07:50/04-Dec-2019     802.2100      21.2505      41.0000      -999.25      -999.25       0.0000     255.8264       1.2113      14.0000      90.6661
