~VERSION INFORMATION 
VERS  .    2.0                                     :CWLS Log ASCII Standard - VERSION 2.0
WRAP  .    NO                                      :One Line per Time step
PROD  .    Schlumberger Technology Corp.           :LAS Producer
PROG  .    Horizon LASWriter 9.0.106845.3100       :LAS Program name and version
SOURCE.    Run 1-TimeLogicalAcq                    :Run&Pass Information
CREA  .    12/03/2019                              :LAS Creation date {MM/DD/YYYY}
#--------------------------------------------------
~WELL INFORMATION 
#MNEM           .UNIT                      DATA            :DESCRIPTION
#----            ------          --------------            -----------------------------
STRT            .d               43801.7395833334          :START TIME(OLE Automation date)
STOP            .d               43802.2048611111          :STOP TIME(OLE Automation date)
STEP            .d                            0            :STEP TIME(10s in time)
NULL            .                       -999.25            :NULL VALUE
COMP            .                       Equinor            :COMPANY
WELL            .                        31/5-7            :WELL NAME
FLD             .                           Eos            :FIELD NAME
RIGN            .                 West Hercules            :Rig Name
RIGTYP          .                Semi-Submersible          :Rig Type
SON             .                     19SCA0085            :Service Order Number
SRVC            .                  Schlumberger            :SERVICE COMPANY
DATE            .                    12/02/2019            :LOG DATE(Composite Date for Composite LAP) (MM/DD/YYYY)
CLAB            .                       County:            :County Label
CNTY            .                                          :COUNTY
SLAB            .                                          :State/Province Label
STAT            .                                          :STATE or PROVINCE
PROV            .                                          :STATE or PROVINCE
CTRY            .                        Norway            :COUNTRY
CONT_REGION     .                        Europe            :Continent Region
SECT            .                                          :Section
TOWN            .                                          :Township
RANG            .                                          :Range
API             .                                          :API NUMBER
UWI             .                                          :UNIQUE WELL ID
LUL             .                Service Office            :Logging Unit Location
LUN             .                          A615            :Logging Unit Number
LOC             .                Norwegian North Sea       :FIELD LOCATION
FL1             .                Section: 36 in.           :Field Location Line 1
FL2             .                Job no.: 19SCA0085        :Field Location Line 2
LATI            .deg             60° 34' 35.14" N          :LATITUDE
LONG            .deg             3° 26' 36.13" E           :LONGITUDE
PDAT            .                           MSL            :Local Permanent Datum
LMF             .                            DF            :Logging Measured From
APD             .m                        31.00            :Elevation of Depth Reference (LMF) Above Permanent Datum
EPD             .m                         0.00            :Elevation of Permanent Datum (PDAT) above Mean Sea Level
EKB             .m                      -999.25            :Elevation of Kelly Bushing Above Permanent Datum
EDF             .m                        31.00            :Elevation of Drill Floor Above Permanent Datum
EGL             .m                      -307.00            :Elevation of Ground Level Above Permanent Datum
ECF             .m                      -999.25            :Elevation of Casing Flange above Permanent Datum
#--------------------------------------------------
~CURVE INFORMATION
#MNEM           .UNIT                  API CODE            :DESCRIPTION
#----            ------          --------------            -----------------------------
TIME_1900       .d                                         :                                                        Time Index(OLE Automation date)
TIME            .s                                         :                                (10s)                   Time(hh mm ss/dd-MMM-yyyy)
DEPTH           .m                                         :(RT)    (DnMWorkflow)                                   Depth Index
GR              .gAPI                                      :(RT)    (TELE900)                                       Gamma Ray
BLKP            .m                                         :(RT)    (DRILLING_SURFACE)                              Height of block above rig floor
CRPM            .c/min                                     :(RT)    (TELE900)                                       Collar Rotational Speed
STICK           .c/min                                     :(RT)    (TELE900)                                       Stick Slip Indicator
SHKPK           .gn                                        :(RT)    (TELE900)                                       Shock Peak
SHKRSK          .                                          :(RT)    (TELE900)                                       Shock Risk
TEMP_DNI        .degC                                      :(RM)    (TELE900)                                       Direction and Inclination Sensor Temperature
#-------------------------------------------------------------
#       TIME_1900                 TIME        DEPTH           GR         BLKP         CRPM        STICK        SHKPK       SHKRSK     TEMP_DNI 
#                                       (DnMWorkfl)    (TELE900)  (DRILLING_)    (TELE900)    (TELE900)    (TELE900)    (TELE900)    (TELE900) 
#                                              (RT)         (RT)         (RT)         (RT)         (RT)         (RT)         (RT)         (RM) 
#                                (10s)                                                                                                         
~ASCII
# ...
 43801.9923611111 23:49:00/02-Dec-2019     381.8800      61.7261      20.2700      -999.25      66.0000       0.0000       0.0000      -999.25
 43801.9924768518 23:49:10/02-Dec-2019     381.9200      49.8128      20.2300      -999.25      -999.25      -999.25      -999.25      -999.25
 43801.9925925926 23:49:20/02-Dec-2019     381.9700      47.5021      20.1800      -999.25      -999.25      -999.25      -999.25      -999.25
 43801.9927083333 23:49:30/02-Dec-2019     382.1900      62.8157      19.9600      -999.25      -999.25      -999.25      -999.25      -999.25
 43801.9928240741 23:49:40/02-Dec-2019     382.2400      71.3141      19.9100      71.0000      -999.25       0.0000       0.0000      -999.25
 43801.9929398148 23:49:50/02-Dec-2019     382.1900      71.6036      19.9600      -999.25      69.0000      -999.25      -999.25      -999.25
 43801.9930555556 23:50:00/02-Dec-2019     382.2300      63.4279      19.9200      -999.25      -999.25      -999.25      -999.25      15.6867
 43801.9931712963 23:50:10/02-Dec-2019     382.2800      60.7432      19.8700      -999.25      -999.25      -999.25      -999.25      -999.25
 43801.9932870370 23:50:20/02-Dec-2019     382.1400      60.7432      20.0100      73.0000      -999.25       0.0000       0.0000      -999.25
 43801.9934027778 23:50:30/02-Dec-2019     382.1800      56.6005      19.9700      -999.25      63.0000      -999.25      -999.25      -999.25
 43801.9935185185 23:50:40/02-Dec-2019     382.5000      49.0636      19.6500      -999.25      -999.25      -999.25      -999.25      -999.25
 43801.9936342593 23:50:50/02-Dec-2019     382.5400      52.8458      19.6100      -999.25      -999.25      -999.25      -999.25      -999.25
 43801.9937500000 23:51:00/02-Dec-2019     382.4100      68.1594      19.7400      -999.25      -999.25      -999.25      -999.25      -999.25
 43801.9938657407 23:51:10/02-Dec-2019     382.4500      83.4730      19.7000      73.0000      -999.25       0.0000       0.0000      -999.25
 43801.9939814815 23:51:20/02-Dec-2019     382.5000      74.2884      19.6500      -999.25     102.0000      -999.25      -999.25      -999.25
 43801.9940972222 23:51:30/02-Dec-2019     382.4500      51.6930      19.7000      -999.25      -999.25      -999.25      -999.25      -999.25
 43801.9942129630 23:51:40/02-Dec-2019     382.8600      55.8357      19.2900      -999.25      -999.25      -999.25      -999.25      -999.25
 43801.9943287037 23:51:50/02-Dec-2019     382.6300      55.8357      19.5200      72.0000      -999.25       0.0000       0.0000      -999.25
 43801.9944444444 23:52:00/02-Dec-2019     382.7600      54.0036      19.3900      -999.25     117.0000      -999.25      -999.25      15.6867
 43801.9945601852 23:52:10/02-Dec-2019     382.8100      56.4692      19.3500      -999.25      -999.25      -999.25      -999.25      -999.25
 43801.9946759259 23:52:20/02-Dec-2019     382.8500      54.6371      19.3000      -999.25      -999.25      -999.25      -999.25      -999.25
 43801.9947916667 23:52:30/02-Dec-2019     382.8900      52.7934      19.2600      77.0000      -999.25      -999.25      -999.25      -999.25
 43801.9949074074 23:52:40/02-Dec-2019     383.0300      58.7797      19.1200      -999.25     114.0000       0.0000       0.0000      -999.25
 43801.9950231481 23:52:50/02-Dec-2019     382.8900      58.0660      19.3500      -999.25      -999.25      -999.25      -999.25      -999.25
 43801.9951388889 23:53:00/02-Dec-2019     382.9400      56.6005      19.2100      -999.25      -999.25      -999.25      -999.25      -999.25
 43801.9952546296 23:53:10/02-Dec-2019     382.8900      62.5868      19.2600      -999.25      -999.25      -999.25      -999.25      -999.25
 43801.9953703704 23:53:20/02-Dec-2019     382.9300      60.7432      19.2200      72.0000      -999.25       0.0000       0.0000      -999.25
 43801.9954861111 23:53:30/02-Dec-2019     382.9800      58.9811      19.1700      -999.25     102.0000      -999.25      -999.25      -999.25
 43801.9956018519 23:53:40/02-Dec-2019     383.0200      61.5247      19.1300      -999.25      -999.25      -999.25      -999.25      -999.25
 43801.9957175926 23:53:50/02-Dec-2019     383.1600      59.7627      18.9900      -999.25      -999.25      -999.25      -999.25      -999.25
 43801.9958333333 23:54:00/02-Dec-2019     383.2000      59.7627      18.9500      74.0000      -999.25      -999.25      -999.25      15.6867
 43801.9959490741 23:54:10/02-Dec-2019     383.2500      63.9053      18.9000      -999.25      72.0000       0.0000       0.0000      -999.25
 43801.9960648148 23:54:20/02-Dec-2019     383.2900      62.7004      18.8600      -999.25      -999.25      -999.25      -999.25      -999.25
 43801.9961805556 23:54:30/02-Dec-2019     383.3400      58.7797      18.8200      -999.25      -999.25      -999.25      -999.25      -999.25
 43801.9962962963 23:54:40/02-Dec-2019     383.3800      52.7934      18.7700      -999.25      -999.25      -999.25      -999.25      -999.25
 43801.9964120370 23:54:50/02-Dec-2019     383.4200      54.6371      18.7300      73.0000      -999.25       0.0000       0.0000      -999.25
 43801.9965277778 23:55:00/02-Dec-2019     383.4700      56.4692      18.6800      -999.25      42.0000      -999.25      -999.25      -999.25
 43801.9966435185 23:55:10/02-Dec-2019     383.5100      54.0036      18.6400      -999.25      -999.25      -999.25      -999.25      -999.25
 43801.9967592593 23:55:20/02-Dec-2019     383.5600      55.8357      18.6000      -999.25      -999.25      -999.25      -999.25      -999.25
 43801.9968750000 23:55:30/02-Dec-2019     383.5100      55.8357      18.6400      74.0000      -999.25       0.0000       0.0000      -999.25
 43801.9969907407 23:55:40/02-Dec-2019     383.3700      51.6930      18.7800      -999.25      21.0000      -999.25      -999.25      -999.25
 43801.9971064815 23:55:50/02-Dec-2019     383.6900      56.4692      18.4600      -999.25      -999.25      -999.25      -999.25      -999.25
 43801.9972222222 23:56:00/02-Dec-2019     383.5500      58.7797      18.6000      -999.25      -999.25      -999.25      -999.25      15.6867
 43801.9973379630 23:56:10/02-Dec-2019     383.6000      52.7934      18.5500      -999.25      -999.25      -999.25      -999.25      -999.25
 43801.9974537037 23:56:20/02-Dec-2019     383.6400      58.7797      18.5100      73.0000      48.0000       0.0000       0.0000      -999.25
 43801.9975694444 23:56:30/02-Dec-2019     383.6900      52.0135      18.4600      -999.25      -999.25      -999.25      -999.25      -999.25
 43801.9976851852 23:56:40/02-Dec-2019     383.7300      37.4690      18.4200      -999.25      -999.25      -999.25      -999.25      -999.25
 43801.9978009259 23:56:50/02-Dec-2019     383.7700      44.2842      18.3800      -999.25      -999.25      -999.25      -999.25      -999.25
 43801.9979166667 23:57:00/02-Dec-2019     383.8200      61.2811      18.3300      74.0000      -999.25       0.0000       0.0000      -999.25
 43801.9980324074 23:57:10/02-Dec-2019     383.8600      61.6932      18.2900      -999.25      30.0000      -999.25      -999.25      -999.25
 43801.9981481481 23:57:20/02-Dec-2019     383.9100      53.7086      18.2400      -999.25      -999.25      -999.25      -999.25      -999.25
 43801.9982638889 23:57:30/02-Dec-2019     383.9500      51.1463      18.2000      -999.25      -999.25      -999.25      -999.25      -999.25
 43801.9983796296 23:57:40/02-Dec-2019     383.9000      52.9900      18.2500      73.0000      -999.25      -999.25      -999.25      -999.25
 43801.9984953704 23:57:50/02-Dec-2019     383.9500      47.0037      18.2000      -999.25      21.0000       0.0000       0.0000      -999.25
 43801.9986111111 23:58:00/02-Dec-2019     383.9900      43.6815      18.1600      -999.25      -999.25      -999.25      -999.25      15.6867
 43801.9987268519 23:58:10/02-Dec-2019     384.0400      47.0037      18.1100      -999.25      -999.25      -999.25      -999.25      -999.25
