~VERSION INFORMATION 
VERS  .    2.0                                     :CWLS Log ASCII Standard - VERSION 2.0
WRAP  .    NO                                      :One Line per Time step
PROD  .    Schlumberger Technology Corp.           :LAS Producer
PROG  .    Horizon LASWriter 9.2.113335.3100       :LAS Program name and version
SOURCE.    Run 2-TimeLogicalAcq                    :Run&Pass Information
CREA  .    12/11/2019                              :LAS Creation date {MM/DD/YYYY}
#--------------------------------------------------
~WELL INFORMATION 
#MNEM           .UNIT                      DATA            :DESCRIPTION
#----            ------          --------------            -----------------------------
STRT            .d               43803.0416666667          :START TIME(OLE Automation date)
STOP            .d               43803.8437500000          :STOP TIME(OLE Automation date)
STEP            .d                            0            :STEP TIME(10s in time)
NULL            .                       -999.25            :NULL VALUE
COMP            .                       Equinor            :COMPANY
WELL            .                        31/5-7            :WELL NAME
FLD             .                           Eos            :FIELD NAME
RIGN            .                 West Hercules            :Rig Name
RIGTYP          .                Semi-Submersible          :Rig Type
SON             .                     19SCA0085            :Service Order Number
SRVC            .                  Schlumberger            :SERVICE COMPANY
DATE            .                    12/04/2019            :LOG DATE(Composite Date for Composite LAP) (MM/DD/YYYY)
CLAB            .                       County:            :County Label
CNTY            .                                          :COUNTY
SLAB            .                                          :State/Province Label
STAT            .                                          :STATE or PROVINCE
PROV            .                                          :STATE or PROVINCE
CTRY            .                        Norway            :COUNTRY
CONT_REGION     .                        Europe            :Continent Region
SECT            .                                          :Section
TOWN            .                                          :Township
RANG            .                                          :Range
API             .                                          :API NUMBER
UWI             .                                          :UNIQUE WELL ID
LUL             .                Service Office            :Logging Unit Location
LUN             .                          A615            :Logging Unit Number
LOC             .                Norwegian North Sea       :FIELD LOCATION
FL1             .                Section: 8 1/2 in. pilot  :Field Location Line 1
FL2             .                Job no.: 19SCA0085        :Field Location Line 2
LATI            .deg             60° 34' 35.14" N          :LATITUDE
LONG            .deg             3° 26' 36.13" E           :LONGITUDE
PDAT            .                           MSL            :Local Permanent Datum
LMF             .                            DF            :Logging Measured From
APD             .m                        31.00            :Elevation of Depth Reference (LMF) Above Permanent Datum
EPD             .m                         0.00            :Elevation of Permanent Datum (PDAT) above Mean Sea Level
EKB             .m                      -999.25            :Elevation of Kelly Bushing Above Permanent Datum
EDF             .m                        31.00            :Elevation of Drill Floor Above Permanent Datum
EGL             .m                      -307.00            :Elevation of Ground Level Above Permanent Datum
ECF             .m                      -999.25            :Elevation of Casing Flange above Permanent Datum
#--------------------------------------------------
~CURVE INFORMATION
#MNEM           .UNIT                  API CODE            :DESCRIPTION
#----            ------          --------------            -----------------------------
TIME_1900       .d                                         :                                                        Time Index(OLE Automation date)
TIME            .s                                         :                                (10s)                   Time(hh mm ss/dd-MMM-yyyy)
DEPTH           .m                                         :(RT)    (DnMWorkflow)                                   Depth Index
GR              .gAPI                                      :(RT)    (DV6MT)                                         Gamma Ray
BLKP            .m                                         :(RT)    (DRILLING_SURFACE)                              Height of block above rig floor
STICK           .c/min                                     :(RT)    (TELE675)                                       Stick Slip Indicator
CRPM            .c/min                                     :(RT)    (TELE675)                                       Collar Rotational Speed
SHKRSK          .                                          :(RT)    (TELE675)                                       Shock Risk
SHKPK           .gn                                        :(RT)    (TELE675)                                       Shock Peak
ECD             .g/cm3                                     :(RM)    (DV6MT)                                         Equivalent Circulating Density
DHAT            .degC                                      :(RM)    (DV6MT)                                         Downhole Annulus Temperature
DHAP            .bar                                       :(RM)    (DV6MT)                                         Downhole Annulus Pressure
#-------------------------------------------------------------
#       TIME_1900                 TIME        DEPTH           GR         BLKP        STICK         CRPM       SHKRSK        SHKPK          ECD         DHAT         DHAP 
#                                       (DnMWorkfl)      (DV6MT)  (DRILLING_)    (TELE675)    (TELE675)    (TELE675)    (TELE675)      (DV6MT)      (DV6MT)      (DV6MT) 
#                                              (RT)         (RT)         (RT)         (RT)         (RT)         (RT)         (RT)         (RM)         (RM)         (RM) 
#                                (10s)                                                                                                                                   
~ASCII
# ...
 43803.5861111111 14:04:00/04-Dec-2019     848.2900      61.0917      33.3800      -999.25      -999.25      -999.25      -999.25       1.1992      15.0000      95.2166
 43803.5862268518 14:04:10/04-Dec-2019     848.4600      62.7611      33.2100      -999.25      -999.25      -999.25      -999.25       1.2124      15.0000      96.2508
 43803.5863425926 14:04:20/04-Dec-2019     848.6300      63.9162      33.0400      -999.25      -999.25      -999.25      -999.25       1.2114      15.0000      96.1819
 43803.5864583333 14:04:30/04-Dec-2019     848.5800      65.2206      33.0900      -999.25      -999.25      -999.25      -999.25       1.2218      15.0000      97.0092
 43803.5865740741 14:04:40/04-Dec-2019     848.6900      63.3121      32.9800      -999.25      -999.25       0.0000       0.0000       1.2332      15.0000      97.9745
 43803.5866898148 14:04:50/04-Dec-2019     849.4700      59.1945      32.2000      -999.25      -999.25      -999.25      -999.25       1.2179      15.0000      96.8024
 43803.5868055556 14:05:00/04-Dec-2019     849.4300      58.6201      32.2400      -999.25      -999.25      -999.25      -999.25       1.2054      15.0000      95.8371
 43803.5869212963 14:05:10/04-Dec-2019     849.1000      58.1295      32.5700      -999.25      98.0000      -999.25      -999.25       1.2131      15.0000      96.3887
 43803.5870370370 14:05:20/04-Dec-2019     849.2400      58.3644      32.4300      -999.25      -999.25      -999.25      -999.25       1.2154      15.0000      96.5956
 43803.5871527778 14:05:30/04-Dec-2019     849.7400      59.1945      31.9300      21.0000      -999.25      -999.25      -999.25       1.2071      15.0000      95.9750
 43803.5872685185 14:05:40/04-Dec-2019     850.1200      60.4554      31.5500      -999.25      -999.25      -999.25      -999.25       1.2044      15.0000      95.7682
 43803.5873842593 14:05:50/04-Dec-2019     850.1901      62.4061      31.4800      -999.25      -999.25      -999.25      -999.25       1.2020      15.0000      95.6303
 43803.5875000000 14:06:00/04-Dec-2019     849.8800      63.2362      31.7900      -999.25      -999.25      -999.25      -999.25       1.2019      15.0000      95.5613
 43803.5876157407 14:06:10/04-Dec-2019     850.0300      63.4711      31.6400      -999.25      -999.25      -999.25      -999.25       1.2006      15.0000      95.4924
 43803.5877314815 14:06:20/04-Dec-2019     850.4600      62.9805      31.2000      -999.25      -999.25      -999.25      -999.25       1.1884      15.0000      94.5961
 43803.5878472222 14:06:30/04-Dec-2019     850.6200      62.4061      31.0500      -999.25      -999.25      -999.25      -999.25       1.1988      15.0000      95.4234
 43803.5879629630 14:06:40/04-Dec-2019     850.7700      63.3979      30.8900      -999.25      -999.25       0.0000       0.0000       1.1977      15.0000      95.3545
 43803.5880787037 14:06:50/04-Dec-2019     850.8500      64.4143      30.8100      -999.25      -999.25      -999.25      -999.25       1.1941      15.0000      95.0787
 43803.5881944444 14:07:00/04-Dec-2019     850.9200      65.2444      30.7500      -999.25      -999.25      -999.25      -999.25       1.2009      15.0000      95.6303
 43803.5883101852 14:07:10/04-Dec-2019     851.2600      65.4793      30.4000      -999.25      98.0000      -999.25      -999.25       1.1996      15.0000      95.5613
 43803.5884259259 14:07:20/04-Dec-2019     851.4300      64.9887      30.2400      21.0000      -999.25      -999.25      -999.25       1.2010      15.0000      95.6992
 43803.5885416667 14:07:30/04-Dec-2019     851.3200      64.4143      30.3400      -999.25      -999.25      -999.25      -999.25       1.1952      15.0000      95.2166
 43803.5886574074 14:07:40/04-Dec-2019     851.7000      61.5140      29.9700      -999.25      -999.25      -999.25      -999.25       1.1955      15.0000      95.2856
 43803.5887731481 14:07:50/04-Dec-2019     851.8101      57.4519      29.8500      -999.25      -999.25      -999.25      -999.25       1.1988      15.0000      95.5613
 43803.5888888889 14:08:00/04-Dec-2019     852.0900      54.2992      29.5800      -999.25      -999.25      -999.25      -999.25       1.1941      15.0000      95.2166
 43803.5890046296 14:08:10/04-Dec-2019     852.3799      51.8594      29.2900      -999.25      -999.25      -999.25      -999.25       1.1945      15.0000      95.2856
 43803.5891203704 14:08:20/04-Dec-2019     852.1100      52.4974      29.4600      -999.25      -999.25      -999.25      -999.25       1.1933      15.0000      95.1477
 43803.5892361111 14:08:30/04-Dec-2019     852.1900      54.5788      29.6600      -999.25      -999.25      -999.25      -999.25       1.1897      15.0000      94.8719
 43803.5893518519 14:08:40/04-Dec-2019     852.9200      55.4441      28.8400      -999.25      -999.25       0.0000       0.0000       1.1916      15.0000      95.1477
 43803.5894675926 14:08:50/04-Dec-2019     853.1000      55.3049      28.4600      -999.25      -999.25      -999.25      -999.25       1.1968      15.0000      95.5613
 43803.5895833333 14:09:00/04-Dec-2019     852.8600      54.3495      28.8000      -999.25      -999.25      -999.25      -999.25       1.1963      15.0000      95.4924
 43803.5896990741 14:09:10/04-Dec-2019     853.4900      52.6038      28.1700      -999.25      98.0000      -999.25      -999.25       1.1989      15.0000      95.7682
 43803.5898148148 14:09:20/04-Dec-2019     853.1800      51.5250      28.2000      18.0000      -999.25      -999.25      -999.25       1.1958      15.0000      95.4234
 43803.5899305556 14:09:30/04-Dec-2019     852.7700      49.6723      28.8800      -999.25      -999.25      -999.25      -999.25       1.1948      15.0000      95.3545
 43803.5900462963 14:09:40/04-Dec-2019     853.4500      46.2118      28.2200      -999.25      -999.25      -999.25      -999.25       1.1981      15.0000      95.7682
 43803.5901620370 14:09:50/04-Dec-2019     853.9600      45.7232      27.7000      -999.25      -999.25      -999.25      -999.25       1.1965      15.0000      95.6303
 43803.5902777778 14:10:00/04-Dec-2019     853.8900      47.2433      27.7800      -999.25      -999.25      -999.25      -999.25       1.2019      15.0000      96.0440
 43803.5903935185 14:10:10/04-Dec-2019     853.9200      48.4242      27.7400      -999.25      -999.25      -999.25      -999.25       1.1930      15.0000      95.3545
 43803.5905092593 14:10:20/04-Dec-2019     854.2401      49.9443      27.4300      -999.25      -999.25      -999.25      -999.25       1.1995      15.0000      95.9061
 43803.5906250000 14:10:30/04-Dec-2019     854.4600      50.6267      27.1100      -999.25      -999.25      -999.25      -999.25       1.1909      15.0000      95.2166
 43803.5907407407 14:10:40/04-Dec-2019     854.2200      51.1089      27.4400      -999.25      -999.25       0.0000       0.0000       1.1952      15.0000      95.5613
 43803.5908564815 14:10:50/04-Dec-2019     854.3800      46.9019      27.2800      -999.25      -999.25      -999.25      -999.25       1.1967      15.0000      95.6992
 43803.5909722222 14:11:00/04-Dec-2019     854.9401      44.1061      26.7300      -999.25      98.0000      -999.25      -999.25       1.1847      15.0000      94.8029
 43803.5910879630 14:11:10/04-Dec-2019     854.7200      43.0546      26.7500      -999.25      -999.25      -999.25      -999.25       1.1991      15.0000      95.9061
 43803.5912037037 14:11:20/04-Dec-2019     854.5100      44.2965      27.1500      24.0000      -999.25      -999.25      -999.25       1.1974      15.0000      95.7682
 43803.5913194444 14:11:30/04-Dec-2019     855.3300      46.0990      26.4200      -999.25      -999.25      -999.25      -999.25       1.1899      15.0000      95.2166
 43803.5914351852 14:11:40/04-Dec-2019     855.6900      46.8652      25.9700      -999.25      -999.25      -999.25      -999.25       1.1914      15.0000      95.4234
 43803.5915509259 14:11:50/04-Dec-2019     855.4800      47.9196      26.1900      -999.25      -999.25      -999.25      -999.25       1.1932      15.0000      95.4924
