~VERSION INFORMATION 
VERS  .    2.0                                     :CWLS Log ASCII Standard - VERSION 2.0
WRAP  .    NO                                      :One Line per Time step
PROD  .    Schlumberger Technology Corp.           :LAS Producer
PROG  .    Horizon LASWriter 9.2.113335.3100       :LAS Program name and version
SOURCE.    Run 7-TimeLogicalAcq                    :Run&Pass Information
CREA  .    12/27/2019                              :LAS Creation date {MM/DD/YYYY}
#--------------------------------------------------
~WELL INFORMATION 
#MNEM           .UNIT                      DATA            :DESCRIPTION
#----            ------          --------------            -----------------------------
STRT            .d               43818.4166666667          :START TIME(OLE Automation date)
STOP            .d               43819.7083333333          :STOP TIME(OLE Automation date)
STEP            .d                            0            :STEP TIME(10s in time)
NULL            .                       -999.25            :NULL VALUE
COMP            .                       Equinor            :COMPANY
WELL            .                        31/5-7            :WELL NAME
FLD             .                           Eos            :FIELD NAME
RIGN            .                 West Hercules            :Rig Name
RIGTYP          .                Semi-Submersible          :Rig Type
SON             .                     19SCA0085            :Service Order Number
SRVC            .                  Schlumberger            :SERVICE COMPANY
DATE            .                    12/19/2019            :LOG DATE(Composite Date for Composite LAP) (MM/DD/YYYY)
CLAB            .                       County:            :County Label
CNTY            .                                          :COUNTY
SLAB            .                                          :State/Province Label
STAT            .                                          :STATE or PROVINCE
PROV            .                                          :STATE or PROVINCE
CTRY            .                        Norway            :COUNTRY
CONT_REGION     .                        Europe            :Continent Region
SECT            .                                          :Section
TOWN            .                                          :Township
RANG            .                                          :Range
API             .                                          :API NUMBER
UWI             .                                          :UNIQUE WELL ID
LUL             .                Service Office            :Logging Unit Location
LUN             .                          A615            :Logging Unit Number
LOC             .                Norwegian North Sea       :FIELD LOCATION
FL1             .                Section: 12 1/4 x 17 1/5 in.:Field Location Line 1
FL2             .                Job no.: 19SCA0085        :Field Location Line 2
LATI            .deg             60° 34' 35.14" N          :LATITUDE
LONG            .deg             3° 26' 36.13" E           :LONGITUDE
PDAT            .                           MSL            :Local Permanent Datum
LMF             .                            DF            :Logging Measured From
APD             .m                        31.00            :Elevation of Depth Reference (LMF) Above Permanent Datum
EPD             .m                         0.00            :Elevation of Permanent Datum (PDAT) above Mean Sea Level
EKB             .m                      -999.25            :Elevation of Kelly Bushing Above Permanent Datum
EDF             .m                        31.00            :Elevation of Drill Floor Above Permanent Datum
EGL             .m                      -307.00            :Elevation of Ground Level Above Permanent Datum
ECF             .m                      -999.25            :Elevation of Casing Flange above Permanent Datum
#--------------------------------------------------
~CURVE INFORMATION
#MNEM           .UNIT                  API CODE            :DESCRIPTION
#----            ------          --------------            -----------------------------
TIME_1900       .d                                         :                                                        Time Index(OLE Automation date)
TIME            .s                                         :                                (10s)                   Time(hh mm ss/dd-MMM-yyyy)
DEPTH           .m                                         :(RT)    (DnMWorkflow)                                   Depth Index
BLKP            .m                                         :(RT)    (DRILLING_SURFACE)                              Height of block above rig floor
GR_CAL          .gAPI                                      :(RT)    (ARC9)                                          Calibrated Gamma Ray
STICK           .c/min                                     :(RT)    (TELE900)                                       Stick Slip Indicator
CRPM            .c/min                                     :(RT)    (TELE900)                                       Collar Rotational Speed
SHKRSK          .                                          :(RT)    (TELE900)                                       Shock Risk
SHKPK           .gn                                        :(RT)    (TELE900)                                       Shock Peak
DHAT            .degC                                      :(RM)    (ARC9)                                          Downhole Annulus Temperature
DHAP            .bar                                       :(RM)    (ARC9)                                          Downhole Annulus Pressure
ECD             .g/cm3                                     :(RM)    (ARC9)                                          Equivalent Circulating Density
#-------------------------------------------------------------
#       TIME_1900                 TIME        DEPTH         BLKP       GR_CAL        STICK         CRPM       SHKRSK        SHKPK         DHAT         DHAP          ECD 
#                                       (DnMWorkfl)  (DRILLING_)       (ARC9)    (TELE900)    (TELE900)    (TELE900)    (TELE900)       (ARC9)       (ARC9)       (ARC9) 
#                                              (RT)         (RT)         (RT)         (RT)         (RT)         (RT)         (RT)         (RM)         (RM)         (RM) 
#                                (10s)                                                                                                                                   
~ASCII
# ...
 43818.5444444444 13:04:00/19-Dec-2019    964.69000     32.87000    121.81470      -999.25    184.00000      0.00000      0.00000     20.00000    120.58930      1.29296
 43818.5445601852 13:04:10/19-Dec-2019    964.91998     32.64000    123.63280    153.00000      -999.25      -999.25      -999.25     20.00000    120.58930      1.29264
 43818.5446759259 13:04:20/19-Dec-2019    964.78998     32.77000    125.39160      -999.25      -999.25      -999.25      -999.25     20.00000    120.38250      1.29060
 43818.5447916667 13:04:30/19-Dec-2019    965.17999     32.38000    126.71370      -999.25      -999.25      -999.25      -999.25     20.00000    120.86510      1.29524
 43818.5449074074 13:04:40/19-Dec-2019    965.30005     32.26000    123.74940      -999.25    189.00000      0.00000      0.00000     20.00000    120.86510      1.29508
 43818.5450231481 13:04:50/19-Dec-2019    965.41003     32.15000    119.87990    381.00000      -999.25      -999.25      -999.25     20.00000    120.72720      1.29345
 43818.5451388889 13:05:00/19-Dec-2019    965.37000     32.19000    116.91570      -999.25      -999.25      -999.25      -999.25     20.00000    120.79620      1.29424
 43818.5452546296 13:05:10/19-Dec-2019    965.68994     31.87000    116.33870      -999.25      -999.25      -999.25      -999.25     21.00000    121.14090      1.29750
 43818.5453703704 13:05:20/19-Dec-2019    965.83997     31.72000    121.42250      -999.25    170.00000      -999.25      -999.25     21.00000    120.93400      1.29508
 43818.5454861111 13:05:30/19-Dec-2019    966.00000     31.56000    127.39590    381.00000      -999.25      0.00000      0.00000     21.00000    121.07190      1.29634
 43818.5456018519 13:05:40/19-Dec-2019    966.06006     31.50000    128.69480      -999.25      -999.25      -999.25      -999.25     21.00000    121.20980      1.29768
 43818.5457175926 13:05:50/19-Dec-2019    966.29999     31.26000    130.51700      -999.25      -999.25      -999.25      -999.25     21.00000    121.27880      1.29815
 43818.5458333333 13:06:00/19-Dec-2019    966.46997     31.11000    127.71250      -999.25      -999.25      -999.25      -999.25     21.00000    121.20980      1.29718
 43818.5459490741 13:06:10/19-Dec-2019    966.62000     30.94000    121.73900      -999.25    187.00000      0.00000      0.00000     21.00000    121.14090      1.29624
 43818.5460648148 13:06:20/19-Dec-2019    966.77002     30.79000    120.44020    348.00000      -999.25      -999.25      -999.25     21.00000    121.20980      1.29677
 43818.5461805556 13:06:30/19-Dec-2019    966.92004     30.64000    123.67140      -999.25      -999.25      -999.25      -999.25     21.00000    120.93400      1.29361
 43818.5462962963 13:06:40/19-Dec-2019    967.08997     30.58000    135.53260      -999.25      -999.25      -999.25      -999.25     21.00000    120.86510      1.29271
 43818.5464120370 13:06:50/19-Dec-2019    967.22998     30.33000    136.42790      -999.25    163.00000      0.00000      0.00000     21.00000    121.27880      1.29688
 43818.5465277778 13:07:00/19-Dec-2019    967.39001     30.18000    136.42790    381.00000      -999.25      -999.25      -999.25     21.00000    121.07190      1.29445
 43818.5466435185 13:07:10/19-Dec-2019    967.62000     30.04000    135.53260      -999.25      -999.25      -999.25      -999.25     21.00000    121.00300      1.29346
 43818.5467592593 13:07:20/19-Dec-2019    967.75000     29.81000    135.22170      -999.25      -999.25      -999.25      -999.25     21.00000    121.00300      1.29321
 43818.5468750000 13:07:30/19-Dec-2019    967.81000     29.75000    136.00900      -999.25      -999.25      -999.25      -999.25     21.00000    121.07190      1.29387
 43818.5469907407 13:07:40/19-Dec-2019    968.04999     29.51000    136.59330      -999.25    163.00000      0.00000      0.00000     21.00000    121.14090      1.29428
 43818.5471064815 13:07:50/19-Dec-2019    968.20001     29.36000    136.00900    381.00000      -999.25      -999.25      -999.25     21.00000    121.27880      1.29555
 43818.5472222222 13:08:00/19-Dec-2019    968.26996     29.29000    134.80930      -999.25      -999.25      -999.25      -999.25     21.00000    121.20980      1.29472
 43818.5473379630 13:08:10/19-Dec-2019    968.41998     29.14000    133.39700      -999.25      -999.25      -999.25      -999.25     21.00000    121.41670      1.29673
 43818.5474537037 13:08:20/19-Dec-2019    968.57001     28.99000    132.61800      -999.25    165.00000      0.00000      0.00000     21.00000    121.14090      1.29358
 43818.5475694444 13:08:30/19-Dec-2019    968.81995     28.74000    132.53600    240.00000      -999.25      -999.25      -999.25     21.00000    121.48560      1.29692
 43818.5476851852 13:08:40/19-Dec-2019    968.89001     28.67000    133.18940      -999.25      -999.25      -999.25      -999.25     21.00000    121.48560      1.29683
 43818.5478009259 13:08:50/19-Dec-2019    969.02997     28.53000    130.81780      -999.25      -999.25      -999.25      -999.25     21.00000    121.48560      1.29663
 43818.5479166667 13:09:00/19-Dec-2019    969.27002     28.29000    127.85610      -999.25    196.00000      -999.25      -999.25     21.00000    121.34770      1.29484
 43818.5480324074 13:09:10/19-Dec-2019    969.49994     28.14000    127.33690    381.00000      -999.25      0.00000      0.00000     21.00000    120.79620      1.28870
 43818.5481481481 13:09:20/19-Dec-2019    969.46997     28.08000    131.49220      -999.25      -999.25      -999.25      -999.25     21.00000    121.14090      1.29236
 43818.5482638889 13:09:30/19-Dec-2019    969.62000     27.93000    134.19000      -999.25      -999.25      -999.25      -999.25     21.00000    121.14090      1.29216
 43818.5483796296 13:09:40/19-Dec-2019    969.70001     27.85000    130.70120      -999.25      -999.25      -999.25      -999.25     21.00000    121.14090      1.29205
 43818.5484953704 13:09:50/19-Dec-2019    970.01996     27.54000    130.18200      -999.25    187.00000      0.00000      0.00000     21.00000    120.72720      1.28721
 43818.5486111111 13:10:00/19-Dec-2019    970.38000     27.26000    134.33730    381.00000      -999.25      -999.25      -999.25     21.00000    121.27880      1.29266
 43818.5487268518 13:10:10/19-Dec-2019    969.92004     27.54000    138.45370      -999.25      -999.25      -999.25      -999.25     21.00000    121.34770      1.29390
 43818.5488425926 13:10:20/19-Dec-2019    970.37000     27.18000    136.11370      -999.25      -999.25      -999.25      -999.25     21.00000    121.41670      1.29408
 43818.5489583333 13:10:30/19-Dec-2019    970.30994     27.25000    128.08650      -999.25    177.00000      0.00000      0.00000     21.00000    121.55460      1.29564
 43818.5490740741 13:10:40/19-Dec-2019    970.48999     27.07000    122.28220    381.00000      -999.25      -999.25      -999.25     21.00000    121.69250      1.29687
 43818.5491898148 13:10:50/19-Dec-2019    970.48999     27.07000    121.41680      -999.25      -999.25      -999.25      -999.25     21.00000    121.55460      1.29540
 43818.5493055556 13:11:00/19-Dec-2019    970.48999     27.07000    126.36250      -999.25      -999.25      -999.25      -999.25     21.00000    121.27880      1.29246
 43818.5494212963 13:11:10/19-Dec-2019    970.50000     27.06000    131.68350      -999.25      -999.25      -999.25      -999.25     21.00000    121.48560      1.29464
 43818.5495370370 13:11:20/19-Dec-2019    970.56000     27.00000    135.83880      -999.25    178.00000      0.00000      0.00000     21.00000    121.41670      1.29383
 43818.5496527778 13:11:30/19-Dec-2019    970.66998     26.89000    135.31960    381.00000      -999.25      -999.25      -999.25     21.00000    121.62350      1.29588
 43818.5497685185 13:11:40/19-Dec-2019    970.89001     26.67000    131.24930      -999.25      -999.25      -999.25      -999.25     21.00000    121.76140      1.29706
 43818.5498842593 13:11:50/19-Dec-2019    971.00995     26.55000    121.92110      -999.25      -999.25      -999.25      -999.25     21.00000    121.76140      1.29690
