~VERSION INFORMATION 
VERS  .    2.0                                     :CWLS Log ASCII Standard - VERSION 2.0
WRAP  .    NO                                      :One Line per Time step
PROD  .    Schlumberger Technology Corp.           :LAS Producer
PROG  .    Horizon LASWriter 9.2.113335.3100       :LAS Program name and version
SOURCE.    Run 13-TimeLogicalAcq                   :Run&Pass Information
CREA  .    01/21/2020                              :LAS Creation date {MM/DD/YYYY}
#--------------------------------------------------
~WELL INFORMATION 
#MNEM           .UNIT                      DATA            :DESCRIPTION
#----            ------          --------------            -----------------------------
STRT            .d               43844.3958333334          :START TIME(OLE Automation date)
STOP            .d               43845.1666666667          :STOP TIME(OLE Automation date)
STEP            .d                            0            :STEP TIME(10s in time)
NULL            .                       -999.25            :NULL VALUE
COMP            .                       Equinor            :COMPANY
WELL            .                        31/5-7            :WELL NAME
FLD             .                           Eos            :FIELD NAME
RIGN            .                 West Hercules            :Rig Name
RIGTYP          .                Semi-Submersible          :Rig Type
SON             .                     19SCA0085            :Service Order Number
SRVC            .                  Schlumberger            :SERVICE COMPANY
DATE            .                    01/13/2020            :LOG DATE(Composite Date for Composite LAP) (MM/DD/YYYY)
CLAB            .                       County:            :County Label
CNTY            .                                          :COUNTY
SLAB            .                                          :State/Province Label
STAT            .                                          :STATE or PROVINCE
PROV            .                                          :STATE or PROVINCE
CTRY            .                        Norway            :COUNTRY
CONT_REGION     .                        Europe            :Continent Region
SECT            .                                          :Section
TOWN            .                                          :Township
RANG            .                                          :Range
API             .                                          :API NUMBER
UWI             .                                          :UNIQUE WELL ID
LUL             .                Service Office            :Logging Unit Location
LUN             .                          A615            :Logging Unit Number
LOC             .                Norwegian North Sea       :FIELD LOCATION
FL1             .                Section: 8 1/2 in.        :Field Location Line 1
FL2             .                Job no.: 19SCA0085        :Field Location Line 2
LATI            .deg             60° 34' 35.14" N          :LATITUDE
LONG            .deg             3° 26' 36.13" E           :LONGITUDE
PDAT            .                           MSL            :Local Permanent Datum
LMF             .                            DF            :Logging Measured From
APD             .m                        31.00            :Elevation of Depth Reference (LMF) Above Permanent Datum
EPD             .m                         0.00            :Elevation of Permanent Datum (PDAT) above Mean Sea Level
EKB             .m                      -999.25            :Elevation of Kelly Bushing Above Permanent Datum
EDF             .m                        31.00            :Elevation of Drill Floor Above Permanent Datum
EGL             .m                      -307.00            :Elevation of Ground Level Above Permanent Datum
ECF             .m                      -999.25            :Elevation of Casing Flange above Permanent Datum
#--------------------------------------------------
~CURVE INFORMATION
#MNEM           .UNIT                  API CODE            :DESCRIPTION
#----            ------          --------------            -----------------------------
TIME_1900       .d                                         :                                                        Time Index(OLE Automation date)
TIME            .s                                         :                                (10s)                   Time(hh mm ss/dd-MMM-yyyy)
DEPTH           .m                                         :(RT)    (DnMWorkflow)                                   Depth Index
BLKP            .m                                         :(RT)    (DRILLING_SURFACE)                              Height of block above rig floor
GR              .gAPI                                      :(RT)    (ARC6)                                          Gamma Ray
CRPM            .c/min                                     :(RT)    (TELE675)                                       Collar Rotational Speed
STICK           .c/min                                     :(RT)    (TELE675)                                       Stick Slip Indicator
SHKRSK          .                                          :(RT)    (TELE675)                                       Shock Risk
SHKPK           .gn                                        :(RT)    (TELE675)                                       Shock Peak
DHAT            .degC                                      :(RM)    (ARC6)                                          Downhole Annulus Temperature
DHAP            .bar                                       :(RM)    (ARC6)                                          Downhole Annulus Pressure
ECD             .g/cm3                                     :(RM)    (ARC6)                                          Equivalent Circulating Density
#-------------------------------------------------------------
#       TIME_1900                 TIME        DEPTH         BLKP           GR         CRPM        STICK       SHKRSK        SHKPK         DHAT         DHAP          ECD 
#                                       (DnMWorkfl)  (DRILLING_)       (ARC6)    (TELE675)    (TELE675)    (TELE675)    (TELE675)       (ARC6)       (ARC6)       (ARC6) 
#                                              (RT)         (RT)         (RT)         (RT)         (RT)         (RT)         (RT)         (RM)         (RM)         (RM) 
#                                (10s)                                                                                                                                   
~ASCII
# ...
 43845.0625000000 01:30:00/15-Jan-2020   2707.38013      6.17000      -999.25      -999.25      -999.25      -999.25      -999.25     57.00000    309.22990      1.16851
 43845.0626157407 01:30:10/15-Jan-2020   2706.42017      7.13000      -999.25      -999.25      -999.25      -999.25      -999.25     57.00000    310.47090      1.17361
 43845.0627314815 01:30:20/15-Jan-2020   2705.06982      8.48000      -999.25      -999.25      -999.25      -999.25      -999.25     57.00000    302.61090      1.14448
 43845.0628472222 01:30:30/15-Jan-2020   2703.77002      9.71000      -999.25      -999.25      -999.25      -999.25      -999.25     57.00000    305.43780      1.15573
 43845.0629629630 01:30:40/15-Jan-2020   2702.34009     11.10000      -999.25      -999.25      -999.25      -999.25      -999.25     57.00000    303.16250      1.14772
 43845.0630787037 01:30:50/15-Jan-2020   2701.09009     12.39000      -999.25      -999.25      -999.25      -999.25      -999.25     57.00000    304.47250      1.15322
 43845.0631944444 01:31:00/15-Jan-2020   2699.66016     13.84000      -999.25      -999.25      -999.25      -999.25      -999.25     57.00000    305.57560      1.15801
 43845.0633101852 01:31:10/15-Jan-2020   2697.78003     15.67000      -999.25      -999.25      -999.25      -999.25      -999.25     57.00000    306.19620      1.16118
 43845.0634259259 01:31:20/15-Jan-2020   2695.95996     17.50000      -999.25      -999.25      -999.25      -999.25      -999.25     57.00000    314.46990      1.19336
 43845.0635416667 01:31:30/15-Jan-2020   2694.26001     19.15000      -999.25      -999.25      -999.25      -999.25      -999.25     57.00000    306.74780      1.16479
 43845.0636574074 01:31:40/15-Jan-2020   2692.52026     20.94000      -999.25      -999.25      -999.25      -999.25      -999.25     57.00000    302.88670      1.15087
 43845.0637731481 01:31:50/15-Jan-2020   2690.66016     22.79000      -999.25      -999.25      -999.25      -999.25      -999.25     57.00000    308.67830      1.17369
 43845.0638888889 01:32:00/15-Jan-2020   2688.66016     24.83000      -999.25      -999.25      -999.25      -999.25      -999.25     57.00000    309.98830      1.17956
 43845.0640046296 01:32:10/15-Jan-2020   2686.63013     26.80000      -999.25      -999.25      -999.25      -999.25      -999.25     57.00000    305.36880      1.16286
 43845.0641203704 01:32:20/15-Jan-2020   2684.45020     29.04000      -999.25      -999.25      -999.25      -999.25      -999.25     57.00000    310.47090      1.18325
 43845.0642361111 01:32:30/15-Jan-2020   2682.70996     30.74000      -999.25      -999.25      -999.25      -999.25      -999.25     57.00000    308.26460      1.17560
 43845.0643518518 01:32:40/15-Jan-2020   2680.91016     32.64000      -999.25      -999.25      -999.25      -999.25      -999.25     57.00000    303.78300      1.15930
 43845.0644675926 01:32:50/15-Jan-2020   2678.83008     34.72000      -999.25      -999.25      -999.25      -999.25      -999.25     57.00000    304.67930      1.16363
 43845.0645833333 01:33:00/15-Jan-2020   2676.66016     36.89000      -999.25      -999.25      -999.25      -999.25      -999.25     57.00000    302.12830      1.15482
 43845.0646990741 01:33:10/15-Jan-2020   2674.93994     38.61000      -999.25      -999.25      -999.25      -999.25      -999.25     57.00000    303.71410      1.16163
 43845.0648148148 01:33:20/15-Jan-2020   2673.09009     40.46000      -999.25      -999.25      -999.25      -999.25      -999.25     57.00000    303.50720      1.16164
 43845.0649305556 01:33:30/15-Jan-2020   2671.11011     42.44000      -999.25      -999.25      -999.25      -999.25      -999.25     57.00000    303.50720      1.16247
 43845.0650462963 01:33:40/15-Jan-2020   2669.78003     43.77000      -999.25      -999.25      -999.25      -999.25      -999.25     57.00000    301.92140      1.15702
 43845.0651620370 01:33:50/15-Jan-2020   2669.73999     43.81000      -999.25      -999.25      -999.25      -999.25      -999.25     57.00000    300.47350      1.15149
 43845.0652777778 01:34:00/15-Jan-2020   2669.78003     43.78000      -999.25      -999.25      -999.25      -999.25      -999.25     57.00000    299.50830      1.14777
 43845.0653935185 01:34:10/15-Jan-2020   2669.82007     43.73000      -999.25      -999.25      -999.25      -999.25      -999.25     57.00000    301.57670      1.15568
 43845.0655092593 01:34:20/15-Jan-2020   2669.83008     43.72000      -999.25      -999.25      -999.25      -999.25      -999.25     57.00000    308.19560      1.18104
 43845.0656250000 01:34:30/15-Jan-2020   2669.83008     43.72000      -999.25      -999.25      -999.25      -999.25      -999.25     57.00000    305.92040      1.17232
 43845.0657407407 01:34:40/15-Jan-2020   2669.83008     43.72000      -999.25      -999.25      -999.25      -999.25      -999.25     57.00000    310.74670      1.19082
 43845.0658564815 01:34:50/15-Jan-2020   2669.83008     43.72000      -999.25      -999.25      -999.25      -999.25      -999.25     57.00000    312.81510      1.19874
 43845.0659722222 01:35:00/15-Jan-2020   2669.83008     43.72000      -999.25      -999.25      -999.25      -999.25      -999.25     57.00000    305.64460      1.17126
 43845.0660879630 01:35:10/15-Jan-2020   2669.83008     43.74000      -999.25      -999.25      -999.25      -999.25      -999.25     57.00000    305.36880      1.17021
 43845.0662037037 01:35:20/15-Jan-2020   2669.83008     43.79000      -999.25      -999.25      -999.25      -999.25      -999.25     57.00000    303.09350      1.16149
 43845.0663194444 01:35:30/15-Jan-2020   2669.83008     43.89000      -999.25      -999.25      -999.25      -999.25      -999.25     57.00000    307.29930      1.17761
 43845.0664351852 01:35:40/15-Jan-2020   2669.83008     43.96000      -999.25      -999.25      -999.25      -999.25      -999.25     57.00000    302.05930      1.15753
 43845.0665509259 01:35:50/15-Jan-2020   2669.83008     43.96000      -999.25      -999.25      -999.25      -999.25      -999.25     57.00000    307.09250      1.17681
 43845.0666666667 01:36:00/15-Jan-2020   2669.83008     43.96000      -999.25      -999.25      -999.25      -999.25      -999.25     57.00000    304.47250      1.16677
 43845.0667824074 01:36:10/15-Jan-2020   2669.83008     43.96000      -999.25      -999.25      -999.25      -999.25      -999.25     57.00000    301.16300      1.15409
 43845.0668981481 01:36:20/15-Jan-2020   2669.83008     42.28000      -999.25      -999.25      -999.25      -999.25      -999.25     57.00000    302.26620      1.15832
 43845.0670138889 01:36:30/15-Jan-2020   2669.83008     40.92000      -999.25      -999.25      -999.25      -999.25      -999.25     57.00000    305.78250      1.17179
 43845.0671296296 01:36:40/15-Jan-2020   2669.83008     32.01000      -999.25      -999.25      -999.25      -999.25      -999.25     57.00000    309.43670      1.18580
 43845.0672453704 01:36:50/15-Jan-2020   2669.83008     18.33000      -999.25      -999.25      -999.25      -999.25      -999.25     57.00000    309.57460      1.18632
 43845.0673611111 01:37:00/15-Jan-2020   2669.83008     10.20000      -999.25      -999.25      -999.25      -999.25      -999.25     57.00000    311.29830      1.19293
 43845.0674768519 01:37:10/15-Jan-2020   2669.83008      8.61000      -999.25      -999.25      -999.25      -999.25      -999.25     57.00000    302.33510      1.15858
 43845.0675925926 01:37:20/15-Jan-2020   2669.83008      6.26000      -999.25      -999.25      -999.25      -999.25      -999.25     57.00000    303.98980      1.16492
 43845.0677083333 01:37:30/15-Jan-2020   2669.83008      5.10000      -999.25      -999.25      -999.25      -999.25      -999.25     57.00000    300.88720      1.15303
 43845.0678240741 01:37:40/15-Jan-2020   2669.83008      5.09000      -999.25      -999.25      -999.25      -999.25      -999.25     57.00000    302.40410      1.15885
 43845.0679398148 01:37:50/15-Jan-2020   2669.83008      4.97000      -999.25      -999.25      -999.25      -999.25      -999.25     57.00000    306.74780      1.17549
