~VERSION INFORMATION 
VERS  .    2.0                                     :CWLS Log ASCII Standard - VERSION 2.0
WRAP  .    NO                                      :One Line per Time step
PROD  .    Schlumberger Technology Corp.           :LAS Producer
PROG  .    Horizon LASWriter 9.2.113335.3100       :LAS Program name and version
SOURCE.    Run 9-TimeLogicalAcq                    :Run&Pass Information
CREA  .    01/21/2020                              :LAS Creation date {MM/DD/YYYY}
#--------------------------------------------------
~WELL INFORMATION 
#MNEM           .UNIT                      DATA            :DESCRIPTION
#----            ------          --------------            -----------------------------
STRT            .d               43828.3333333334          :START TIME(OLE Automation date)
STOP            .d               43829.1041666667          :STOP TIME(OLE Automation date)
STEP            .d                            0            :STEP TIME(10s in time)
NULL            .                       -999.25            :NULL VALUE
COMP            .                       Equinor            :COMPANY
WELL            .                        31/5-7            :WELL NAME
FLD             .                           Eos            :FIELD NAME
RIGN            .                 West Hercules            :Rig Name
RIGTYP          .                Semi-Submersible          :Rig Type
SON             .                     19SCA0085            :Service Order Number
SRVC            .                  Schlumberger            :SERVICE COMPANY
DATE            .                    12/29/2019            :LOG DATE(Composite Date for Composite LAP) (MM/DD/YYYY)
CLAB            .                       County:            :County Label
CNTY            .                                          :COUNTY
SLAB            .                                          :State/Province Label
STAT            .                                          :STATE or PROVINCE
PROV            .                                          :STATE or PROVINCE
CTRY            .                        Norway            :COUNTRY
CONT_REGION     .                        Europe            :Continent Region
SECT            .                                          :Section
TOWN            .                                          :Township
RANG            .                                          :Range
API             .                                          :API NUMBER
UWI             .                                          :UNIQUE WELL ID
LUL             .                Service Office            :Logging Unit Location
LUN             .                          A615            :Logging Unit Number
LOC             .                Norwegian North Sea       :FIELD LOCATION
FL1             .                Section: 8 1/2 in.        :Field Location Line 1
FL2             .                Job no.: 19SCA0085        :Field Location Line 2
LATI            .deg             60° 34' 35.14" N          :LATITUDE
LONG            .deg             3° 26' 36.13" E           :LONGITUDE
PDAT            .                           MSL            :Local Permanent Datum
LMF             .                            DF            :Logging Measured From
APD             .m                        31.00            :Elevation of Depth Reference (LMF) Above Permanent Datum
EPD             .m                         0.00            :Elevation of Permanent Datum (PDAT) above Mean Sea Level
EKB             .m                      -999.25            :Elevation of Kelly Bushing Above Permanent Datum
EDF             .m                        31.00            :Elevation of Drill Floor Above Permanent Datum
EGL             .m                      -307.00            :Elevation of Ground Level Above Permanent Datum
ECF             .m                      -999.25            :Elevation of Casing Flange above Permanent Datum
#--------------------------------------------------
~CURVE INFORMATION
#MNEM           .UNIT                  API CODE            :DESCRIPTION
#----            ------          --------------            -----------------------------
TIME_1900       .d                                         :                                                        Time Index(OLE Automation date)
TIME            .s                                         :                                (10s)                   Time(hh mm ss/dd-MMM-yyyy)
DEPTH           .m                                         :(RT)    (DnMWorkflow)                                   Depth Index
BLKP            .m                                         :(RT)    (DRILLING_SURFACE)                              Height of block above rig floor
GR              .gAPI                                      :(RT)    (ARC6)                                          Gamma Ray
CRPM            .c/min                                     :(RT)    (TELE675)                                       Collar Rotational Speed
STICK           .c/min                                     :(RT)    (TELE675)                                       Stick Slip Indicator
SHKRSK          .                                          :(RT)    (TELE675)                                       Shock Risk
SHKPK           .gn                                        :(RT)    (TELE675)                                       Shock Peak
DHAT            .degC                                      :(RM)    (ARC6)                                          Downhole Annulus Temperature
DHAP            .bar                                       :(RM)    (ARC6)                                          Downhole Annulus Pressure
ECD             .g/cm3                                     :(RM)    (ARC6)                                          Equivalent Circulating Density
#-------------------------------------------------------------
#       TIME_1900                 TIME        DEPTH         BLKP           GR         CRPM        STICK       SHKRSK        SHKPK         DHAT         DHAP          ECD 
#                                       (DnMWorkfl)  (DRILLING_)       (ARC6)    (TELE675)    (TELE675)    (TELE675)    (TELE675)       (ARC6)       (ARC6)       (ARC6) 
#                                              (RT)         (RT)         (RT)         (RT)         (RT)         (RT)         (RT)         (RM)         (RM)         (RM) 
#                                (10s)                                                                                                                                   
~ASCII
# ...
 43828.6055555556 14:32:00/29-Dec-2019   2566.51978     35.97000     66.01427    100.00000      -999.25      -999.25      -999.25     35.00000    298.33620      1.18942
 43828.6056712963 14:32:10/29-Dec-2019   2566.47998     36.01000     66.01427      -999.25    144.00000      0.00000      0.00000     35.00000    298.47400      1.18999
 43828.6057870370 14:32:20/29-Dec-2019   2566.71997     35.77000     64.87846      -999.25      -999.25      -999.25      -999.25     35.00000    298.81880      1.19129
 43828.6059027778 14:32:30/29-Dec-2019   2566.88989     35.60000     64.89597      -999.25      -999.25      -999.25      -999.25     35.00000    298.33620      1.18917
 43828.6060185185 14:32:40/29-Dec-2019   2566.92993     35.56000     66.21964      -999.25      -999.25      -999.25      -999.25     35.00000    298.74980      1.19088
 43828.6061342593 14:32:50/29-Dec-2019   2566.71997     35.77000     69.45900    103.00000      -999.25      -999.25      -999.25     35.00000    298.74980      1.19097
 43828.6062500000 14:33:00/29-Dec-2019   2566.69019     35.80000     69.66199      -999.25    108.00000      0.00000      0.00000     35.00000    298.47400      1.18990
 43828.6063657407 14:33:10/29-Dec-2019   2567.05005     35.44000     64.46437      -999.25      -999.25      -999.25      -999.25     35.00000    298.47400      1.18972
 43828.6064814815 14:33:20/29-Dec-2019   2566.55005     35.94000     60.92054      -999.25      -999.25      -999.25      -999.25     35.00000    298.74980      1.19106
 43828.6065972222 14:33:30/29-Dec-2019   2566.76001     35.73000     62.96138      -999.25      -999.25      -999.25      -999.25     35.00000    298.68090      1.19065
 43828.6067129630 14:33:40/29-Dec-2019   2567.05005     35.34000     65.69361      -999.25      -999.25      -999.25      -999.25     35.00000    298.40510      1.18940
 43828.6068287037 14:33:50/29-Dec-2019   2566.67993     35.62000     64.45922    100.00000      -999.25      -999.25      -999.25     35.00000    298.95670      1.19182
 43828.6069444444 14:34:00/29-Dec-2019   2566.86011     35.62000     64.07202      -999.25    381.00000      0.00000      0.00000     35.00000    298.88770      1.19145
 43828.6070601852 14:34:10/29-Dec-2019   2567.05005     35.44000     64.65495      -999.25      -999.25      -999.25      -999.25     35.00000    298.74980      1.19074
 43828.6071759259 14:34:20/29-Dec-2019   2567.40991     35.26000     64.62553      -999.25      -999.25      -999.25      -999.25     35.00000    298.40510      1.18920
 43828.6072916667 14:34:30/29-Dec-2019   2567.46997     35.02000     63.72667      -999.25      -999.25      -999.25      -999.25     35.00000    299.09460      1.19204
 43828.6074074074 14:34:40/29-Dec-2019   2567.33984     35.24000     60.31780     97.00000      -999.25      -999.25      -999.25     35.00000    298.61190      1.19006
 43828.6075231481 14:34:50/29-Dec-2019   2567.68994     34.80000     55.32316      -999.25    132.00000      0.00000      0.00000     36.00000    298.74980      1.19061
 43828.6076388889 14:35:00/29-Dec-2019   2567.55005     34.93000     50.32853      -999.25      -999.25      -999.25      -999.25     36.00000    299.02560      1.19169
 43828.6077546296 14:35:10/29-Dec-2019   2567.43018     35.06000     46.91965      -999.25      -999.25      -999.25      -999.25     36.00000    298.40510      1.18915
 43828.6078703704 14:35:20/29-Dec-2019   2567.96997     34.61000     45.68519      -999.25      -999.25      -999.25      -999.25     36.00000    298.95670      1.19131
 43828.6079861111 14:35:30/29-Dec-2019   2567.75000     34.74000     45.32734      -999.25      -999.25      -999.25      -999.25     36.00000    298.68090      1.19019
 43828.6081018519 14:35:40/29-Dec-2019   2568.00024     34.49000     45.97304    106.00000      -999.25      -999.25      -999.25     36.00000    298.81880      1.19070
 43828.6082175926 14:35:50/29-Dec-2019   2567.65991     34.83000     46.49358      -999.25    381.00000      0.00000      0.00000     36.00000    298.88770      1.19109
 43828.6083333333 14:36:00/29-Dec-2019   2567.77979     34.71000     46.72372      -999.25      -999.25      -999.25      -999.25     36.00000    298.88770      1.19104
 43828.6084490741 14:36:10/29-Dec-2019   2568.10010     34.38000     45.66016      -999.25      -999.25      -999.25      -999.25     36.00000    298.40510      1.18900
 43828.6085648148 14:36:20/29-Dec-2019   2568.12988     34.26000     44.10819      -999.25      -999.25      -999.25      -999.25     36.00000    298.74980      1.19041
 43828.6086805556 14:36:30/29-Dec-2019   2567.95996     34.43000     42.58714     97.00000      -999.25      -999.25      -999.25     36.00000    298.68090      1.19003
 43828.6087962963 14:36:40/29-Dec-2019   2568.07007     34.41000     41.91207      -999.25    162.00000      0.00000      0.00000     36.00000    298.88770      1.19090
 43828.6089120370 14:36:50/29-Dec-2019   2568.37988     34.11000     42.58714      -999.25      -999.25      -999.25      -999.25     36.00000    298.54300      1.18938
 43828.6090277778 14:37:00/29-Dec-2019   2568.50000     34.08000     45.19781      -999.25      -999.25      -999.25      -999.25     36.00000    298.74980      1.19019
 43828.6091435185 14:37:10/29-Dec-2019   2568.43994     34.05000     49.91496      -999.25      -999.25      -999.25      -999.25     36.00000    298.68090      1.18991
 43828.6092592593 14:37:20/29-Dec-2019   2568.64014     33.93000     52.58550    105.00000      -999.25      -999.25      -999.25     36.00000    299.09460      1.19150
 43828.6093750000 14:37:30/29-Dec-2019   2568.59009     33.89000     50.39592      -999.25    201.00000      -999.25      -999.25     36.00000    298.95670      1.19085
 43828.6094907407 14:37:40/29-Dec-2019   2568.66992     33.91000     47.79317      -999.25      -999.25      0.00000      0.00000     36.00000    298.68090      1.18980
 43828.6096064815 14:37:50/29-Dec-2019   2569.05005     33.54000     45.60361      -999.25      -999.25      -999.25      -999.25     36.00000    299.02560      1.19112
 43828.6097222222 14:38:00/29-Dec-2019   2569.11011     33.37000     47.55455      -999.25      -999.25      -999.25      -999.25     36.00000    298.61190      1.18936
 43828.6098379630 14:38:10/29-Dec-2019   2569.23975     33.25000     52.21868      -999.25      -999.25      -999.25      -999.25     36.00000    298.54300      1.18893
 43828.6099537037 14:38:20/29-Dec-2019   2568.89014     33.51000     57.55086     96.00000      -999.25      -999.25      -999.25     36.00000    298.40510      1.18864
 43828.6100694444 14:38:30/29-Dec-2019   2569.28003     33.21000     65.04280      -999.25    381.00000      0.00000      0.00000     36.00000    298.95670      1.19061
 43828.6101851852 14:38:40/29-Dec-2019   2569.55005     32.94000     72.53476      -999.25      -999.25      -999.25      -999.25     36.00000    298.74980      1.18966
 43828.6103009259 14:38:50/29-Dec-2019   2569.27002     33.22000     74.54546      -999.25      -999.25      -999.25      -999.25     36.00000    298.61190      1.18929
 43828.6104166667 14:39:00/29-Dec-2019   2569.65991     32.83000     69.83033      -999.25      -999.25      -999.25      -999.25     36.00000    298.61190      1.18901
 43828.6105324074 14:39:10/29-Dec-2019   2569.65015     32.84000     65.20715     96.00000      -999.25      -999.25      -999.25     36.00000    298.74980      1.18979
 43828.6106481481 14:39:20/29-Dec-2019   2569.26001     33.23000     64.07133      -999.25    264.00000      -999.25      -999.25     36.00000    298.81880      1.19007
 43828.6107638889 14:39:30/29-Dec-2019   2569.83984     32.65000     64.07133      -999.25      -999.25      0.00000      0.00000     36.00000    298.68090      1.18925
 43828.6108796296 14:39:40/29-Dec-2019   2569.38013     33.11000     65.20715      -999.25      -999.25      -999.25      -999.25     36.00000    298.61190      1.18919
 43828.6109953704 14:39:50/29-Dec-2019   2569.66992     32.82000     66.15083      -999.25      -999.25      -999.25      -999.25     36.00000    298.81880      1.18983
