~VERSION INFORMATION 
VERS  .    2.0                                     :CWLS Log ASCII Standard - VERSION 2.0
WRAP  .    NO                                      :One Line per Time step
PROD  .    Schlumberger Technology Corp.           :LAS Producer
PROG  .    Horizon LASWriter 9.0.106845.3100       :LAS Program name and version
SOURCE.    Run 1-TimeLogicalAcq                    :Run&Pass Information
CREA  .    12/03/2019                              :LAS Creation date {MM/DD/YYYY}
#--------------------------------------------------
~WELL INFORMATION 
#MNEM           .UNIT                      DATA            :DESCRIPTION
#----            ------          --------------            -----------------------------
STRT            .d               43801.7395833334          :START TIME(OLE Automation date)
STOP            .d               43802.2048611111          :STOP TIME(OLE Automation date)
STEP            .d                            0            :STEP TIME(10s in time)
NULL            .                       -999.25            :NULL VALUE
COMP            .                       Equinor            :COMPANY
WELL            .                        31/5-7            :WELL NAME
FLD             .                           Eos            :FIELD NAME
RIGN            .                 West Hercules            :Rig Name
RIGTYP          .                Semi-Submersible          :Rig Type
SON             .                     19SCA0085            :Service Order Number
SRVC            .                  Schlumberger            :SERVICE COMPANY
DATE            .                    12/02/2019            :LOG DATE(Composite Date for Composite LAP) (MM/DD/YYYY)
CLAB            .                       County:            :County Label
CNTY            .                                          :COUNTY
SLAB            .                                          :State/Province Label
STAT            .                                          :STATE or PROVINCE
PROV            .                                          :STATE or PROVINCE
CTRY            .                        Norway            :COUNTRY
CONT_REGION     .                        Europe            :Continent Region
SECT            .                                          :Section
TOWN            .                                          :Township
RANG            .                                          :Range
API             .                                          :API NUMBER
UWI             .                                          :UNIQUE WELL ID
LUL             .                Service Office            :Logging Unit Location
LUN             .                          A615            :Logging Unit Number
LOC             .                Norwegian North Sea       :FIELD LOCATION
FL1             .                Section: 36 in.           :Field Location Line 1
FL2             .                Job no.: 19SCA0085        :Field Location Line 2
LATI            .deg             60° 34' 35.14" N          :LATITUDE
LONG            .deg             3° 26' 36.13" E           :LONGITUDE
PDAT            .                           MSL            :Local Permanent Datum
LMF             .                            DF            :Logging Measured From
APD             .m                        31.00            :Elevation of Depth Reference (LMF) Above Permanent Datum
EPD             .m                         0.00            :Elevation of Permanent Datum (PDAT) above Mean Sea Level
EKB             .m                      -999.25            :Elevation of Kelly Bushing Above Permanent Datum
EDF             .m                        31.00            :Elevation of Drill Floor Above Permanent Datum
EGL             .m                      -307.00            :Elevation of Ground Level Above Permanent Datum
ECF             .m                      -999.25            :Elevation of Casing Flange above Permanent Datum
#--------------------------------------------------
~CURVE INFORMATION
#MNEM           .UNIT                  API CODE            :DESCRIPTION
#----            ------          --------------            -----------------------------
TIME_1900       .d                                         :                                                        Time Index(OLE Automation date)
TIME            .s                                         :                                (10s)                   Time(hh mm ss/dd-MMM-yyyy)
DEPTH           .m                                         :(RT)    (DnMWorkflow)                                   Depth Index
GR              .gAPI                                      :(RT)    (TELE900)                                       Gamma Ray
BLKP            .m                                         :(RT)    (DRILLING_SURFACE)                              Height of block above rig floor
CRPM            .c/min                                     :(RT)    (TELE900)                                       Collar Rotational Speed
STICK           .c/min                                     :(RT)    (TELE900)                                       Stick Slip Indicator
SHKPK           .gn                                        :(RT)    (TELE900)                                       Shock Peak
SHKRSK          .                                          :(RT)    (TELE900)                                       Shock Risk
TEMP_DNI        .degC                                      :(RM)    (TELE900)                                       Direction and Inclination Sensor Temperature
#-------------------------------------------------------------
#       TIME_1900                 TIME        DEPTH           GR         BLKP         CRPM        STICK        SHKPK       SHKRSK     TEMP_DNI 
#                                       (DnMWorkfl)    (TELE900)  (DRILLING_)    (TELE900)    (TELE900)    (TELE900)    (TELE900)    (TELE900) 
#                                              (RT)         (RT)         (RT)         (RT)         (RT)         (RT)         (RT)         (RM) 
#                                (10s)                                                                                                         
~ASCII
# ...
 43802.0506944444 01:13:00/03-Dec-2019     400.4100      51.1463      40.4600      -999.25      -999.25      -999.25      -999.25      -999.25
 43802.0508101852 01:13:10/03-Dec-2019     400.3600      52.9900      40.5100      73.0000      -999.25      -999.25      -999.25      -999.25
 43802.0509259259 01:13:20/03-Dec-2019     400.1300      47.0037      40.7400      -999.25      42.0000       0.0000       0.0000      -999.25
 43802.0510416667 01:13:30/03-Dec-2019     400.5400      48.4691      40.3300      -999.25      -999.25      -999.25      -999.25      -999.25
 43802.0511574074 01:13:40/03-Dec-2019     400.3100      49.1829      40.5600      -999.25      -999.25      -999.25      -999.25      -999.25
 43802.0512731481 01:13:50/03-Dec-2019     399.9800      43.1966      40.8900      -999.25      -999.25      -999.25      -999.25      -999.25
 43802.0513888889 01:14:00/03-Dec-2019     400.4800      45.0402      40.3000      70.0000      -999.25       0.0000       0.0000      14.9023
 43802.0515046296 01:14:10/03-Dec-2019     400.8800      48.4691      39.9900      -999.25      33.0000      -999.25      -999.25      -999.25
 43802.0516203704 01:14:20/03-Dec-2019     400.2900      47.7174      40.7700      -999.25      -999.25      -999.25      -999.25      -999.25
 43802.0517361111 01:14:30/03-Dec-2019     400.1500      51.1463      40.6300      -999.25      -999.25      -999.25      -999.25      -999.25
 43802.0518518519 01:14:40/03-Dec-2019     400.5500      51.1463      40.2300      69.0000      -999.25       0.0000       0.0000      -999.25
 43802.0519675926 01:14:50/03-Dec-2019     400.6800      47.0037      40.1900      -999.25      36.0000      -999.25      -999.25      -999.25
 43802.0520833333 01:15:00/03-Dec-2019     400.5400      45.4771      40.3300      -999.25      -999.25      -999.25      -999.25      -999.25
 43802.0521990741 01:15:10/03-Dec-2019     400.7600      44.7116      40.1100      -999.25      -999.25      -999.25      -999.25      -999.25
 43802.0523148148 01:15:20/03-Dec-2019     400.6100      38.7253      40.3500      -999.25      -999.25      -999.25      -999.25      -999.25
 43802.0524305556 01:15:30/03-Dec-2019     400.3300      44.7116      40.5400      71.0000      -999.25       0.0000       0.0000      -999.25
 43802.0525462963 01:15:40/03-Dec-2019     400.7900      41.3255      40.0800      -999.25      42.0000      -999.25      -999.25      -999.25
 43802.0526620370 01:15:50/03-Dec-2019     401.1500      34.2442      39.8100      -999.25      -999.25      -999.25      -999.25      -999.25
 43802.0527777778 01:16:00/03-Dec-2019     400.7000      38.3869      40.2600      -999.25      -999.25      -999.25      -999.25      14.9023
 43802.0528935185 01:16:10/03-Dec-2019     400.6100      38.3869      40.2600      73.0000      -999.25       0.0000       0.0000      -999.25
 43802.0530092593 01:16:20/03-Dec-2019     401.1100      34.9580      39.7600      -999.25      45.0000      -999.25      -999.25      -999.25
 43802.0531250000 01:16:30/03-Dec-2019     400.8000      35.7097      40.1700      -999.25      -999.25      -999.25      -999.25      -999.25
 43802.0532407407 01:16:40/03-Dec-2019     400.9300      32.2808      39.9400      -999.25      -999.25      -999.25      -999.25      -999.25
 43802.0533564815 01:16:50/03-Dec-2019     401.0700      30.4371      39.8000      71.0000      -999.25      -999.25      -999.25      -999.25
 43802.0534722222 01:17:00/03-Dec-2019     400.8400      36.4235      40.0200      -999.25      42.0000       0.0000       0.0000      -999.25
 43802.0535879630 01:17:10/03-Dec-2019     400.9800      39.7456      39.9800      -999.25      -999.25      -999.25      -999.25      -999.25
 43802.0537037037 01:17:20/03-Dec-2019     401.1200      42.5324      39.7500      -999.25      -999.25      -999.25      -999.25      -999.25
 43802.0538194444 01:17:30/03-Dec-2019     401.1700      48.5187      39.7000      -999.25      -999.25      -999.25      -999.25      -999.25
 43802.0539351852 01:17:40/03-Dec-2019     401.4900      46.6751      39.3800      71.0000      -999.25       0.0000       0.0000      -999.25
 43802.0540509259 01:17:50/03-Dec-2019     401.0800      38.9010      39.7900      -999.25      33.0000      -999.25      -999.25      -999.25
 43802.0541666667 01:18:00/03-Dec-2019     401.1300      37.4808      39.7400      -999.25      -999.25      -999.25      -999.25      14.9023
 43802.0542824074 01:18:10/03-Dec-2019     401.1800      42.4219      39.6900      -999.25      -999.25      -999.25      -999.25      -999.25
 43802.0543981481 01:18:20/03-Dec-2019     401.1300      42.4219      39.7300      75.0000      -999.25       0.0000       0.0000      -999.25
 43802.0545138889 01:18:30/03-Dec-2019     401.2700      38.2793      39.7800      -999.25      36.0000      -999.25      -999.25      -999.25
 43802.0546296296 01:18:40/03-Dec-2019     401.5000      39.7447      39.3700      -999.25      -999.25      -999.25      -999.25      -999.25
 43802.0547453704 01:18:50/03-Dec-2019     401.3700      40.4585      39.5000      -999.25      -999.25      -999.25      -999.25      -999.25
 43802.0548611111 01:19:00/03-Dec-2019     401.0500      34.4722      39.8200      -999.25      -999.25      -999.25      -999.25      -999.25
 43802.0549768518 01:19:10/03-Dec-2019     401.2800      40.4585      39.5900      73.0000      -999.25       0.0000       0.0000      -999.25
 43802.0550925926 01:19:20/03-Dec-2019     401.3300      41.1515      39.5400      -999.25      36.0000      -999.25      -999.25      -999.25
 43802.0552083333 01:19:30/03-Dec-2019     401.4700      42.5324      39.5800      -999.25      -999.25      -999.25      -999.25      -999.25
 43802.0553240741 01:19:40/03-Dec-2019     401.7000      46.6751      39.2600      -999.25      -999.25      -999.25      -999.25      -999.25
 43802.0554398148 01:19:50/03-Dec-2019     401.6500      46.6751      39.2200      72.0000      -999.25       0.0000       0.0000      -999.25
 43802.0555555556 01:20:00/03-Dec-2019     401.0600      44.7026      39.8100      -999.25      45.0000      -999.25      -999.25      14.9023
 43802.0556712963 01:20:10/03-Dec-2019     401.2900      47.0127      39.5800      -999.25      -999.25      -999.25      -999.25      -999.25
 43802.0557870370 01:20:20/03-Dec-2019     402.2500      45.0402      38.7100      -999.25      -999.25      -999.25      -999.25      -999.25
 43802.0559027778 01:20:30/03-Dec-2019     401.5700      43.1966      39.2100      69.0000      -999.25      -999.25      -999.25      -999.25
 43802.0560185185 01:20:40/03-Dec-2019     401.2500      49.1829      39.6200      -999.25      45.0000       0.0000       0.0000      -999.25
 43802.0561342593 01:20:50/03-Dec-2019     401.6600      45.6597      39.2000      -999.25      -999.25      -999.25      -999.25      -999.25
 43802.0562500000 01:21:00/03-Dec-2019     401.7000      38.2793      39.1700      -999.25      -999.25      -999.25      -999.25      -999.25
 43802.0563657407 01:21:10/03-Dec-2019     401.9700      44.2656      38.9900      -999.25      -999.25      -999.25      -999.25      -999.25
 43802.0564814815 01:21:20/03-Dec-2019     401.7000      42.4219      39.0800      74.0000      -999.25       0.0000       0.0000      -999.25
 43802.0565972222 01:21:30/03-Dec-2019     401.7100      37.6588      39.2700      -999.25      45.0000      -999.25      -999.25      -999.25
 43802.0567129630 01:21:40/03-Dec-2019     401.0700      37.0440      39.9100      -999.25      -999.25      -999.25      -999.25      -999.25
 43802.0568287037 01:21:50/03-Dec-2019     400.7500      32.2808      40.1200      -999.25      -999.25      -999.25      -999.25      -999.25
 43802.0569444444 01:22:00/03-Dec-2019     400.7500      30.4371      40.1200       0.0000      -999.25      -999.25      -999.25      14.9023
 43802.0570601852 01:22:10/03-Dec-2019     400.7500      36.4235      40.1200      -999.25      45.0000      -999.25      -999.25      -999.25
