~VERSION INFORMATION 
VERS  .    2.0                                     :CWLS Log ASCII Standard - VERSION 2.0
WRAP  .    NO                                      :One Line per Time step
PROD  .    Schlumberger Technology Corp.           :LAS Producer
PROG  .    Horizon LASWriter 9.2.113335.3100       :LAS Program name and version
SOURCE.    Run 10-TimeLogicalAcq                   :Run&Pass Information
CREA  .    01/21/2020                              :LAS Creation date {MM/DD/YYYY}
#--------------------------------------------------
~WELL INFORMATION 
#MNEM           .UNIT                      DATA            :DESCRIPTION
#----            ------          --------------            -----------------------------
STRT            .d               43830.7500000000          :START TIME(OLE Automation date)
STOP            .d               43831.2291666667          :STOP TIME(OLE Automation date)
STEP            .d                            0            :STEP TIME(10s in time)
NULL            .                       -999.25            :NULL VALUE
COMP            .                       Equinor            :COMPANY
WELL            .                        31/5-7            :WELL NAME
FLD             .                           Eos            :FIELD NAME
RIGN            .                 West Hercules            :Rig Name
RIGTYP          .                Semi-Submersible          :Rig Type
SON             .                     19SCA0085            :Service Order Number
SRVC            .                  Schlumberger            :SERVICE COMPANY
DATE            .                    12/31/2019            :LOG DATE(Composite Date for Composite LAP) (MM/DD/YYYY)
CLAB            .                       County:            :County Label
CNTY            .                                          :COUNTY
SLAB            .                                          :State/Province Label
STAT            .                                          :STATE or PROVINCE
PROV            .                                          :STATE or PROVINCE
CTRY            .                        Norway            :COUNTRY
CONT_REGION     .                        Europe            :Continent Region
SECT            .                                          :Section
TOWN            .                                          :Township
RANG            .                                          :Range
API             .                                          :API NUMBER
UWI             .                                          :UNIQUE WELL ID
LUL             .                Service Office            :Logging Unit Location
LUN             .                          A615            :Logging Unit Number
LOC             .                Norwegian North Sea       :FIELD LOCATION
FL1             .                Section: 8 1/2 in.        :Field Location Line 1
FL2             .                Job no.: 19SCA0085        :Field Location Line 2
LATI            .deg             60° 34' 35.14" N          :LATITUDE
LONG            .deg             3° 26' 36.13" E           :LONGITUDE
PDAT            .                           MSL            :Local Permanent Datum
LMF             .                            DF            :Logging Measured From
APD             .m                        31.00            :Elevation of Depth Reference (LMF) Above Permanent Datum
EPD             .m                         0.00            :Elevation of Permanent Datum (PDAT) above Mean Sea Level
EKB             .m                      -999.25            :Elevation of Kelly Bushing Above Permanent Datum
EDF             .m                        31.00            :Elevation of Drill Floor Above Permanent Datum
EGL             .m                      -307.00            :Elevation of Ground Level Above Permanent Datum
ECF             .m                      -999.25            :Elevation of Casing Flange above Permanent Datum
#--------------------------------------------------
~CURVE INFORMATION
#MNEM           .UNIT                  API CODE            :DESCRIPTION
#----            ------          --------------            -----------------------------
TIME_1900       .d                                         :                                                        Time Index(OLE Automation date)
TIME            .s                                         :                                (10s)                   Time(hh mm ss/dd-MMM-yyyy)
DEPTH           .m                                         :(RT)    (DnMWorkflow)                                   Depth Index
BLKP            .m                                         :(RT)    (DRILLING_SURFACE)                              Height of block above rig floor
GR              .gAPI                                      :(RT)    (ARC6)                                          Gamma Ray
CRPM            .c/min                                     :(RT)    (TELE675)                                       Collar Rotational Speed
STICK           .c/min                                     :(RT)    (TELE675)                                       Stick Slip Indicator
SHKRSK          .                                          :(RT)    (TELE675)                                       Shock Risk
SHKPK           .gn                                        :(RT)    (TELE675)                                       Shock Peak
DHAT            .degC                                      :(RM)    (ARC6)                                          Downhole Annulus Temperature
DHAP            .bar                                       :(RM)    (ARC6)                                          Downhole Annulus Pressure
ECD             .g/cm3                                     :(RM)    (ARC6)                                          Equivalent Circulating Density
#-------------------------------------------------------------
#       TIME_1900                 TIME        DEPTH         BLKP           GR         CRPM        STICK       SHKRSK        SHKPK         DHAT         DHAP          ECD 
#                                       (DnMWorkfl)  (DRILLING_)       (ARC6)    (TELE675)    (TELE675)    (TELE675)    (TELE675)       (ARC6)       (ARC6)       (ARC6) 
#                                              (RT)         (RT)         (RT)         (RT)         (RT)         (RT)         (RT)         (RM)         (RM)         (RM) 
#                                (10s)                                                                                                                                   
~ASCII
# ...
 43830.9833333333 23:36:00/31-Dec-2019   2636.13013     11.69000      -999.25      -999.25      -999.25      -999.25      -999.25     43.00000    299.92190      1.16408
 43830.9834490741 23:36:10/31-Dec-2019   2636.13013     27.87000      -999.25      -999.25      -999.25      -999.25      -999.25     43.00000    301.02510      1.16836
 43830.9835648148 23:36:20/31-Dec-2019   2636.13013     42.03000      -999.25      -999.25      -999.25      -999.25      -999.25     43.00000    297.99140      1.15658
 43830.9836805556 23:36:30/31-Dec-2019   2636.13013     43.72000      -999.25      -999.25      -999.25      -999.25      -999.25     43.00000    301.16300      1.16889
 43830.9837962963 23:36:40/31-Dec-2019   2636.13013     43.72000      -999.25      -999.25      -999.25      -999.25      -999.25     43.00000    306.60990      1.19003
 43830.9839120370 23:36:50/31-Dec-2019   2636.13013     43.72000      -999.25      -999.25      -999.25      -999.25      -999.25     43.00000    303.85200      1.17933
 43830.9840277778 23:37:00/31-Dec-2019   2636.13013     43.72000      -999.25      -999.25      -999.25      -999.25      -999.25     43.00000    300.61140      1.16675
 43830.9841435185 23:37:10/31-Dec-2019   2636.13013     43.60000      -999.25      -999.25      -999.25      -999.25      -999.25     43.00000    303.78300      1.17906
 43830.9842592593 23:37:20/31-Dec-2019   2636.13013     43.52000      -999.25      -999.25      -999.25      -999.25      -999.25     43.00000    306.12720      1.18816
 43830.9843750000 23:37:30/31-Dec-2019   2636.13013     43.49000      -999.25      -999.25      -999.25      -999.25      -999.25     43.00000    301.57670      1.17050
 43830.9844907407 23:37:40/31-Dec-2019   2636.13013     43.49000      -999.25      -999.25      -999.25      -999.25      -999.25     43.00000    301.57670      1.17050
 43830.9846064815 23:37:50/31-Dec-2019   2636.13013     43.49000      -999.25      -999.25      -999.25      -999.25      -999.25     43.00000    302.95560      1.17585
 43830.9847222222 23:38:00/31-Dec-2019   2636.13013     43.49000      -999.25      -999.25      -999.25      -999.25      -999.25     43.00000    301.85250      1.17157
 43830.9848379630 23:38:10/31-Dec-2019   2635.56982     43.75000      -999.25      -999.25      -999.25      -999.25      -999.25     43.00000    304.74830      1.18306
 43830.9849537037 23:38:20/31-Dec-2019   2635.09009     44.23000      -999.25      -999.25      -999.25      -999.25      -999.25     43.00000    301.71460      1.17148
 43830.9850694444 23:38:30/31-Dec-2019   2635.09009     44.23000      -999.25      -999.25      -999.25      -999.25      -999.25     43.00000    302.54200      1.17471
 43830.9851851852 23:38:40/31-Dec-2019   2635.67993     43.64000    118.37400      -999.25      -999.25      -999.25      -999.25     43.00000    305.09300      1.18435
 43830.9853009259 23:38:50/31-Dec-2019   2636.70996     42.61000    117.08680      -999.25      -999.25      -999.25      -999.25     43.00000    310.33300      1.20412
 43830.9854166667 23:39:00/31-Dec-2019   2637.10986     42.21000    117.12010      -999.25      -999.25      -999.25      -999.25     43.00000    310.05720      1.20297
 43830.9855324074 23:39:10/31-Dec-2019   2637.32007     42.00000    117.16390      -999.25      -999.25      -999.25      -999.25     43.00000    310.12620      1.20314
 43830.9856481481 23:39:20/31-Dec-2019   2637.57983     41.74000    117.20760      -999.25      -999.25      -999.25      -999.25     43.00000    312.26360      1.21142
 43830.9857638889 23:39:30/31-Dec-2019   2638.90991     40.91000    117.23960      -999.25      -999.25      -999.25      -999.25     43.00000    315.64200      1.22384
 43830.9858796296 23:39:40/31-Dec-2019   2638.98999     40.83000    117.24830      -999.25      -999.25      -999.25      -999.25     43.00000    311.50510      1.20771
 43830.9859953704 23:39:50/31-Dec-2019   2638.96997     40.85000    117.22390      -999.25      -999.25      -999.25      -999.25     43.00000    312.67720      1.21226
 43830.9861111111 23:40:00/31-Dec-2019   2639.17993     40.65000    117.16030      -999.25      -999.25      -999.25      -999.25     43.00000    312.67720      1.21218
 43830.9862268518 23:40:10/31-Dec-2019   2639.12012     40.79000    117.05580      -999.25      -999.25      -999.25      -999.25     43.00000    313.29780      1.21469
 43830.9863425926 23:40:20/31-Dec-2019   2638.93018     40.89000    116.91370      -999.25      -999.25      -999.25      -999.25     43.00000    313.43570      1.21523
 43830.9864583333 23:40:30/31-Dec-2019   2639.17993     40.59999    116.74230      -999.25      -999.25      -999.25      -999.25     43.00000    313.64250      1.21589
 43830.9865740741 23:40:40/31-Dec-2019   2639.47998     40.37000    116.55410      -999.25      -999.25      -999.25      -999.25     43.00000    313.84940      1.21656
 43830.9866898148 23:40:50/31-Dec-2019   2639.60010     40.22000    116.36470      -999.25      -999.25      -999.25      -999.25     43.00000    314.05620      1.21733
 43830.9868055556 23:41:00/31-Dec-2019   2639.60010     40.22000    116.19060      -999.25      -999.25      -999.25      -999.25     43.00000    314.46990      1.21893
 43830.9869212963 23:41:10/31-Dec-2019   2639.69995     40.12000    116.04780      -999.25      -999.25      0.00000      0.00000     43.00000    313.64250      1.21568
 43830.9870370370 23:41:20/31-Dec-2019   2639.92017     39.91000    115.94980      -999.25      -999.25      -999.25      -999.25     43.00000    313.43570      1.21479
 43830.9871527778 23:41:30/31-Dec-2019   2640.03003     39.80000    114.02090      -999.25      -999.25      -999.25      -999.25     43.00000    314.74570      1.21980
 43830.9872685185 23:41:40/31-Dec-2019   2639.97998     39.86000    111.25610      -999.25      -999.25      -999.25      -999.25     43.00000    314.74570      1.21980
 43830.9873842593 23:41:50/31-Dec-2019   2640.30005     39.52000    109.56720    180.00000      -999.25      -999.25      -999.25     43.00000    313.91830      1.21647
 43830.9875000000 23:42:00/31-Dec-2019   2640.36011     39.47000    111.01540      -999.25    321.00000      0.00000      0.00000     43.00000    314.81460      1.21992
 43830.9876157407 23:42:10/31-Dec-2019   2640.41016     39.41000    115.87230      -999.25      -999.25      -999.25      -999.25     43.00000    314.60780      1.21909
 43830.9877314815 23:42:20/31-Dec-2019   2640.59985     39.22000    120.82310      -999.25      -999.25      -999.25      -999.25     43.00000    314.40090      1.21816
 43830.9878472222 23:42:30/31-Dec-2019   2640.61011     39.21000    123.93930      -999.25      -999.25      -999.25      -999.25     43.00000    314.12510      1.21713
 43830.9879629630 23:42:40/31-Dec-2019   2640.56982     39.34000    124.83730    169.00000      -999.25      -999.25      -999.25     43.00000    314.53880      1.21879
 43830.9880787037 23:42:50/31-Dec-2019   2640.83008     38.99000    123.45530      -999.25    333.00000      -999.25      -999.25     43.00000    314.46990      1.21837
 43830.9881944444 23:43:00/31-Dec-2019   2640.89990     38.83000    121.81250      -999.25      -999.25      0.00000      0.00000     43.00000    314.33200      1.21779
 43830.9883101852 23:43:10/31-Dec-2019   2641.23022     38.59000    120.43050      -999.25      -999.25      -999.25      -999.25     43.00000    314.26300      1.21737
 43830.9884259259 23:43:20/31-Dec-2019   2641.05005     38.77000    121.87050      -999.25      -999.25      -999.25      -999.25     43.00000    313.98720      1.21644
 43830.9885416667 23:43:30/31-Dec-2019   2640.97998     38.84000    124.35830      -999.25      -999.25      -999.25      -999.25     43.00000    314.60780      1.21883
 43830.9886574074 23:43:40/31-Dec-2019   2640.75000     39.07000    125.90110    199.00000      -999.25      -999.25      -999.25     43.00000    314.05620      1.21682
 43830.9887731481 23:43:50/31-Dec-2019   2640.34009     39.48000    126.32720      -999.25    348.00000      0.00000      0.00000     43.00000    313.78040      1.21592
