~VERSION INFORMATION 
VERS  .    2.0                                     :CWLS Log ASCII Standard - VERSION 2.0
WRAP  .    NO                                      :One Line per Time step
PROD  .    Schlumberger Technology Corp.           :LAS Producer
PROG  .    Horizon LASWriter 9.2.113335.3100       :LAS Program name and version
SOURCE.    Run 10-TimeLogicalAcq                   :Run&Pass Information
CREA  .    01/21/2020                              :LAS Creation date {MM/DD/YYYY}
#--------------------------------------------------
~WELL INFORMATION 
#MNEM           .UNIT                      DATA            :DESCRIPTION
#----            ------          --------------            -----------------------------
STRT            .d               43830.7500000000          :START TIME(OLE Automation date)
STOP            .d               43831.2291666667          :STOP TIME(OLE Automation date)
STEP            .d                            0            :STEP TIME(10s in time)
NULL            .                       -999.25            :NULL VALUE
COMP            .                       Equinor            :COMPANY
WELL            .                        31/5-7            :WELL NAME
FLD             .                           Eos            :FIELD NAME
RIGN            .                 West Hercules            :Rig Name
RIGTYP          .                Semi-Submersible          :Rig Type
SON             .                     19SCA0085            :Service Order Number
SRVC            .                  Schlumberger            :SERVICE COMPANY
DATE            .                    12/31/2019            :LOG DATE(Composite Date for Composite LAP) (MM/DD/YYYY)
CLAB            .                       County:            :County Label
CNTY            .                                          :COUNTY
SLAB            .                                          :State/Province Label
STAT            .                                          :STATE or PROVINCE
PROV            .                                          :STATE or PROVINCE
CTRY            .                        Norway            :COUNTRY
CONT_REGION     .                        Europe            :Continent Region
SECT            .                                          :Section
TOWN            .                                          :Township
RANG            .                                          :Range
API             .                                          :API NUMBER
UWI             .                                          :UNIQUE WELL ID
LUL             .                Service Office            :Logging Unit Location
LUN             .                          A615            :Logging Unit Number
LOC             .                Norwegian North Sea       :FIELD LOCATION
FL1             .                Section: 8 1/2 in.        :Field Location Line 1
FL2             .                Job no.: 19SCA0085        :Field Location Line 2
LATI            .deg             60° 34' 35.14" N          :LATITUDE
LONG            .deg             3° 26' 36.13" E           :LONGITUDE
PDAT            .                           MSL            :Local Permanent Datum
LMF             .                            DF            :Logging Measured From
APD             .m                        31.00            :Elevation of Depth Reference (LMF) Above Permanent Datum
EPD             .m                         0.00            :Elevation of Permanent Datum (PDAT) above Mean Sea Level
EKB             .m                      -999.25            :Elevation of Kelly Bushing Above Permanent Datum
EDF             .m                        31.00            :Elevation of Drill Floor Above Permanent Datum
EGL             .m                      -307.00            :Elevation of Ground Level Above Permanent Datum
ECF             .m                      -999.25            :Elevation of Casing Flange above Permanent Datum
#--------------------------------------------------
~CURVE INFORMATION
#MNEM           .UNIT                  API CODE            :DESCRIPTION
#----            ------          --------------            -----------------------------
TIME_1900       .d                                         :                                                        Time Index(OLE Automation date)
TIME            .s                                         :                                (10s)                   Time(hh mm ss/dd-MMM-yyyy)
DEPTH           .m                                         :(RT)    (DnMWorkflow)                                   Depth Index
BLKP            .m                                         :(RT)    (DRILLING_SURFACE)                              Height of block above rig floor
GR              .gAPI                                      :(RT)    (ARC6)                                          Gamma Ray
CRPM            .c/min                                     :(RT)    (TELE675)                                       Collar Rotational Speed
STICK           .c/min                                     :(RT)    (TELE675)                                       Stick Slip Indicator
SHKRSK          .                                          :(RT)    (TELE675)                                       Shock Risk
SHKPK           .gn                                        :(RT)    (TELE675)                                       Shock Peak
DHAT            .degC                                      :(RM)    (ARC6)                                          Downhole Annulus Temperature
DHAP            .bar                                       :(RM)    (ARC6)                                          Downhole Annulus Pressure
ECD             .g/cm3                                     :(RM)    (ARC6)                                          Equivalent Circulating Density
#-------------------------------------------------------------
#       TIME_1900                 TIME        DEPTH         BLKP           GR         CRPM        STICK       SHKRSK        SHKPK         DHAT         DHAP          ECD 
#                                       (DnMWorkfl)  (DRILLING_)       (ARC6)    (TELE675)    (TELE675)    (TELE675)    (TELE675)       (ARC6)       (ARC6)       (ARC6) 
#                                              (RT)         (RT)         (RT)         (RT)         (RT)         (RT)         (RT)         (RM)         (RM)         (RM) 
#                                (10s)                                                                                                                                   
~ASCII
# ...
 43831.0722222222 01:44:00/01-Jan-2020   2614.14990     26.09000    125.96340      -999.25      -999.25      0.00000      0.00000     38.00000    305.43780      1.19548
 43831.0723379630 01:44:10/01-Jan-2020   2614.26001     25.98000    130.15970      -999.25      -999.25      -999.25      -999.25     38.00000    304.61040      1.19220
 43831.0724537037 01:44:20/01-Jan-2020   2614.38013     25.85000    131.52750      -999.25      -999.25      -999.25      -999.25     38.00000    306.19620      1.19835
 43831.0725694444 01:44:30/01-Jan-2020   2614.50000     25.74000    131.72590      -999.25      -999.25      -999.25      -999.25     38.00000    304.88620      1.19317
 43831.0726851852 01:44:40/01-Jan-2020   2614.63013     25.61000    131.00900    100.00000      -999.25      -999.25      -999.25     38.00000    305.23090      1.19445
 43831.0728009259 01:44:50/01-Jan-2020   2614.73999     25.50000    131.00900      -999.25      6.00000      0.00000      0.00000     38.00000    306.74780      1.20034
 43831.0729166667 01:45:00/01-Jan-2020   2614.86011     25.38000    131.72590      -999.25      -999.25      -999.25      -999.25     38.00000    306.54090      1.19948
 43831.0730324074 01:45:10/01-Jan-2020   2614.98022     25.26000    131.78040      -999.25      -999.25      -999.25      -999.25     38.00000    307.16140      1.20185
 43831.0731481481 01:45:20/01-Jan-2020   2615.10010     25.14000    131.75530      -999.25      -999.25      -999.25      -999.25     38.00000    305.92040      1.19695
 43831.0732638889 01:45:30/01-Jan-2020   2615.21997     25.02000    131.99160    100.00000      -999.25      -999.25      -999.25     38.00000    306.26510      1.19823
 43831.0733796296 01:45:40/01-Jan-2020   2615.34009     24.90000    132.20530      -999.25      6.00000      0.00000      0.00000     38.00000    304.74830      1.19224
 43831.0734953704 01:45:50/01-Jan-2020   2615.45996     24.78000    131.73730      -999.25      -999.25      -999.25      -999.25     38.00000    305.16200      1.19381
 43831.0736111111 01:46:00/01-Jan-2020   2615.57983     24.66000    130.72400      -999.25      -999.25      -999.25      -999.25     38.00000    307.91990      1.20454
 43831.0737268519 01:46:10/01-Jan-2020   2615.68994     24.55000    130.08090      -999.25      -999.25      -999.25      -999.25     38.00000    308.26460      1.20584
 43831.0738425926 01:46:20/01-Jan-2020   2615.82007     24.42000    130.61780      -999.25      -999.25      -999.25      -999.25     38.00000    308.47140      1.20658
 43831.0739583333 01:46:30/01-Jan-2020   2615.92993     24.30000    130.82500    100.00000      -999.25      -999.25      -999.25     38.00000    308.40250      1.20626
 43831.0740740741 01:46:40/01-Jan-2020   2616.04980     24.18000    124.25370      -999.25      9.00000      0.00000      0.00000     38.00000    305.43780      1.19462
 43831.0741898148 01:46:50/01-Jan-2020   2616.17017     24.06000    112.99030      -999.25      -999.25      -999.25      -999.25     38.00000    304.19670      1.18971
 43831.0743055556 01:47:00/01-Jan-2020   2616.29004     23.94000    105.12360      -999.25      -999.25      -999.25      -999.25     38.00000    304.26560      1.18992
 43831.0744212963 01:47:10/01-Jan-2020   2616.41016     23.83000     95.30675      -999.25      -999.25      -999.25      -999.25     38.00000    304.88620      1.19229
 43831.0745370370 01:47:20/01-Jan-2020   2616.53003     23.70000     98.11867    100.00000      -999.25      -999.25      -999.25     38.00000    304.67930      1.19142
 43831.0746527778 01:47:30/01-Jan-2020   2616.64990     23.59000    102.97560      -999.25      6.00000      0.00000      0.00000     38.00000    305.16200      1.19327
 43831.0747685185 01:47:40/01-Jan-2020   2616.77002     23.46000    104.42370      -999.25      -999.25      -999.25      -999.25     38.00000    306.26510      1.19752
 43831.0748842593 01:47:50/01-Jan-2020   2616.88013     23.35000    102.37920      -999.25      -999.25      -999.25      -999.25     38.00000    308.05780      1.20448
 43831.0750000000 01:48:00/01-Jan-2020   2617.01001     23.22000     95.53297      -999.25      -999.25      -999.25      -999.25     38.00000    307.57510      1.20253
 43831.0751157407 01:48:10/01-Jan-2020   2617.11987     23.12000     92.22171      -999.25      -999.25      -999.25      -999.25     38.00000    306.47200      1.19816
 43831.0752314815 01:48:20/01-Jan-2020   2617.23999     23.00000     91.50480    100.00000      -999.25      -999.25      -999.25     38.00000    304.19670      1.18922
 43831.0753472222 01:48:30/01-Jan-2020   2617.35986     22.88000     91.50480      -999.25      9.00000      0.00000      0.00000     38.00000    305.43780      1.19402
 43831.0754629630 01:48:40/01-Jan-2020   2617.48022     22.76000     92.22171      -999.25      -999.25      -999.25      -999.25     38.00000    304.88620      1.19181
 43831.0755787037 01:48:50/01-Jan-2020   2617.60010     22.64000     95.27492      -999.25      -999.25      -999.25      -999.25     38.00000    304.88620      1.19174
 43831.0756944444 01:49:00/01-Jan-2020   2617.71997     22.52000     99.45473      -999.25      -999.25      -999.25      -999.25     38.00000    304.88620      1.19169
 43831.0758101852 01:49:10/01-Jan-2020   2617.84009     22.40000    100.20680    100.00000      -999.25      -999.25      -999.25     38.00000    306.81670      1.19919
 43831.0759259259 01:49:20/01-Jan-2020   2617.95996     22.28000     99.65435      -999.25      9.00000      0.00000      0.00000     38.00000    306.60990      1.19832
 43831.0760416667 01:49:30/01-Jan-2020   2618.07983     22.15000     99.57626      -999.25      -999.25      -999.25      -999.25     38.00000    305.85140      1.19531
 43831.0761574074 01:49:40/01-Jan-2020   2618.15991     22.08000    101.01650      -999.25      -999.25      -999.25      -999.25     38.00000    305.85140      1.19526
 43831.0762731481 01:49:50/01-Jan-2020   2618.15991     22.08000    105.46640      -999.25      -999.25      -999.25      -999.25     38.00000    305.29980      1.19311
 43831.0763888889 01:50:00/01-Jan-2020   2618.15991     22.08000    107.71670      -999.25      -999.25      -999.25      -999.25     38.00000    305.29980      1.19311
 43831.0765046296 01:50:10/01-Jan-2020   2618.26001     22.03000    106.33470    100.00000     12.00000      -999.25      -999.25     38.00000    305.71350      1.19472
 43831.0766203704 01:50:20/01-Jan-2020   2619.08008     21.18000    104.69190      -999.25      -999.25      0.00000      0.00000     38.00000    305.85140      1.19487
 43831.0767361111 01:50:30/01-Jan-2020   2620.01001     20.28000    103.30980      -999.25      -999.25      -999.25      -999.25     38.00000    306.12720      1.19546
 43831.0768518519 01:50:40/01-Jan-2020   2620.92017     19.34000    104.08980      -999.25      -999.25      -999.25      -999.25     38.00000    305.98930      1.19449
 43831.0769675926 01:50:50/01-Jan-2020   2621.96021     18.35000    106.73960      -999.25      -999.25      -999.25      -999.25     38.00000    307.91990      1.20164
 43831.0770833333 01:51:00/01-Jan-2020   2622.85986     17.40000    110.72820    100.00000      -999.25      -999.25      -999.25     38.00000    308.74720      1.20444
 43831.0771990741 01:51:10/01-Jan-2020   2623.84985     16.45000    114.00890      -999.25      9.00000      0.00000      0.00000     38.00000    307.16140      1.19781
 43831.0773148148 01:51:20/01-Jan-2020   2624.93994     15.33000    113.88080      -999.25      -999.25      -999.25      -999.25     39.00000    306.74780      1.19561
 43831.0774305556 01:51:30/01-Jan-2020   2627.02002     13.42000      -999.25      -999.25      -999.25      -999.25      -999.25     39.00000    308.88510      1.20295
 43831.0775462963 01:51:40/01-Jan-2020   2629.22998     11.07000      -999.25      -999.25      -999.25      -999.25      -999.25     39.00000    308.95410      1.20238
 43831.0776620370 01:51:50/01-Jan-2020   2631.68994      8.68000      -999.25      0.00000      -999.25      -999.25      -999.25     39.00000    307.78200      1.19672
