~VERSION INFORMATION 
VERS  .    2.0                                     :CWLS Log ASCII Standard - VERSION 2.0
WRAP  .    NO                                      :One Line per Time step
PROD  .    Schlumberger Technology Corp.           :LAS Producer
PROG  .    Horizon LASWriter 9.2.113335.3100       :LAS Program name and version
SOURCE.    Run 3-TimeLogicalAcq                    :Run&Pass Information
CREA  .    12/12/2019                              :LAS Creation date {MM/DD/YYYY}
#--------------------------------------------------
~WELL INFORMATION 
#MNEM           .UNIT                      DATA            :DESCRIPTION
#----            ------          --------------            -----------------------------
STRT            .d               43804.6875000000          :START TIME(OLE Automation date)
STOP            .d               43805.8541666667          :STOP TIME(OLE Automation date)
STEP            .d                            0            :STEP TIME(10s in time)
NULL            .                       -999.25            :NULL VALUE
COMP            .                       Equinor            :COMPANY
WELL            .                        31/5-7            :WELL NAME
FLD             .                           Eos            :FIELD NAME
RIGN            .                 West Hercules            :Rig Name
RIGTYP          .                Semi-Submersible          :Rig Type
SON             .                     19SCA0085            :Service Order Number
SRVC            .                  Schlumberger            :SERVICE COMPANY
DATE            .                    12/05/2019            :LOG DATE(Composite Date for Composite LAP) (MM/DD/YYYY)
CLAB            .                       County:            :County Label
CNTY            .                                          :COUNTY
SLAB            .                                          :State/Province Label
STAT            .                                          :STATE or PROVINCE
PROV            .                                          :STATE or PROVINCE
CTRY            .                        Norway            :COUNTRY
CONT_REGION     .                        Europe            :Continent Region
SECT            .                                          :Section
TOWN            .                                          :Township
RANG            .                                          :Range
API             .                                          :API NUMBER
UWI             .                                          :UNIQUE WELL ID
LUL             .                Service Office            :Logging Unit Location
LUN             .                          A615            :Logging Unit Number
LOC             .                Norwegian North Sea       :FIELD LOCATION
FL1             .                Section: 26 in.           :Field Location Line 1
FL2             .                Job no.: 19SCA0085        :Field Location Line 2
LATI            .deg             60° 34' 35.14" N          :LATITUDE
LONG            .deg             3° 26' 36.13" E           :LONGITUDE
PDAT            .                           MSL            :Local Permanent Datum
LMF             .                            DF            :Logging Measured From
APD             .m                        31.00            :Elevation of Depth Reference (LMF) Above Permanent Datum
EPD             .m                         0.00            :Elevation of Permanent Datum (PDAT) above Mean Sea Level
EKB             .m                      -999.25            :Elevation of Kelly Bushing Above Permanent Datum
EDF             .m                        31.00            :Elevation of Drill Floor Above Permanent Datum
EGL             .m                      -307.00            :Elevation of Ground Level Above Permanent Datum
ECF             .m                      -999.25            :Elevation of Casing Flange above Permanent Datum
#--------------------------------------------------
~CURVE INFORMATION
#MNEM           .UNIT                  API CODE            :DESCRIPTION
#----            ------          --------------            -----------------------------
TIME_1900       .d                                         :                                                        Time Index(OLE Automation date)
TIME            .s                                         :                                (10s)                   Time(hh mm ss/dd-MMM-yyyy)
DEPTH           .m                                         :(RT)    (DnMWorkflow)                                   Depth Index
GR_CAL          .gAPI                                      :(RT)    (ARC9)                                          Calibrated Gamma Ray
BLKP            .m                                         :(RT)    (DRILLING_SURFACE)                              Height of block above rig floor
CRPM            .c/min                                     :(RT)    (TELE900)                                       Collar Rotational Speed
STICK           .c/min                                     :(RT)    (TELE900)                                       Stick Slip Indicator
SHKPK           .gn                                        :(RT)    (TELE900)                                       Shock Peak
SHKRSK          .                                          :(RT)    (TELE900)                                       Shock Risk
DHAP            .bar                                       :(RM)    (ARC9)                                          Downhole Annulus Pressure
DHAT            .degC                                      :(RM)    (ARC9)                                          Downhole Annulus Temperature
ECD             .g/cm3                                     :(RM)    (ARC9)                                          Equivalent Circulating Density
#-------------------------------------------------------------
#       TIME_1900                 TIME        DEPTH       GR_CAL         BLKP         CRPM        STICK        SHKPK       SHKRSK         DHAP         DHAT          ECD 
#                                       (DnMWorkfl)       (ARC9)  (DRILLING_)    (TELE900)    (TELE900)    (TELE900)    (TELE900)       (ARC9)       (ARC9)       (ARC9) 
#                                              (RT)         (RT)         (RT)         (RT)         (RT)         (RT)         (RT)         (RM)         (RM)         (RM) 
#                                (10s)                                                                                                                                   
~ASCII
# ...
 43804.9208333333 22:06:00/05-Dec-2019     481.2300      -999.25      24.7900      -999.25      -999.25      -999.25      -999.25      45.5054      13.0000       1.0845
 43804.9209490741 22:06:10/05-Dec-2019     481.1600      -999.25      24.8600      78.0000      -999.25     127.9132       0.0000      45.5054      13.0000       1.0847
 43804.9210648148 22:06:20/05-Dec-2019     480.4300      -999.25      25.5900      -999.25      30.0000      -999.25      -999.25      45.5054      13.0000       1.0865
 43804.9211805556 22:06:30/05-Dec-2019     481.4800      34.8879      24.5400      -999.25      -999.25      -999.25      -999.25      45.5054      13.0000       1.0838
 43804.9212962963 22:06:40/05-Dec-2019     481.4100     195.5296      24.6100      -999.25      -999.25      -999.25      -999.25      45.5054      13.0000       1.0840
 43804.9214120370 22:06:50/05-Dec-2019     480.7700     197.9291      25.2500      -999.25      -999.25      -999.25      -999.25      45.4365      13.0000       1.0840
 43804.9215277778 22:07:00/05-Dec-2019     481.7000     203.3833      24.3200      -999.25      30.0000       0.0000       0.0000      45.4365      12.0000       1.0817
 43804.9216435185 22:07:10/05-Dec-2019     480.3700     208.8376      25.6500      -999.25      -999.25      -999.25      -999.25      45.4365      13.0000       1.0851
 43804.9217592593 22:07:20/05-Dec-2019     481.0200     211.2370      25.0000      -999.25      -999.25      -999.25      -999.25      45.4365      12.0000       1.0834
 43804.9218750000 22:07:30/05-Dec-2019     481.0100      46.8350      25.0100      -999.25      -999.25      -999.25      -999.25      45.4365      12.0000       1.0834
 43804.9219907407 22:07:40/05-Dec-2019     480.8400      49.7992      25.1800      94.0000      -999.25       0.0000       0.0000      45.5054      13.0000       1.0855
 43804.9221064815 22:07:50/05-Dec-2019     481.0200      53.6687      25.0000      -999.25      21.0000      -999.25      -999.25      45.5054      13.0000       1.0850
 43804.9222222222 22:08:00/05-Dec-2019     481.0300      56.6329      24.9900      -999.25      -999.25      -999.25      -999.25      45.5054      13.0000       1.0850
 43804.9223379630 22:08:10/05-Dec-2019     481.0200      54.7747      25.0000      -999.25      -999.25      -999.25      -999.25      45.5054      13.0000       1.0849
 43804.9224537037 22:08:20/05-Dec-2019     481.8500      56.2568      24.1700      81.0000      -999.25       0.0000       0.0000      45.5054      13.0000       1.0829
 43804.9225694444 22:08:30/05-Dec-2019     482.0200      58.1915      24.0000      -999.25      36.0000      -999.25      -999.25      45.5054      13.0000       1.0823
 43804.9226851852 22:08:40/05-Dec-2019     481.4500      59.6736      24.5700      -999.25      -999.25      -999.25      -999.25      45.5054      13.0000       1.0839
 43804.9228009259 22:08:50/05-Dec-2019     482.4200      56.5699      23.6000      -999.25      -999.25      -999.25      -999.25      45.5054      13.0000       1.0814
 43804.9229166667 22:09:00/05-Dec-2019     482.3400      54.9497      23.6800      -999.25      -999.25      -999.25      -999.25      45.5054      13.0000       1.0816
 43804.9230324074 22:09:10/05-Dec-2019     482.7100      55.0754      23.3100      80.0000      -999.25       0.0000       0.0000      45.5744      13.0000       1.0824
 43804.9231481481 22:09:20/05-Dec-2019     482.4400      55.6769      23.5800      -999.25      33.0000      -999.25      -999.25      45.6433      13.0000       1.0847
 43804.9232638889 22:09:30/05-Dec-2019     482.4700      56.7703      23.5500      -999.25      -999.25      -999.25      -999.25      45.5054      13.0000       1.0814
 43804.9233796296 22:09:40/05-Dec-2019     482.7400      57.8128      23.2800      -999.25      -999.25      -999.25      -999.25      45.5744      13.0000       1.0823
 43804.9234953704 22:09:50/05-Dec-2019     482.1800      56.3307      23.8400      79.0000      -999.25       0.0000       0.0000      45.6433      13.0000       1.0854
 43804.9236111111 22:10:00/05-Dec-2019     482.5600      54.3959      23.4600      -999.25      39.0000      -999.25      -999.25      45.5744      13.0000       1.0828
 43804.9237268518 22:10:10/05-Dec-2019     482.4900      52.9138      23.5300      -999.25      -999.25      -999.25      -999.25      45.5744      13.0000       1.0829
 43804.9238425926 22:10:20/05-Dec-2019     482.4800      56.8209      23.5400      -999.25      -999.25      -999.25      -999.25      45.6433      13.0000       1.0846
 43804.9239583333 22:10:30/05-Dec-2019     482.9300      59.2385      23.0900      79.0000      -999.25      -999.25      -999.25      45.6433      13.0000       1.0834
 43804.9240740741 22:10:40/05-Dec-2019     482.6200      59.8228      23.4000      -999.25      36.0000       0.0000       0.0000      45.6433      13.0000       1.0842
 43804.9241898148 22:10:50/05-Dec-2019     482.8000      59.2385      23.2200      -999.25      -999.25      -999.25      -999.25      45.7122      13.0000       1.0854
 43804.9243055556 22:11:00/05-Dec-2019     482.7700      -999.25      23.2500      -999.25      -999.25      -999.25      -999.25      45.7122      13.0000       1.0854
 43804.9244212963 22:11:10/05-Dec-2019     482.9300      -999.25      23.0900      -999.25      -999.25      -999.25      -999.25      45.7122      13.0000       1.0851
 43804.9245370370 22:11:20/05-Dec-2019     482.7000      -999.25      23.3200      76.0000      -999.25       0.0000       0.0000      45.7122      13.0000       1.0856
 43804.9246527778 22:11:30/05-Dec-2019     483.3200      -999.25      22.7000      -999.25      36.0000      -999.25      -999.25      45.7122      13.0000       1.0841
 43804.9247685185 22:11:40/05-Dec-2019     483.4000      72.0523      22.6200      -999.25      -999.25      -999.25      -999.25      45.7122      12.0000       1.0839
 43804.9248842593 22:11:50/05-Dec-2019     482.9400      70.8360      23.0800      -999.25      -999.25      -999.25      -999.25      45.9191      13.0000       1.0900
 43804.9250000000 22:12:00/05-Dec-2019     483.6800      64.9076      22.3400      79.0000      -999.25       0.0000       0.0000      45.9191      13.0000       1.0881
 43804.9251157407 22:12:10/05-Dec-2019     484.1500      57.1685      21.8700      -999.25      27.0000      -999.25      -999.25      45.9880      13.0000       1.0886
 43804.9252314815 22:12:20/05-Dec-2019     483.9500      51.2401      22.0700      -999.25      -999.25      -999.25      -999.25      45.9880      13.0000       1.0892
 43804.9253472222 22:12:30/05-Dec-2019     484.3300      51.9639      21.6900      -999.25      -999.25      -999.25      -999.25      46.0570      13.0000       1.0898
 43804.9254629630 22:12:40/05-Dec-2019     485.1900      47.8475      20.8300      -999.25      -999.25      -999.25      -999.25      46.1259      13.0000       1.0892
 43804.9255787037 22:12:50/05-Dec-2019     485.3900      43.6921      20.6300      74.0000      -999.25       0.0000       0.0000      46.1949      13.0000       1.0903
 43804.9256944444 22:13:00/05-Dec-2019     485.6000      44.2113      20.4200      -999.25      -999.25      -999.25      -999.25      46.1949      13.0000       1.0898
 43804.9258101852 22:13:10/05-Dec-2019     485.7100      47.5152      20.3100      -999.25      -999.25      -999.25      -999.25      46.1259      13.0000       1.0879
 43804.9259259259 22:13:20/05-Dec-2019     485.8300      50.6771      20.1900      -999.25      -999.25      -999.25      -999.25      46.2638      13.0000       1.0908
 43804.9260416667 22:13:30/05-Dec-2019     485.9400      49.1950      20.0800      80.0000      -999.25       0.0000       1.0000      46.2638      13.0000       1.0906
 43804.9261574074 22:13:40/05-Dec-2019     486.0600      47.2602      19.9600      -999.25      72.0000      -999.25      -999.25      46.3328      13.0000       1.0919
 43804.9262731481 22:13:50/05-Dec-2019     486.3500      45.7781      19.6700      -999.25      -999.25      -999.25      -999.25      46.3328      13.0000       1.0911
