~VERSION INFORMATION 
VERS  .    2.0                                     :CWLS Log ASCII Standard - VERSION 2.0
WRAP  .    NO                                      :One Line per Time step
PROD  .    Schlumberger Technology Corp.           :LAS Producer
PROG  .    Horizon LASWriter 9.2.113335.3100       :LAS Program name and version
SOURCE.    Run 10-TimeLogicalAcq                   :Run&Pass Information
CREA  .    01/21/2020                              :LAS Creation date {MM/DD/YYYY}
#--------------------------------------------------
~WELL INFORMATION 
#MNEM           .UNIT                      DATA            :DESCRIPTION
#----            ------          --------------            -----------------------------
STRT            .d               43830.7500000000          :START TIME(OLE Automation date)
STOP            .d               43831.2291666667          :STOP TIME(OLE Automation date)
STEP            .d                            0            :STEP TIME(10s in time)
NULL            .                       -999.25            :NULL VALUE
COMP            .                       Equinor            :COMPANY
WELL            .                        31/5-7            :WELL NAME
FLD             .                           Eos            :FIELD NAME
RIGN            .                 West Hercules            :Rig Name
RIGTYP          .                Semi-Submersible          :Rig Type
SON             .                     19SCA0085            :Service Order Number
SRVC            .                  Schlumberger            :SERVICE COMPANY
DATE            .                    12/31/2019            :LOG DATE(Composite Date for Composite LAP) (MM/DD/YYYY)
CLAB            .                       County:            :County Label
CNTY            .                                          :COUNTY
SLAB            .                                          :State/Province Label
STAT            .                                          :STATE or PROVINCE
PROV            .                                          :STATE or PROVINCE
CTRY            .                        Norway            :COUNTRY
CONT_REGION     .                        Europe            :Continent Region
SECT            .                                          :Section
TOWN            .                                          :Township
RANG            .                                          :Range
API             .                                          :API NUMBER
UWI             .                                          :UNIQUE WELL ID
LUL             .                Service Office            :Logging Unit Location
LUN             .                          A615            :Logging Unit Number
LOC             .                Norwegian North Sea       :FIELD LOCATION
FL1             .                Section: 8 1/2 in.        :Field Location Line 1
FL2             .                Job no.: 19SCA0085        :Field Location Line 2
LATI            .deg             60° 34' 35.14" N          :LATITUDE
LONG            .deg             3° 26' 36.13" E           :LONGITUDE
PDAT            .                           MSL            :Local Permanent Datum
LMF             .                            DF            :Logging Measured From
APD             .m                        31.00            :Elevation of Depth Reference (LMF) Above Permanent Datum
EPD             .m                         0.00            :Elevation of Permanent Datum (PDAT) above Mean Sea Level
EKB             .m                      -999.25            :Elevation of Kelly Bushing Above Permanent Datum
EDF             .m                        31.00            :Elevation of Drill Floor Above Permanent Datum
EGL             .m                      -307.00            :Elevation of Ground Level Above Permanent Datum
ECF             .m                      -999.25            :Elevation of Casing Flange above Permanent Datum
#--------------------------------------------------
~CURVE INFORMATION
#MNEM           .UNIT                  API CODE            :DESCRIPTION
#----            ------          --------------            -----------------------------
TIME_1900       .d                                         :                                                        Time Index(OLE Automation date)
TIME            .s                                         :                                (10s)                   Time(hh mm ss/dd-MMM-yyyy)
DEPTH           .m                                         :(RT)    (DnMWorkflow)                                   Depth Index
BLKP            .m                                         :(RT)    (DRILLING_SURFACE)                              Height of block above rig floor
GR              .gAPI                                      :(RT)    (ARC6)                                          Gamma Ray
CRPM            .c/min                                     :(RT)    (TELE675)                                       Collar Rotational Speed
STICK           .c/min                                     :(RT)    (TELE675)                                       Stick Slip Indicator
SHKRSK          .                                          :(RT)    (TELE675)                                       Shock Risk
SHKPK           .gn                                        :(RT)    (TELE675)                                       Shock Peak
DHAT            .degC                                      :(RM)    (ARC6)                                          Downhole Annulus Temperature
DHAP            .bar                                       :(RM)    (ARC6)                                          Downhole Annulus Pressure
ECD             .g/cm3                                     :(RM)    (ARC6)                                          Equivalent Circulating Density
#-------------------------------------------------------------
#       TIME_1900                 TIME        DEPTH         BLKP           GR         CRPM        STICK       SHKRSK        SHKPK         DHAT         DHAP          ECD 
#                                       (DnMWorkfl)  (DRILLING_)       (ARC6)    (TELE675)    (TELE675)    (TELE675)    (TELE675)       (ARC6)       (ARC6)       (ARC6) 
#                                              (RT)         (RT)         (RT)         (RT)         (RT)         (RT)         (RT)         (RM)         (RM)         (RM) 
#                                (10s)                                                                                                                                   
~ASCII
# ...
 43831.1055555556 02:32:00/01-Jan-2020   2639.73999     38.96000      -999.25      -999.25      -999.25      -999.25      -999.25     40.00000    298.12930      1.15553
 43831.1056712963 02:32:10/01-Jan-2020   2639.73999     38.96000      -999.25      -999.25      -999.25      -999.25      -999.25     40.00000    298.54300      1.15713
 43831.1057870370 02:32:20/01-Jan-2020   2639.73999     38.96000      -999.25      -999.25      -999.25      -999.25      -999.25     40.00000    298.74980      1.15794
 43831.1059027778 02:32:30/01-Jan-2020   2639.73999     38.96000      -999.25      -999.25      -999.25      -999.25      -999.25     40.00000    300.54250      1.16488
 43831.1060185185 02:32:40/01-Jan-2020   2639.73999     38.96000      -999.25      -999.25      -999.25      -999.25      -999.25     40.00000    298.68090      1.15767
 43831.1061342593 02:32:50/01-Jan-2020   2639.73999     38.96000      -999.25      -999.25      -999.25      -999.25      -999.25     40.00000    296.75040      1.15019
 43831.1062500000 02:33:00/01-Jan-2020   2639.73999     38.96000      -999.25      -999.25      -999.25      -999.25      -999.25     40.00000    296.95720      1.15099
 43831.1063657407 02:33:10/01-Jan-2020   2639.73999     38.96000      -999.25      -999.25      -999.25      -999.25      -999.25     40.00000    296.68140      1.14992
 43831.1064814815 02:33:20/01-Jan-2020   2639.73999     38.96000      -999.25      -999.25      -999.25      -999.25      -999.25     40.00000    298.81880      1.15820
 43831.1065972222 02:33:30/01-Jan-2020   2639.73999     38.96000      -999.25      -999.25      -999.25      -999.25      -999.25     40.00000    297.09510      1.15152
 43831.1067129630 02:33:40/01-Jan-2020   2639.73999     38.96000      -999.25      -999.25      -999.25      -999.25      -999.25     40.00000    296.47460      1.14912
 43831.1068287037 02:33:50/01-Jan-2020   2639.73999     38.96000      -999.25      -999.25      -999.25      -999.25      -999.25     40.00000    295.57820      1.14564
 43831.1069444444 02:34:00/01-Jan-2020   2639.73999     38.96000      -999.25      -999.25      -999.25      -999.25      -999.25     40.00000    299.09460      1.15927
 43831.1070601852 02:34:10/01-Jan-2020   2639.73999     38.96000      -999.25      -999.25      -999.25      -999.25      -999.25     40.00000    303.09350      1.17477
 43831.1071759259 02:34:20/01-Jan-2020   2639.73999     38.96000      -999.25      -999.25      -999.25      -999.25      -999.25     40.00000    299.23250      1.15981
 43831.1072916667 02:34:30/01-Jan-2020   2639.73999     38.96000      -999.25      -999.25      -999.25      -999.25      -999.25     40.00000    296.40560      1.14885
 43831.1074074074 02:34:40/01-Jan-2020   2639.73999     38.96000      -999.25      -999.25      -999.25      -999.25      -999.25     40.00000    295.92300      1.14698
 43831.1075231481 02:34:50/01-Jan-2020   2639.73999     38.96000      -999.25      -999.25      -999.25      -999.25      -999.25     40.00000    295.92300      1.14698
 43831.1076388889 02:35:00/01-Jan-2020   2639.73999     38.96000      -999.25      -999.25      -999.25      -999.25      -999.25     40.00000    303.57620      1.17664
 43831.1077546296 02:35:10/01-Jan-2020   2639.73999     38.96000      -999.25      -999.25      -999.25      -999.25      -999.25     41.00000    300.33560      1.16408
 43831.1078703704 02:35:20/01-Jan-2020   2639.73999     38.96000      -999.25      -999.25      -999.25      -999.25      -999.25     41.00000    298.26720      1.15606
 43831.1079861111 02:35:30/01-Jan-2020   2639.73999     38.96000      -999.25      -999.25      -999.25      -999.25      -999.25     41.00000    298.88770      1.15847
 43831.1081018519 02:35:40/01-Jan-2020   2639.73999     38.96000      -999.25      -999.25      -999.25      -999.25      -999.25     41.00000    296.19880      1.14805
 43831.1082175926 02:35:50/01-Jan-2020   2639.73999     38.96000      -999.25      -999.25      -999.25      -999.25      -999.25     41.00000    300.68040      1.16542
 43831.1083333333 02:36:00/01-Jan-2020   2638.90991     39.61000      -999.25      -999.25      -999.25      -999.25      -999.25     41.00000    301.71460      1.16967
 43831.1084490741 02:36:10/01-Jan-2020   2638.38989     40.31000      -999.25      -999.25      -999.25      -999.25      -999.25     41.00000    296.95720      1.15158
 43831.1085648148 02:36:20/01-Jan-2020   2638.38989     40.31000      -999.25      -999.25      -999.25      -999.25      -999.25     41.00000    298.47400      1.15746
 43831.1086805556 02:36:30/01-Jan-2020   2638.38989     40.31000      -999.25      -999.25      -999.25      -999.25      -999.25     41.00000    301.02510      1.16735
 43831.1087962963 02:36:40/01-Jan-2020   2638.38989     40.31000      -999.25      -999.25      -999.25      -999.25      -999.25     41.00000    298.40510      1.15719
 43831.1089120370 02:36:50/01-Jan-2020   2638.38989     40.31000      -999.25      -999.25      -999.25      -999.25      -999.25     41.00000    296.40560      1.14944
 43831.1090277778 02:37:00/01-Jan-2020   2638.38989     40.31000      -999.25      -999.25      -999.25      -999.25      -999.25     41.00000    296.19880      1.14864
 43831.1091435185 02:37:10/01-Jan-2020   2637.72021     40.98000      -999.25      -999.25      -999.25      -999.25      -999.25     41.00000    295.71610      1.14713
 43831.1092592593 02:37:20/01-Jan-2020   2635.69019     43.01000      -999.25      -999.25      -999.25      -999.25      -999.25     41.00000    295.99190      1.14910
 43831.1093750000 02:37:30/01-Jan-2020   2635.01001     43.69000      -999.25      -999.25      -999.25      -999.25      -999.25     41.00000    296.12980      1.14985
 43831.1094907407 02:37:40/01-Jan-2020   2635.01001     43.69000      -999.25      -999.25      -999.25      -999.25      -999.25     41.00000    296.12980      1.14985
 43831.1096064815 02:37:50/01-Jan-2020   2635.03003     43.67000      -999.25      -999.25      -999.25      -999.25      -999.25     41.00000    295.50930      1.14743
 43831.1097222222 02:38:00/01-Jan-2020   2635.07007     43.63000      -999.25      -999.25      -999.25      -999.25      -999.25     42.00000    300.88720      1.16829
 43831.1098379630 02:38:10/01-Jan-2020   2635.09985     43.60000      -999.25      -999.25      -999.25      -999.25      -999.25     42.00000    300.81830      1.16801
 43831.1099537037 02:38:20/01-Jan-2020   2635.09985     43.60000      -999.25      -999.25      -999.25      -999.25      -999.25     42.00000    296.54350      1.15141
 43831.1100694444 02:38:30/01-Jan-2020   2635.09985     43.60000      -999.25      -999.25      -999.25      -999.25      -999.25     42.00000    296.47460      1.15115
 43831.1101851852 02:38:40/01-Jan-2020   2635.09985     43.60000      -999.25      -999.25      -999.25      -999.25      -999.25     42.00000    296.19880      1.15008
 43831.1103009259 02:38:50/01-Jan-2020   2635.09985     43.60000      -999.25      -999.25      -999.25      -999.25      -999.25     42.00000    297.02620      1.15329
 43831.1104166667 02:39:00/01-Jan-2020   2635.09985     43.60000      -999.25      -999.25      -999.25      -999.25      -999.25     42.00000    296.95720      1.15302
 43831.1105324074 02:39:10/01-Jan-2020   2635.09985     43.60000      -999.25      -999.25      -999.25      -999.25      -999.25     42.00000    298.06040      1.15730
 43831.1106481481 02:39:20/01-Jan-2020   2635.09985     43.61000      -999.25      -999.25      -999.25      -999.25      -999.25     42.00000    299.64620      1.16346
 43831.1107638889 02:39:30/01-Jan-2020   2635.09985     43.63000      -999.25      -999.25      -999.25      -999.25      -999.25     42.00000    296.68140      1.15195
 43831.1108796296 02:39:40/01-Jan-2020   2635.09985     43.72000      -999.25      -999.25      -999.25      -999.25      -999.25     42.00000    297.64670      1.15570
 43831.1109953704 02:39:50/01-Jan-2020   2635.09985     43.86000      -999.25      -999.25      -999.25      -999.25      -999.25     43.00000    296.12980      1.14981
