~VERSION INFORMATION 
VERS  .    2.0                                     :CWLS Log ASCII Standard - VERSION 2.0
WRAP  .    NO                                      :One Line per Time step
PROD  .    Schlumberger Technology Corp.           :LAS Producer
PROG  .    Horizon LASWriter 9.2.113335.3100       :LAS Program name and version
SOURCE.    Run 9-TimeLogicalAcq                    :Run&Pass Information
CREA  .    01/21/2020                              :LAS Creation date {MM/DD/YYYY}
#--------------------------------------------------
~WELL INFORMATION 
#MNEM           .UNIT                      DATA            :DESCRIPTION
#----            ------          --------------            -----------------------------
STRT            .d               43828.3333333334          :START TIME(OLE Automation date)
STOP            .d               43829.1041666667          :STOP TIME(OLE Automation date)
STEP            .d                            0            :STEP TIME(10s in time)
NULL            .                       -999.25            :NULL VALUE
COMP            .                       Equinor            :COMPANY
WELL            .                        31/5-7            :WELL NAME
FLD             .                           Eos            :FIELD NAME
RIGN            .                 West Hercules            :Rig Name
RIGTYP          .                Semi-Submersible          :Rig Type
SON             .                     19SCA0085            :Service Order Number
SRVC            .                  Schlumberger            :SERVICE COMPANY
DATE            .                    12/29/2019            :LOG DATE(Composite Date for Composite LAP) (MM/DD/YYYY)
CLAB            .                       County:            :County Label
CNTY            .                                          :COUNTY
SLAB            .                                          :State/Province Label
STAT            .                                          :STATE or PROVINCE
PROV            .                                          :STATE or PROVINCE
CTRY            .                        Norway            :COUNTRY
CONT_REGION     .                        Europe            :Continent Region
SECT            .                                          :Section
TOWN            .                                          :Township
RANG            .                                          :Range
API             .                                          :API NUMBER
UWI             .                                          :UNIQUE WELL ID
LUL             .                Service Office            :Logging Unit Location
LUN             .                          A615            :Logging Unit Number
LOC             .                Norwegian North Sea       :FIELD LOCATION
FL1             .                Section: 8 1/2 in.        :Field Location Line 1
FL2             .                Job no.: 19SCA0085        :Field Location Line 2
LATI            .deg             60° 34' 35.14" N          :LATITUDE
LONG            .deg             3° 26' 36.13" E           :LONGITUDE
PDAT            .                           MSL            :Local Permanent Datum
LMF             .                            DF            :Logging Measured From
APD             .m                        31.00            :Elevation of Depth Reference (LMF) Above Permanent Datum
EPD             .m                         0.00            :Elevation of Permanent Datum (PDAT) above Mean Sea Level
EKB             .m                      -999.25            :Elevation of Kelly Bushing Above Permanent Datum
EDF             .m                        31.00            :Elevation of Drill Floor Above Permanent Datum
EGL             .m                      -307.00            :Elevation of Ground Level Above Permanent Datum
ECF             .m                      -999.25            :Elevation of Casing Flange above Permanent Datum
#--------------------------------------------------
~CURVE INFORMATION
#MNEM           .UNIT                  API CODE            :DESCRIPTION
#----            ------          --------------            -----------------------------
TIME_1900       .d                                         :                                                        Time Index(OLE Automation date)
TIME            .s                                         :                                (10s)                   Time(hh mm ss/dd-MMM-yyyy)
DEPTH           .m                                         :(RT)    (DnMWorkflow)                                   Depth Index
BLKP            .m                                         :(RT)    (DRILLING_SURFACE)                              Height of block above rig floor
GR              .gAPI                                      :(RT)    (ARC6)                                          Gamma Ray
CRPM            .c/min                                     :(RT)    (TELE675)                                       Collar Rotational Speed
STICK           .c/min                                     :(RT)    (TELE675)                                       Stick Slip Indicator
SHKRSK          .                                          :(RT)    (TELE675)                                       Shock Risk
SHKPK           .gn                                        :(RT)    (TELE675)                                       Shock Peak
DHAT            .degC                                      :(RM)    (ARC6)                                          Downhole Annulus Temperature
DHAP            .bar                                       :(RM)    (ARC6)                                          Downhole Annulus Pressure
ECD             .g/cm3                                     :(RM)    (ARC6)                                          Equivalent Circulating Density
#-------------------------------------------------------------
#       TIME_1900                 TIME        DEPTH         BLKP           GR         CRPM        STICK       SHKRSK        SHKPK         DHAT         DHAP          ECD 
#                                       (DnMWorkfl)  (DRILLING_)       (ARC6)    (TELE675)    (TELE675)    (TELE675)    (TELE675)       (ARC6)       (ARC6)       (ARC6) 
#                                              (RT)         (RT)         (RT)         (RT)         (RT)         (RT)         (RT)         (RM)         (RM)         (RM) 
#                                (10s)                                                                                                                                   
~ASCII
# ...
 43828.4222222222 10:08:00/29-Dec-2019   2483.04980     39.97000      -999.25      -999.25      -999.25      -999.25      -999.25     83.00000    321.77830      1.32616
 43828.4223379630 10:08:10/29-Dec-2019   2483.04980     39.97000      -999.25      -999.25      -999.25      -999.25      -999.25     83.00000    322.05410      1.32730
 43828.4224537037 10:08:20/29-Dec-2019   2483.04980     39.97000      -999.25      -999.25      -999.25      -999.25      -999.25     82.00000    322.74360      1.33014
 43828.4225694444 10:08:30/29-Dec-2019   2483.04980     39.97000      -999.25      -999.25      -999.25      -999.25      -999.25     82.00000    321.08880      1.32332
 43828.4226851852 10:08:40/29-Dec-2019   2483.04980     39.97000      -999.25      -999.25      -999.25      -999.25      -999.25     82.00000    321.43360      1.32474
 43828.4228009259 10:08:50/29-Dec-2019   2483.04980     39.97000      -999.25      -999.25      -999.25      -999.25      -999.25     81.00000    319.08940      1.31508
 43828.4229166667 10:09:00/29-Dec-2019   2483.04980     39.97000      -999.25      -999.25      -999.25      -999.25      -999.25     81.00000    322.67460      1.32985
 43828.4230324074 10:09:10/29-Dec-2019   2483.04980     39.97000      -999.25      -999.25      -999.25      -999.25      -999.25     81.00000    320.05460      1.31906
 43828.4231481481 10:09:20/29-Dec-2019   2483.04980     39.97000      -999.25      -999.25      -999.25      -999.25      -999.25     80.00000    320.26150      1.31991
 43828.4232638889 10:09:30/29-Dec-2019   2483.04980     39.97000      -999.25      -999.25      -999.25      -999.25      -999.25     80.00000    322.19200      1.32786
 43828.4233796296 10:09:40/29-Dec-2019   2483.04980     39.97000      -999.25      -999.25      -999.25      -999.25      -999.25     80.00000    319.43410      1.31650
 43828.4234953704 10:09:50/29-Dec-2019   2483.04980     39.97000      -999.25      -999.25      -999.25      -999.25      -999.25     79.00000    322.53670      1.32929
 43828.4236111111 10:10:00/29-Dec-2019   2483.04980     39.97000      -999.25      -999.25      -999.25      -999.25      -999.25     79.00000    321.50250      1.32502
 43828.4237268518 10:10:10/29-Dec-2019   2483.04980     39.97000      -999.25      -999.25      -999.25      -999.25      -999.25     79.00000    323.77780      1.33440
 43828.4238425926 10:10:20/29-Dec-2019   2483.04980     39.97000      -999.25      -999.25      -999.25      -999.25      -999.25     78.00000    322.81250      1.33042
 43828.4239583333 10:10:30/29-Dec-2019   2483.04980     39.97000      -999.25      -999.25      -999.25      -999.25      -999.25     78.00000    322.81250      1.33042
 43828.4240740741 10:10:40/29-Dec-2019   2483.04980     39.97000      -999.25      -999.25      -999.25      -999.25      -999.25     77.00000    321.64040      1.32559
 43828.4241898148 10:10:50/29-Dec-2019   2483.04980     39.97000      -999.25      -999.25      -999.25      -999.25      -999.25     77.00000    323.50200      1.33326
 43828.4243055556 10:11:00/29-Dec-2019   2483.04980     39.97000      -999.25      -999.25      -999.25      -999.25      -999.25     77.00000    321.29570      1.32417
 43828.4244212963 10:11:10/29-Dec-2019   2483.04980     39.97000      -999.25      -999.25      -999.25      -999.25      -999.25     76.00000    319.22730      1.31565
 43828.4245370370 10:11:20/29-Dec-2019   2483.04980     39.97000      -999.25      -999.25      -999.25      -999.25      -999.25     76.00000    322.67460      1.32985
 43828.4246527778 10:11:30/29-Dec-2019   2483.04980     39.97000      -999.25      -999.25      -999.25      -999.25      -999.25     75.00000    322.74360      1.33014
 43828.4247685185 10:11:40/29-Dec-2019   2483.04980     39.97000      -999.25      -999.25      -999.25      -999.25      -999.25     75.00000    320.60620      1.32133
 43828.4248842593 10:11:50/29-Dec-2019   2483.04980     39.97000      -999.25      -999.25      -999.25      -999.25      -999.25     75.00000    322.88150      1.33071
 43828.4250000000 10:12:00/29-Dec-2019   2483.04980     39.97000      -999.25      -999.25      -999.25      -999.25      -999.25     74.00000    322.19200      1.32786
 43828.4251157407 10:12:10/29-Dec-2019   2483.04980     39.97000      -999.25      -999.25      -999.25      -999.25      -999.25     74.00000    319.91670      1.31849
 43828.4252314815 10:12:20/29-Dec-2019   2483.04980     39.97000      -999.25      -999.25      -999.25      -999.25      -999.25     73.00000    319.57200      1.31707
 43828.4253472222 10:12:30/29-Dec-2019   2483.06006     39.96000      -999.25      -999.25      -999.25      -999.25      -999.25     73.00000    320.53730      1.32104
 43828.4254629630 10:12:40/29-Dec-2019   2483.06006     39.96000      -999.25      -999.25      -999.25      -999.25      -999.25     73.00000    318.88250      1.31422
 43828.4255787037 10:12:50/29-Dec-2019   2483.06006     39.96000      -999.25      -999.25      -999.25      -999.25      -999.25     72.00000    320.19250      1.31962
 43828.4256944444 10:13:00/29-Dec-2019   2483.06006     39.96000      -999.25      -999.25      -999.25      -999.25      -999.25     72.00000    318.81360      1.31394
 43828.4258101852 10:13:10/29-Dec-2019   2483.06006     39.96000      -999.25      -999.25      -999.25      -999.25      -999.25     72.00000    318.33090      1.31195
 43828.4259259259 10:13:20/29-Dec-2019   2483.08008     39.94000      -999.25      -999.25      -999.25      -999.25      -999.25     71.00000    320.74410      1.32188
 43828.4260416667 10:13:30/29-Dec-2019   2483.08008     39.94000      -999.25      -999.25      -999.25      -999.25      -999.25     71.00000    321.84730      1.32643
 43828.4261574074 10:13:40/29-Dec-2019   2483.08008     39.94000      -999.25      -999.25      -999.25      -999.25      -999.25     70.00000    320.46830      1.32074
 43828.4262731481 10:13:50/29-Dec-2019   2483.08008     39.94000      -999.25      -999.25      -999.25      -999.25      -999.25     70.00000    319.57200      1.31705
 43828.4263888889 10:14:00/29-Dec-2019   2483.08008     39.94000      -999.25      -999.25      -999.25      -999.25      -999.25     70.00000    318.60670      1.31307
 43828.4265046296 10:14:10/29-Dec-2019   2483.08008     39.94000      -999.25      -999.25      -999.25      -999.25      -999.25     69.00000    319.77880      1.31790
 43828.4266203704 10:14:20/29-Dec-2019   2483.08008     39.94000      -999.25      -999.25      -999.25      -999.25      -999.25     69.00000    317.64150      1.30909
 43828.4267361111 10:14:30/29-Dec-2019   2483.08008     39.94000      -999.25      -999.25      -999.25      -999.25      -999.25     69.00000    321.36460      1.32444
 43828.4268518519 10:14:40/29-Dec-2019   2484.53003     38.49000      -999.25      -999.25      -999.25      -999.25      -999.25     68.00000    319.43410      1.31588
 43828.4269675926 10:14:50/29-Dec-2019   2486.97998     36.04000      -999.25      -999.25      -999.25      -999.25      -999.25     68.00000    324.94990      1.33698
 43828.4270833333 10:15:00/29-Dec-2019   2489.47998     33.54000      -999.25      -999.25      -999.25      -999.25      -999.25     68.00000    319.50300      1.31356
 43828.4271990741 10:15:10/29-Dec-2019   2491.68994     31.33000      -999.25      -999.25      -999.25      -999.25      -999.25     68.00000    321.01990      1.31850
 43828.4273148148 10:15:20/29-Dec-2019   2491.70996     31.31000      -999.25      -999.25      -999.25      -999.25      -999.25     69.00000    320.60620      1.31672
 43828.4274305556 10:15:30/29-Dec-2019   2491.70996     31.31000      -999.25      -999.25      -999.25      -999.25      -999.25     68.00000    319.77880      1.31332
 43828.4275462963 10:15:40/29-Dec-2019   2491.70996     31.31000      -999.25      -999.25      -999.25      -999.25      -999.25     68.00000    319.84780      1.31361
 43828.4276620370 10:15:50/29-Dec-2019   2491.70996     31.31000      -999.25      -999.25      -999.25      -999.25      -999.25     68.00000    318.95150      1.30992
