~VERSION INFORMATION 
VERS  .    2.0                                     :CWLS Log ASCII Standard - VERSION 2.0
WRAP  .    NO                                      :One Line per Time step
PROD  .    Schlumberger Technology Corp.           :LAS Producer
PROG  .    Horizon LASWriter 9.2.113335.3100       :LAS Program name and version
SOURCE.    Run 12-TimeLogicalAcq                   :Run&Pass Information
CREA  .    01/21/2020                              :LAS Creation date {MM/DD/YYYY}
#--------------------------------------------------
~WELL INFORMATION 
#MNEM           .UNIT                      DATA            :DESCRIPTION
#----            ------          --------------            -----------------------------
STRT            .d               43837.2295138889          :START TIME(OLE Automation date)
STOP            .d               43837.6875000000          :STOP TIME(OLE Automation date)
STEP            .d                            0            :STEP TIME(10s in time)
NULL            .                       -999.25            :NULL VALUE
COMP            .                       Equinor            :COMPANY
WELL            .                        31/5-7            :WELL NAME
FLD             .                           Eos            :FIELD NAME
RIGN            .                 West Hercules            :Rig Name
RIGTYP          .                Semi-Submersible          :Rig Type
SON             .                     19SCA0085            :Service Order Number
SRVC            .                  Schlumberger            :SERVICE COMPANY
DATE            .                    01/07/2020            :LOG DATE(Composite Date for Composite LAP) (MM/DD/YYYY)
CLAB            .                       County:            :County Label
CNTY            .                                          :COUNTY
SLAB            .                                          :State/Province Label
STAT            .                                          :STATE or PROVINCE
PROV            .                                          :STATE or PROVINCE
CTRY            .                        Norway            :COUNTRY
CONT_REGION     .                        Europe            :Continent Region
SECT            .                                          :Section
TOWN            .                                          :Township
RANG            .                                          :Range
API             .                                          :API NUMBER
UWI             .                                          :UNIQUE WELL ID
LUL             .                Service Office            :Logging Unit Location
LUN             .                          A615            :Logging Unit Number
LOC             .                Norwegian North Sea       :FIELD LOCATION
FL1             .                Section: 8 1/2 in.        :Field Location Line 1
FL2             .                Job no.: 19SCA0085        :Field Location Line 2
LATI            .deg             60° 34' 35.14" N          :LATITUDE
LONG            .deg             3° 26' 36.13" E           :LONGITUDE
PDAT            .                           MSL            :Local Permanent Datum
LMF             .                            DF            :Logging Measured From
APD             .m                        31.00            :Elevation of Depth Reference (LMF) Above Permanent Datum
EPD             .m                         0.00            :Elevation of Permanent Datum (PDAT) above Mean Sea Level
EKB             .m                      -999.25            :Elevation of Kelly Bushing Above Permanent Datum
EDF             .m                        31.00            :Elevation of Drill Floor Above Permanent Datum
EGL             .m                      -307.00            :Elevation of Ground Level Above Permanent Datum
ECF             .m                      -999.25            :Elevation of Casing Flange above Permanent Datum
#--------------------------------------------------
~CURVE INFORMATION
#MNEM           .UNIT                  API CODE            :DESCRIPTION
#----            ------          --------------            -----------------------------
TIME_1900       .d                                         :                                                        Time Index(OLE Automation date)
TIME            .s                                         :                                (10s)                   Time(hh mm ss/dd-MMM-yyyy)
DEPTH           .m                                         :(RT)    (DnMWorkflow)                                   Depth Index
BLKP            .m                                         :(RT)    (DRILLING_SURFACE)                              Height of block above rig floor
GR              .gAPI                                      :(RT)    (ARC6)                                          Gamma Ray
CRPM            .c/min                                     :(RT)    (TELE675)                                       Collar Rotational Speed
STICK           .c/min                                     :(RT)    (TELE675)                                       Stick Slip Indicator
SHKRSK          .                                          :(RT)    (TELE675)                                       Shock Risk
SHKPK           .gn                                        :(RT)    (TELE675)                                       Shock Peak
DHAT            .degC                                      :(RM)    (ARC6)                                          Downhole Annulus Temperature
DHAP            .bar                                       :(RM)    (ARC6)                                          Downhole Annulus Pressure
ECD             .g/cm3                                     :(RM)    (ARC6)                                          Equivalent Circulating Density
#-------------------------------------------------------------
#       TIME_1900                 TIME        DEPTH         BLKP           GR         CRPM        STICK       SHKRSK        SHKPK         DHAT         DHAP          ECD 
#                                       (DnMWorkfl)  (DRILLING_)       (ARC6)    (TELE675)    (TELE675)    (TELE675)    (TELE675)       (ARC6)       (ARC6)       (ARC6) 
#                                              (RT)         (RT)         (RT)         (RT)         (RT)         (RT)         (RT)         (RM)         (RM)         (RM) 
#                                (10s)                                                                                                                                   
~ASCII
# ...
 43837.5239583333 12:34:30/07-Jan-2020   2564.09985     36.33000     51.16991      -999.25      -999.25      0.00000      0.00000     37.00000    302.61090      1.20762
 43837.5240740741 12:34:40/07-Jan-2020   2564.09985     36.33000     49.93396      -999.25      -999.25      -999.25      -999.25     37.00000    300.47350      1.19909
 43837.5241898148 12:34:50/07-Jan-2020   2564.09985     36.33000     47.81410      -999.25      -999.25      -999.25      -999.25     37.00000    303.85200      1.21257
 43837.5243055556 12:35:00/07-Jan-2020   2564.09009     36.34000     52.67001      -999.25      -999.25      -999.25      -999.25     37.00000    303.78300      1.21230
 43837.5244212963 12:35:10/07-Jan-2020   2564.05005     36.38000     59.40286     38.00000      -999.25      -999.25      -999.25     37.00000    302.81770      1.20847
 43837.5245370370 12:35:20/07-Jan-2020   2564.01978     36.41000     62.00560      -999.25    369.00000      0.00000      0.00000     37.00000    303.85200      1.21261
 43837.5246527778 12:35:30/07-Jan-2020   2564.01978     36.41000     59.65190      -999.25      -999.25      -999.25      -999.25     37.00000    301.99040      1.20518
 43837.5247685185 12:35:40/07-Jan-2020   2564.01978     36.41000     54.54169      -999.25      -999.25      -999.25      -999.25     37.00000    301.78350      1.20436
 43837.5248842593 12:35:50/07-Jan-2020   2564.01978     36.41000      -999.25      -999.25      -999.25      -999.25      -999.25     37.00000    301.43880      1.20298
 43837.5250000000 12:36:00/07-Jan-2020   2564.01978     36.41000      -999.25      3.00000      -999.25      -999.25      -999.25     37.00000    301.92140      1.20491
 43837.5251157407 12:36:10/07-Jan-2020   2564.01978     36.41000      -999.25      -999.25     66.00000      -999.25      -999.25     37.00000    304.81720      1.21646
 43837.5252314815 12:36:20/07-Jan-2020   2564.01978     36.41000      -999.25      -999.25      -999.25      -999.25      -999.25     37.00000    303.30040      1.21041
 43837.5253472222 12:36:30/07-Jan-2020   2564.01978     36.41000      -999.25      -999.25      -999.25      -999.25      -999.25     36.00000    301.78350      1.20436
 43837.5254629630 12:36:40/07-Jan-2020   2564.01978     36.41000      -999.25      -999.25      -999.25      -999.25      -999.25     36.00000    300.95620      1.20105
 43837.5255787037 12:36:50/07-Jan-2020   2564.01978     36.41000     47.18592      -999.25      -999.25      -999.25      -999.25     36.00000    301.30090      1.20243
 43837.5256944444 12:37:00/07-Jan-2020   2564.01978     36.41000     45.27937      -999.25      -999.25      -999.25      -999.25     36.00000    301.30090      1.20243
 43837.5258101852 12:37:10/07-Jan-2020   2564.01978     36.41000     43.21083      -999.25      -999.25      -999.25      -999.25     36.00000    301.99040      1.20518
 43837.5259259259 12:37:20/07-Jan-2020   2564.01978     36.41000     42.54543      -999.25      -999.25      -999.25      -999.25     36.00000    302.61090      1.20766
 43837.5260416667 12:37:30/07-Jan-2020   2564.01978     36.41000     44.24298      -999.25      -999.25      -999.25      -999.25     36.00000    302.33510      1.20656
 43837.5261574074 12:37:40/07-Jan-2020   2564.01978     36.41000     48.07420      -999.25      -999.25      -999.25      -999.25     36.00000    300.05980      1.19748
 43837.5262731481 12:37:50/07-Jan-2020   2564.01978     36.41000     52.65174      -999.25      -999.25      0.00000      0.00000     36.00000    304.74830      1.21619
 43837.5263888889 12:38:00/07-Jan-2020   2564.01978     36.41000     56.07161      -999.25      -999.25      -999.25      -999.25     36.00000    300.26670      1.19830
 43837.5265046296 12:38:10/07-Jan-2020   2564.01978     36.41000     53.89556      -999.25      -999.25      -999.25      -999.25     36.00000    299.02560      1.19335
 43837.5266203704 12:38:20/07-Jan-2020   2564.01978     36.41000     52.70261      -999.25      -999.25      -999.25      -999.25     36.00000    302.26620      1.20628
 43837.5267361111 12:38:30/07-Jan-2020   2564.01978     36.41000     54.72127      -999.25      -999.25      -999.25      -999.25     36.00000    303.02460      1.20931
 43837.5268518519 12:38:40/07-Jan-2020   2564.01978     36.41000     57.54093      -999.25      -999.25      0.00000      0.00000     36.00000    304.33460      1.21454
 43837.5269675926 12:38:50/07-Jan-2020   2564.01978     36.41000     60.08459      -999.25      -999.25      -999.25      -999.25     36.00000    299.02560      1.19335
 43837.5270833333 12:39:00/07-Jan-2020   2564.01978     36.41000     59.21592      -999.25      -999.25      -999.25      -999.25     36.00000    301.99040      1.20518
 43837.5271990741 12:39:10/07-Jan-2020   2564.01978     36.41000     54.65187      -999.25      -999.25      -999.25      -999.25     36.00000    302.26620      1.20628
 43837.5273148148 12:39:20/07-Jan-2020   2564.01978     36.41000     53.37960      -999.25      -999.25      -999.25      -999.25     36.00000    301.23200      1.20215
 43837.5274305556 12:39:30/07-Jan-2020   2564.01978     36.41000     52.78386      -999.25      -999.25      0.00000      0.00000     36.00000    302.47300      1.20711
 43837.5275462963 12:39:40/07-Jan-2020   2564.01978     36.41000     53.42781      -999.25      -999.25      -999.25      -999.25     36.00000    301.78350      1.20436
 43837.5276620370 12:39:50/07-Jan-2020   2564.01978     36.41000     51.28295      -999.25      -999.25      -999.25      -999.25     36.00000    303.02460      1.20931
 43837.5277777778 12:40:00/07-Jan-2020   2564.01978     36.41000     46.89834      -999.25      -999.25      -999.25      -999.25     36.00000    300.40460      1.19885
 43837.5278935185 12:40:10/07-Jan-2020   2564.01978     36.41000     54.34716      -999.25      -999.25      -999.25      -999.25     36.00000    305.36880      1.21866
 43837.5280092593 12:40:20/07-Jan-2020   2564.01978     36.41000     58.84484      -999.25      -999.25      0.00000      0.00000     36.00000    302.33510      1.20656
 43837.5281250000 12:40:30/07-Jan-2020   2564.01978     36.41000     56.99540      -999.25      -999.25      -999.25      -999.25     36.00000    299.92190      1.19693
 43837.5282407407 12:40:40/07-Jan-2020   2564.01978     36.41000     55.69791      -999.25      -999.25      -999.25      -999.25     36.00000    305.50670      1.21921
 43837.5283564815 12:40:50/07-Jan-2020   2564.01978     36.41000     57.89770      -999.25      -999.25      -999.25      -999.25     36.00000    301.64560      1.20381
 43837.5284722222 12:41:00/07-Jan-2020   2564.01978     36.41000     56.98153      -999.25      -999.25      -999.25      -999.25     36.00000    303.64510      1.21179
 43837.5285879630 12:41:10/07-Jan-2020   2564.01978     36.41000     56.25924      -999.25      -999.25      0.00000      0.00000     36.00000    302.33510      1.20656
 43837.5287037037 12:41:20/07-Jan-2020   2564.01978     36.41000     56.16508      -999.25      -999.25      -999.25      -999.25     36.00000    299.64620      1.19583
 43837.5288194444 12:41:30/07-Jan-2020   2564.01978     36.41000     55.80111      -999.25      -999.25      -999.25      -999.25     36.00000    300.47350      1.19913
 43837.5289351852 12:41:40/07-Jan-2020   2564.01978     36.41000     54.40791      -999.25      -999.25      -999.25      -999.25     36.00000    299.64620      1.19583
 43837.5290509259 12:41:50/07-Jan-2020   2564.01978     36.41000     53.05037      -999.25      -999.25      -999.25      -999.25     36.00000    299.99090      1.19720
 43837.5291666667 12:42:00/07-Jan-2020   2564.01978     36.41000     52.63087      -999.25      -999.25      0.00000      0.00000     36.00000    298.33620      1.19060
 43837.5292824074 12:42:10/07-Jan-2020   2564.01978     36.41000     53.72914      -999.25      -999.25      -999.25      -999.25     36.00000    294.54400      1.17546
 43837.5293981481 12:42:20/07-Jan-2020   2564.01978     36.41000     57.10361      -999.25      -999.25      -999.25      -999.25     36.00000    299.64620      1.19583
