~VERSION INFORMATION 
VERS  .    2.0                                     :CWLS Log ASCII Standard - VERSION 2.0
WRAP  .    NO                                      :One Line per Time step
PROD  .    Schlumberger Technology Corp.           :LAS Producer
PROG  .    Horizon LASWriter 9.2.113335.3100       :LAS Program name and version
SOURCE.    Run 2-TimeLogicalAcq                    :Run&Pass Information
CREA  .    12/11/2019                              :LAS Creation date {MM/DD/YYYY}
#--------------------------------------------------
~WELL INFORMATION 
#MNEM           .UNIT                      DATA            :DESCRIPTION
#----            ------          --------------            -----------------------------
STRT            .d               43803.0416666667          :START TIME(OLE Automation date)
STOP            .d               43803.8437500000          :STOP TIME(OLE Automation date)
STEP            .d                            0            :STEP TIME(10s in time)
NULL            .                       -999.25            :NULL VALUE
COMP            .                       Equinor            :COMPANY
WELL            .                        31/5-7            :WELL NAME
FLD             .                           Eos            :FIELD NAME
RIGN            .                 West Hercules            :Rig Name
RIGTYP          .                Semi-Submersible          :Rig Type
SON             .                     19SCA0085            :Service Order Number
SRVC            .                  Schlumberger            :SERVICE COMPANY
DATE            .                    12/04/2019            :LOG DATE(Composite Date for Composite LAP) (MM/DD/YYYY)
CLAB            .                       County:            :County Label
CNTY            .                                          :COUNTY
SLAB            .                                          :State/Province Label
STAT            .                                          :STATE or PROVINCE
PROV            .                                          :STATE or PROVINCE
CTRY            .                        Norway            :COUNTRY
CONT_REGION     .                        Europe            :Continent Region
SECT            .                                          :Section
TOWN            .                                          :Township
RANG            .                                          :Range
API             .                                          :API NUMBER
UWI             .                                          :UNIQUE WELL ID
LUL             .                Service Office            :Logging Unit Location
LUN             .                          A615            :Logging Unit Number
LOC             .                Norwegian North Sea       :FIELD LOCATION
FL1             .                Section: 8 1/2 in. pilot  :Field Location Line 1
FL2             .                Job no.: 19SCA0085        :Field Location Line 2
LATI            .deg             60° 34' 35.14" N          :LATITUDE
LONG            .deg             3° 26' 36.13" E           :LONGITUDE
PDAT            .                           MSL            :Local Permanent Datum
LMF             .                            DF            :Logging Measured From
APD             .m                        31.00            :Elevation of Depth Reference (LMF) Above Permanent Datum
EPD             .m                         0.00            :Elevation of Permanent Datum (PDAT) above Mean Sea Level
EKB             .m                      -999.25            :Elevation of Kelly Bushing Above Permanent Datum
EDF             .m                        31.00            :Elevation of Drill Floor Above Permanent Datum
EGL             .m                      -307.00            :Elevation of Ground Level Above Permanent Datum
ECF             .m                      -999.25            :Elevation of Casing Flange above Permanent Datum
#--------------------------------------------------
~CURVE INFORMATION
#MNEM           .UNIT                  API CODE            :DESCRIPTION
#----            ------          --------------            -----------------------------
TIME_1900       .d                                         :                                                        Time Index(OLE Automation date)
TIME            .s                                         :                                (10s)                   Time(hh mm ss/dd-MMM-yyyy)
DEPTH           .m                                         :(RT)    (DnMWorkflow)                                   Depth Index
GR              .gAPI                                      :(RT)    (DV6MT)                                         Gamma Ray
BLKP            .m                                         :(RT)    (DRILLING_SURFACE)                              Height of block above rig floor
STICK           .c/min                                     :(RT)    (TELE675)                                       Stick Slip Indicator
CRPM            .c/min                                     :(RT)    (TELE675)                                       Collar Rotational Speed
SHKRSK          .                                          :(RT)    (TELE675)                                       Shock Risk
SHKPK           .gn                                        :(RT)    (TELE675)                                       Shock Peak
ECD             .g/cm3                                     :(RM)    (DV6MT)                                         Equivalent Circulating Density
DHAT            .degC                                      :(RM)    (DV6MT)                                         Downhole Annulus Temperature
DHAP            .bar                                       :(RM)    (DV6MT)                                         Downhole Annulus Pressure
#-------------------------------------------------------------
#       TIME_1900                 TIME        DEPTH           GR         BLKP        STICK         CRPM       SHKRSK        SHKPK          ECD         DHAT         DHAP 
#                                       (DnMWorkfl)      (DV6MT)  (DRILLING_)    (TELE675)    (TELE675)    (TELE675)    (TELE675)      (DV6MT)      (DV6MT)      (DV6MT) 
#                                              (RT)         (RT)         (RT)         (RT)         (RT)         (RT)         (RT)         (RM)         (RM)         (RM) 
#                                (10s)                                                                                                                                   
~ASCII
# ...
 43803.6694444444 16:04:00/04-Dec-2019     942.1400      58.9495      16.7700      -999.25      -999.25      -999.25      -999.25       1.1612      16.0000     102.8008
 43803.6695601852 16:04:10/04-Dec-2019     941.1900      64.6641      17.6400      -999.25      -999.25      -999.25      -999.25       1.1673      16.0000     103.2835
 43803.6696759259 16:04:20/04-Dec-2019     941.8000      61.5762      16.8500      -999.25      -999.25      -999.25      -999.25       1.1608      16.0000     102.8698
 43803.6697916667 16:04:30/04-Dec-2019     942.6400      57.9444      16.1800      -999.25      -999.25      -999.25      -999.25       1.1685      16.0000     103.5593
 43803.6699074074 16:04:40/04-Dec-2019     942.0699      57.7289      16.8400      -999.25      -999.25      -999.25      -999.25       1.1711      16.0000     103.6971
 43803.6700231481 16:04:50/04-Dec-2019     942.3000      59.7449      16.4400      -999.25      -999.25      -999.25      -999.25       1.1682      16.0000     103.4903
 43803.6701388889 16:05:00/04-Dec-2019     942.7100      61.2863      16.1100      -999.25      -999.25       0.0000       0.0000       1.1679      16.0000     103.4903
 43803.6702546296 16:05:10/04-Dec-2019     942.3800      60.8057      16.4600      -999.25      -999.25      -999.25      -999.25       1.1689      16.0000     103.5593
 43803.6703703704 16:05:20/04-Dec-2019     942.8801      56.1809      15.8500      -999.25      -999.25      -999.25      -999.25       1.1728      16.0000     103.9729
 43803.6704861111 16:05:30/04-Dec-2019     942.8200      54.0861      16.0000      -999.25      95.0000      -999.25      -999.25       1.1636      16.0000     103.1456
 43803.6706018519 16:05:40/04-Dec-2019     942.8600      54.3792      15.9600      24.0000      -999.25      -999.25      -999.25       1.1676      16.0000     103.4903
 43803.6707175926 16:05:50/04-Dec-2019     942.9700      55.8866      15.9500      -999.25      -999.25      -999.25      -999.25       1.1642      16.0000     103.2145
 43803.6708333333 16:06:00/04-Dec-2019     942.6100      52.6906      16.1200      -999.25      -999.25      -999.25      -999.25       1.1558      16.0000     102.4561
 43803.6709490741 16:06:10/04-Dec-2019     943.4100      50.7348      15.4100      -999.25      -999.25      -999.25      -999.25       1.1590      16.0000     102.8008
 43803.6710648148 16:06:20/04-Dec-2019     943.3700      52.0392      15.4500      -999.25      -999.25      -999.25      -999.25       1.1703      16.0000     103.7661
 43803.6711805556 16:06:30/04-Dec-2019     942.8500      53.1943      15.9700      -999.25      -999.25      -999.25      -999.25       1.1706      16.0000     103.7661
 43803.6712962963 16:06:40/04-Dec-2019     943.4301      54.8637      15.3900      -999.25      -999.25      -999.25      -999.25       1.1696      16.0000     103.7661
 43803.6714120370 16:06:50/04-Dec-2019     943.4600      55.6539      15.3600      -999.25      -999.25      -999.25      -999.25       1.1589      16.0000     102.8008
 43803.6715277778 16:07:00/04-Dec-2019     943.5500      56.2316      15.2700      -999.25      -999.25       0.0000       0.0000       1.1666      16.0000     103.4903
 43803.6716435185 16:07:10/04-Dec-2019     943.4800      56.8519      15.3400      -999.25      -999.25      -999.25      -999.25       1.1605      16.0000     102.9387
 43803.6717592593 16:07:20/04-Dec-2019     943.5500      57.4012      15.2700      -999.25      -999.25      -999.25      -999.25       1.1650      16.0000     103.3524
 43803.6718750000 16:07:30/04-Dec-2019     943.6500      57.5748      15.1700      -999.25      94.0000      -999.25      -999.25       1.1701      16.0000     103.8350
 43803.6719907407 16:07:40/04-Dec-2019     943.4200      57.1455      15.4000      24.0000      -999.25      -999.25      -999.25       1.1652      16.0000     103.3524
 43803.6721064815 16:07:50/04-Dec-2019     943.6800      56.3492      15.1400      -999.25      -999.25      -999.25      -999.25       1.1635      16.0000     103.2835
 43803.6722222222 16:08:00/04-Dec-2019     944.1300      55.6214      14.6900      -999.25      -999.25      -999.25      -999.25       1.1612      16.0000     103.0766
 43803.6723379630 16:08:10/04-Dec-2019     944.0400      55.1186      14.7800      -999.25      -999.25      -999.25      -999.25       1.1639      16.0000     103.2835
 43803.6724537037 16:08:20/04-Dec-2019     944.0400      54.3958      14.7800      -999.25      -999.25      -999.25      -999.25       1.1605      16.0000     103.0077
 43803.6725694444 16:08:30/04-Dec-2019     944.2200      54.3958      14.6000      -999.25      -999.25      -999.25      -999.25       1.1681      16.0000     103.6971
 43803.6726851852 16:08:40/04-Dec-2019     943.9501      55.1186      14.8700      -999.25      -999.25      -999.25      -999.25       1.1661      16.0000     103.4903
 43803.6728009259 16:08:50/04-Dec-2019     943.9501      56.2658      14.8700      -999.25      -999.25      -999.25      -999.25       1.1617      16.0000     103.1456
 43803.6729166667 16:09:00/04-Dec-2019     944.3100      58.7538      14.5100      -999.25      -999.25       0.0000       0.0000       1.1540      16.0000     102.4561
 43803.6730324074 16:09:10/04-Dec-2019     944.3100      59.0367      14.5100      -999.25      -999.25      -999.25      -999.25       1.1625      16.0000     103.2145
 43803.6731481481 16:09:20/04-Dec-2019     944.1300      57.5166      14.6900      -999.25      95.0000      -999.25      -999.25       1.1915      16.0000     105.7656
 43803.6732638889 16:09:30/04-Dec-2019     943.9900      56.3357      14.8300      -999.25      -999.25      -999.25      -999.25       1.1404      16.0000     101.2150
 43803.6733796296 16:09:40/04-Dec-2019     943.9800      54.8156      14.8400      27.0000      -999.25      -999.25      -999.25       1.1381      16.0000     101.0082
 43803.6734953704 16:09:50/04-Dec-2019     943.8100      53.6965      15.0100      -999.25      -999.25      -999.25      -999.25       1.1748      16.0000     104.2487
 43803.6736111111 16:10:00/04-Dec-2019     943.8100      51.5528      15.0100      -999.25      -999.25      -999.25      -999.25       1.1787      16.0000     104.5935
 43803.6737268518 16:10:10/04-Dec-2019     943.8100      51.5952      15.0100      -999.25      -999.25      -999.25      -999.25       1.1538      16.0000     102.3871
 43803.6738425926 16:10:20/04-Dec-2019     943.8100      52.0245      15.0100      -999.25      -999.25      -999.25      -999.25       1.1616      16.0000     103.0766
 43803.6739583333 16:10:30/04-Dec-2019     943.8100      51.8509      15.0100      -999.25      -999.25      -999.25      -999.25       1.1460      16.0000     101.6977
 43803.6740740741 16:10:40/04-Dec-2019     943.8100      51.3016      15.0100      -999.25      -999.25      -999.25      -999.25       1.1600      16.0000     102.9387
 43803.6741898148 16:10:50/04-Dec-2019     943.8100      52.1471      15.0100      -999.25      -999.25       0.0000       0.0000       1.1647      16.0000     103.3524
 43803.6743055556 16:11:00/04-Dec-2019     943.8100      53.7476      15.0100      -999.25      -999.25      -999.25      -999.25       1.1639      16.0000     103.2835
 43803.6744212963 16:11:10/04-Dec-2019     943.8100      55.1152      15.0100      -999.25      -999.25      -999.25      -999.25       1.1445      16.0000     101.5598
 43803.6745370370 16:11:20/04-Dec-2019     943.8100      55.5894      15.0100      -999.25      95.0000      -999.25      -999.25       1.1600      16.0000     102.9387
 43803.6746527778 16:11:30/04-Dec-2019     943.8100      55.5663      15.0100      -999.25      -999.25      -999.25      -999.25       1.1740      16.0000     104.1798
 43803.6747685185 16:11:40/04-Dec-2019     943.8100      55.1399      15.0100      12.0000      -999.25      -999.25      -999.25       1.1577      16.0000     102.7319
 43803.6748842593 16:11:50/04-Dec-2019     943.8100      55.2342      15.0100      -999.25      -999.25      -999.25      -999.25       1.1857      16.0000     105.2140
