~VERSION INFORMATION 
VERS  .    2.0                                     :CWLS Log ASCII Standard - VERSION 2.0
WRAP  .    NO                                      :One Line per Time step
PROD  .    Schlumberger Technology Corp.           :LAS Producer
PROG  .    Horizon LASWriter 9.2.113335.3100       :LAS Program name and version
SOURCE.    Run 3-TimeLogicalAcq                    :Run&Pass Information
CREA  .    12/12/2019                              :LAS Creation date {MM/DD/YYYY}
#--------------------------------------------------
~WELL INFORMATION 
#MNEM           .UNIT                      DATA            :DESCRIPTION
#----            ------          --------------            -----------------------------
STRT            .d               43804.6875000000          :START TIME(OLE Automation date)
STOP            .d               43805.8541666667          :STOP TIME(OLE Automation date)
STEP            .d                            0            :STEP TIME(10s in time)
NULL            .                       -999.25            :NULL VALUE
COMP            .                       Equinor            :COMPANY
WELL            .                        31/5-7            :WELL NAME
FLD             .                           Eos            :FIELD NAME
RIGN            .                 West Hercules            :Rig Name
RIGTYP          .                Semi-Submersible          :Rig Type
SON             .                     19SCA0085            :Service Order Number
SRVC            .                  Schlumberger            :SERVICE COMPANY
DATE            .                    12/05/2019            :LOG DATE(Composite Date for Composite LAP) (MM/DD/YYYY)
CLAB            .                       County:            :County Label
CNTY            .                                          :COUNTY
SLAB            .                                          :State/Province Label
STAT            .                                          :STATE or PROVINCE
PROV            .                                          :STATE or PROVINCE
CTRY            .                        Norway            :COUNTRY
CONT_REGION     .                        Europe            :Continent Region
SECT            .                                          :Section
TOWN            .                                          :Township
RANG            .                                          :Range
API             .                                          :API NUMBER
UWI             .                                          :UNIQUE WELL ID
LUL             .                Service Office            :Logging Unit Location
LUN             .                          A615            :Logging Unit Number
LOC             .                Norwegian North Sea       :FIELD LOCATION
FL1             .                Section: 26 in.           :Field Location Line 1
FL2             .                Job no.: 19SCA0085        :Field Location Line 2
LATI            .deg             60° 34' 35.14" N          :LATITUDE
LONG            .deg             3° 26' 36.13" E           :LONGITUDE
PDAT            .                           MSL            :Local Permanent Datum
LMF             .                            DF            :Logging Measured From
APD             .m                        31.00            :Elevation of Depth Reference (LMF) Above Permanent Datum
EPD             .m                         0.00            :Elevation of Permanent Datum (PDAT) above Mean Sea Level
EKB             .m                      -999.25            :Elevation of Kelly Bushing Above Permanent Datum
EDF             .m                        31.00            :Elevation of Drill Floor Above Permanent Datum
EGL             .m                      -307.00            :Elevation of Ground Level Above Permanent Datum
ECF             .m                      -999.25            :Elevation of Casing Flange above Permanent Datum
#--------------------------------------------------
~CURVE INFORMATION
#MNEM           .UNIT                  API CODE            :DESCRIPTION
#----            ------          --------------            -----------------------------
TIME_1900       .d                                         :                                                        Time Index(OLE Automation date)
TIME            .s                                         :                                (10s)                   Time(hh mm ss/dd-MMM-yyyy)
DEPTH           .m                                         :(RT)    (DnMWorkflow)                                   Depth Index
GR_CAL          .gAPI                                      :(RT)    (ARC9)                                          Calibrated Gamma Ray
BLKP            .m                                         :(RT)    (DRILLING_SURFACE)                              Height of block above rig floor
CRPM            .c/min                                     :(RT)    (TELE900)                                       Collar Rotational Speed
STICK           .c/min                                     :(RT)    (TELE900)                                       Stick Slip Indicator
SHKPK           .gn                                        :(RT)    (TELE900)                                       Shock Peak
SHKRSK          .                                          :(RT)    (TELE900)                                       Shock Risk
DHAP            .bar                                       :(RM)    (ARC9)                                          Downhole Annulus Pressure
DHAT            .degC                                      :(RM)    (ARC9)                                          Downhole Annulus Temperature
ECD             .g/cm3                                     :(RM)    (ARC9)                                          Equivalent Circulating Density
#-------------------------------------------------------------
#       TIME_1900                 TIME        DEPTH       GR_CAL         BLKP         CRPM        STICK        SHKPK       SHKRSK         DHAP         DHAT          ECD 
#                                       (DnMWorkfl)       (ARC9)  (DRILLING_)    (TELE900)    (TELE900)    (TELE900)    (TELE900)       (ARC9)       (ARC9)       (ARC9) 
#                                              (RT)         (RT)         (RT)         (RT)         (RT)         (RT)         (RT)         (RM)         (RM)         (RM) 
#                                (10s)                                                                                                                                   
~ASCII
 43804.6875000000 16:30:00/05-Dec-2019     405.0000       8.1640      24.5500      -999.25      -999.25      -999.25      -999.25      37.0249      12.0000       1.0737
 43804.6876157407 16:30:10/05-Dec-2019     404.6800       8.5560      24.8700      -999.25      -999.25      -999.25      -999.25      37.0249      12.0000       1.0746
 43804.6877314815 16:30:20/05-Dec-2019     405.1000       8.4639      24.4500      57.0000      -999.25       0.0000       0.0000      37.0249      12.0000       1.0733
 43804.6878472222 16:30:30/05-Dec-2019     405.1100       7.8288      24.4400      -999.25     123.0000      -999.25      -999.25      37.0249      12.0000       1.0737
 43804.6879629630 16:30:40/05-Dec-2019     405.1100       8.2111      24.4400      -999.25      -999.25      -999.25      -999.25      36.9559      12.0000       1.0713
 43804.6880787037 16:30:50/05-Dec-2019     405.2900       9.6277      24.2600      -999.25      -999.25      -999.25      -999.25      37.0249      12.0000       1.0728
 43804.6881944444 16:31:00/05-Dec-2019     405.3000       8.6170      24.2500      50.0000      -999.25       0.0000       0.0000      37.0249      12.0000       1.0727
 43804.6883101852 16:31:10/05-Dec-2019     405.4100       8.2326      24.1400      -999.25     144.0000      -999.25      -999.25      37.0249      12.0000       1.0726
 43804.6884259259 16:31:20/05-Dec-2019     405.5200       8.6542      24.0300      -999.25      -999.25      -999.25      -999.25      36.9559      12.0000       1.0701
 43804.6885416667 16:31:30/05-Dec-2019     405.4400       8.6595      24.1100      -999.25      -999.25      -999.25      -999.25      37.0249      12.0000       1.0722
 43804.6886574074 16:31:40/05-Dec-2019     405.2500       8.5201      24.3000      -999.25      -999.25      -999.25      -999.25      37.0249      12.0000       1.0728
 43804.6887731481 16:31:50/05-Dec-2019     405.1600       8.2570      24.3900      57.0000     117.0000       0.0000       0.0000      37.0249      12.0000       1.0731
 43804.6888888889 16:32:00/05-Dec-2019     404.8800       7.7928      24.6700      -999.25      -999.25      -999.25      -999.25      36.9559      12.0000       1.0719
 43804.6890046296 16:32:10/05-Dec-2019     405.2500       7.4639      24.3000      -999.25      -999.25      -999.25      -999.25      37.0249      12.0000       1.0727
 43804.6891203704 16:32:20/05-Dec-2019     404.6000       7.5752      24.9500      -999.25      -999.25      -999.25      -999.25      37.0249      12.0000       1.0747
 43804.6892361111 16:32:30/05-Dec-2019     405.1600       8.0494      24.3900      52.0000      -999.25       0.0000       0.0000      37.0249      12.0000       1.0732
 43804.6893518518 16:32:40/05-Dec-2019     405.1600       8.4364      24.3900      -999.25     126.0000      -999.25      -999.25      37.0249      12.0000       1.0732
 43804.6894675926 16:32:50/05-Dec-2019     405.1600       8.5550      24.3900      -999.25      -999.25      -999.25      -999.25      37.0249      12.0000       1.0732
 43804.6895833333 16:33:00/05-Dec-2019     405.3200       6.3924      24.2200      -999.25      -999.25      -999.25      -999.25      37.0249      12.0000       1.0727
 43804.6896990741 16:33:10/05-Dec-2019     404.6900       6.4350      24.7600      48.0000      -999.25      -999.25      -999.25      37.0249      12.0000       1.0745
 43804.6898148148 16:33:20/05-Dec-2019     405.2500       6.8219      24.3000      -999.25      72.0000       0.0000       0.0000      36.9559      12.0000       1.0709
 43804.6899305556 16:33:30/05-Dec-2019     405.2500       7.3721      24.3900      -999.25      -999.25      -999.25      -999.25      36.9559      12.0000       1.0710
 43804.6900462963 16:33:40/05-Dec-2019     405.3500       7.8321      24.2000      -999.25      -999.25      -999.25      -999.25      37.0249      12.0000       1.0726
 43804.6901620370 16:33:50/05-Dec-2019     405.4400       8.6336      24.1100      -999.25      -999.25      -999.25      -999.25      37.0249      12.0000       1.0723
 43804.6902777778 16:34:00/05-Dec-2019     405.3600       9.4238      24.1000      49.0000      -999.25       0.0000       0.0000      37.0249      12.0000       1.0725
 43804.6903935185 16:34:10/05-Dec-2019     405.1800       9.2791      24.3700      -999.25     150.0000      -999.25      -999.25      37.0249      12.0000       1.0731
 43804.6905092593 16:34:20/05-Dec-2019     405.4000       9.7659      24.1500      -999.25      -999.25      -999.25      -999.25      37.0249      12.0000       1.0724
 43804.6906250000 16:34:30/05-Dec-2019     405.4400      11.5742      24.1100      -999.25      -999.25      -999.25      -999.25      37.0249      12.0000       1.0723
 43804.6907407407 16:34:40/05-Dec-2019     405.2500      11.5988      24.3000      49.0000      -999.25       0.0000       0.0000      37.0249      12.0000       1.0727
 43804.6908564815 16:34:50/05-Dec-2019     404.8800      11.2118      24.6700      -999.25      96.0000      -999.25      -999.25      37.0938      12.0000       1.0759
 43804.6909722222 16:35:00/05-Dec-2019     405.3500      10.5944      24.2000      -999.25      -999.25      -999.25      -999.25      37.0249      12.0000       1.0726
 43804.6910879630 16:35:10/05-Dec-2019     405.3800      11.2104      24.1700      -999.25      -999.25      -999.25      -999.25      37.0249      12.0000       1.0725
 43804.6912037037 16:35:20/05-Dec-2019     405.5700      11.6760      23.9800      -999.25      -999.25      -999.25      -999.25      37.0249      12.0000       1.0719
 43804.6913194444 16:35:30/05-Dec-2019     405.2500      11.9574      24.3000      51.0000     105.0000       0.0000       0.0000      37.0249      12.0000       1.0728
 43804.6914351852 16:35:40/05-Dec-2019     404.8800      12.4033      24.6700      -999.25      -999.25      -999.25      -999.25      37.0938      12.0000       1.0759
 43804.6915509259 16:35:50/05-Dec-2019     405.3700      13.1972      24.1800      -999.25      -999.25      -999.25      -999.25      37.0249      12.0000       1.0725
 43804.6916666667 16:36:00/05-Dec-2019     405.1900      12.7218      24.3600      -999.25      -999.25      -999.25      -999.25      37.0249      12.0000       1.0730
 43804.6917824074 16:36:10/05-Dec-2019     404.7500       7.6588      24.8500      54.0000      -999.25       0.0000       0.0000      36.9559      12.0000       1.0724
 43804.6918981481 16:36:20/05-Dec-2019     403.1300       5.7241      26.1400      -999.25      87.0000      -999.25      -999.25      36.9559      12.0000       1.0772
 43804.6920138889 16:36:30/05-Dec-2019     402.7800       7.8229      26.8200      -999.25      -999.25      -999.25      -999.25      36.8180      12.0000       1.0745
 43804.6921296296 16:36:40/05-Dec-2019     402.9600      10.0819      26.5900      -999.25      -999.25      -999.25      -999.25      36.7491      12.0000       1.0719
 43804.6922453704 16:36:50/05-Dec-2019     402.9200       9.2523      26.6400      53.0000      -999.25      -999.25      -999.25      36.8180      12.0000       1.0740
 43804.6923611111 16:37:00/05-Dec-2019     402.4600       9.1044      27.1100      -999.25      57.0000       0.0000       0.0000      36.8180      12.0000       1.0754
 43804.6924768519 16:37:10/05-Dec-2019     401.4200       9.7072      28.1900      -999.25      -999.25      -999.25      -999.25      36.6801      12.0000       1.0746
 43804.6925925926 16:37:20/05-Dec-2019     399.7800      11.1315      29.8400      -999.25      -999.25      -999.25      -999.25      36.4043      12.0000       1.0716
 43804.6927083333 16:37:30/05-Dec-2019     399.7300      11.5777      29.8100      -999.25      -999.25      -999.25      -999.25      36.4733      12.0000       1.0737
 43804.6928240741 16:37:40/05-Dec-2019     400.4000      11.2281      29.1100      53.0000      -999.25       0.0000       0.0000      36.4733      12.0000       1.0717
 43804.6929398148 16:37:50/05-Dec-2019     401.1200      10.8504      28.4100      -999.25      54.0000      -999.25      -999.25      36.5422      12.0000       1.0715
