~VERSION INFORMATION 
VERS  .    2.0                                     :CWLS Log ASCII Standard - VERSION 2.0
WRAP  .    NO                                      :One Line per Time step
PROD  .    Schlumberger Technology Corp.           :LAS Producer
PROG  .    Horizon LASWriter 9.2.113335.3100       :LAS Program name and version
SOURCE.    Run 2-TimeLogicalAcq                    :Run&Pass Information
CREA  .    12/11/2019                              :LAS Creation date {MM/DD/YYYY}
#--------------------------------------------------
~WELL INFORMATION 
#MNEM           .UNIT                      DATA            :DESCRIPTION
#----            ------          --------------            -----------------------------
STRT            .d               43803.0416666667          :START TIME(OLE Automation date)
STOP            .d               43803.8437500000          :STOP TIME(OLE Automation date)
STEP            .d                            0            :STEP TIME(10s in time)
NULL            .                       -999.25            :NULL VALUE
COMP            .                       Equinor            :COMPANY
WELL            .                        31/5-7            :WELL NAME
FLD             .                           Eos            :FIELD NAME
RIGN            .                 West Hercules            :Rig Name
RIGTYP          .                Semi-Submersible          :Rig Type
SON             .                     19SCA0085            :Service Order Number
SRVC            .                  Schlumberger            :SERVICE COMPANY
DATE            .                    12/04/2019            :LOG DATE(Composite Date for Composite LAP) (MM/DD/YYYY)
CLAB            .                       County:            :County Label
CNTY            .                                          :COUNTY
SLAB            .                                          :State/Province Label
STAT            .                                          :STATE or PROVINCE
PROV            .                                          :STATE or PROVINCE
CTRY            .                        Norway            :COUNTRY
CONT_REGION     .                        Europe            :Continent Region
SECT            .                                          :Section
TOWN            .                                          :Township
RANG            .                                          :Range
API             .                                          :API NUMBER
UWI             .                                          :UNIQUE WELL ID
LUL             .                Service Office            :Logging Unit Location
LUN             .                          A615            :Logging Unit Number
LOC             .                Norwegian North Sea       :FIELD LOCATION
FL1             .                Section: 8 1/2 in. pilot  :Field Location Line 1
FL2             .                Job no.: 19SCA0085        :Field Location Line 2
LATI            .deg             60° 34' 35.14" N          :LATITUDE
LONG            .deg             3° 26' 36.13" E           :LONGITUDE
PDAT            .                           MSL            :Local Permanent Datum
LMF             .                            DF            :Logging Measured From
APD             .m                        31.00            :Elevation of Depth Reference (LMF) Above Permanent Datum
EPD             .m                         0.00            :Elevation of Permanent Datum (PDAT) above Mean Sea Level
EKB             .m                      -999.25            :Elevation of Kelly Bushing Above Permanent Datum
EDF             .m                        31.00            :Elevation of Drill Floor Above Permanent Datum
EGL             .m                      -307.00            :Elevation of Ground Level Above Permanent Datum
ECF             .m                      -999.25            :Elevation of Casing Flange above Permanent Datum
#--------------------------------------------------
~CURVE INFORMATION
#MNEM           .UNIT                  API CODE            :DESCRIPTION
#----            ------          --------------            -----------------------------
TIME_1900       .d                                         :                                                        Time Index(OLE Automation date)
TIME            .s                                         :                                (10s)                   Time(hh mm ss/dd-MMM-yyyy)
DEPTH           .m                                         :(RT)    (DnMWorkflow)                                   Depth Index
GR              .gAPI                                      :(RT)    (DV6MT)                                         Gamma Ray
BLKP            .m                                         :(RT)    (DRILLING_SURFACE)                              Height of block above rig floor
STICK           .c/min                                     :(RT)    (TELE675)                                       Stick Slip Indicator
CRPM            .c/min                                     :(RT)    (TELE675)                                       Collar Rotational Speed
SHKRSK          .                                          :(RT)    (TELE675)                                       Shock Risk
SHKPK           .gn                                        :(RT)    (TELE675)                                       Shock Peak
ECD             .g/cm3                                     :(RM)    (DV6MT)                                         Equivalent Circulating Density
DHAT            .degC                                      :(RM)    (DV6MT)                                         Downhole Annulus Temperature
DHAP            .bar                                       :(RM)    (DV6MT)                                         Downhole Annulus Pressure
#-------------------------------------------------------------
#       TIME_1900                 TIME        DEPTH           GR         BLKP        STICK         CRPM       SHKRSK        SHKPK          ECD         DHAT         DHAP 
#                                       (DnMWorkfl)      (DV6MT)  (DRILLING_)    (TELE675)    (TELE675)    (TELE675)    (TELE675)      (DV6MT)      (DV6MT)      (DV6MT) 
#                                              (RT)         (RT)         (RT)         (RT)         (RT)         (RT)         (RT)         (RM)         (RM)         (RM) 
#                                (10s)                                                                                                                                   
~ASCII
# ...
 43803.1638888889 03:56:00/04-Dec-2019     523.7200      79.2381      11.8100      -999.25      -999.25      -999.25      -999.25       1.1385      13.0000      54.1238
 43803.1640046296 03:56:10/04-Dec-2019     523.7200      83.1629      11.8100      -999.25       0.0000      -999.25      -999.25       1.1138      13.0000      52.9517
 43803.1641203704 03:56:20/04-Dec-2019     523.7200      81.2835      11.8100      -999.25      -999.25      -999.25      -999.25       1.1298      13.0000      53.7102
 43803.1642361111 03:56:30/04-Dec-2019     523.7200      74.6427      11.8100     117.0000      -999.25      -999.25      -999.25       1.1167      13.0000      53.0896
 43803.1643518518 03:56:40/04-Dec-2019     523.7200      73.1224      11.8100      -999.25      -999.25      -999.25      -999.25       1.1196      13.0000      53.2275
 43803.1644675926 03:56:50/04-Dec-2019     523.7200      -999.25      11.8100      -999.25      -999.25      -999.25      -999.25       1.1196      13.0000      53.2275
 43803.1645833333 03:57:00/04-Dec-2019     523.7200      -999.25      11.8100      -999.25      -999.25      -999.25      -999.25       1.1399      13.0000      54.1928
 43803.1646990741 03:57:10/04-Dec-2019     523.7200      32.3970      11.8100      -999.25      -999.25      -999.25      -999.25       1.1370      13.0000      54.0549
 43803.1648148148 03:57:20/04-Dec-2019     523.7200      30.0653      11.8100      -999.25      -999.25      -999.25      -999.25       1.1457      -999.25      54.4686
 43803.1649305556 03:57:30/04-Dec-2019     523.7200      26.9658      11.8100      -999.25      -999.25      -999.25      -999.25       1.1196      -999.25      53.2275
 43803.1650462963 03:57:40/04-Dec-2019     523.7200      21.3108      11.8100      -999.25      -999.25      -999.25      -999.25       1.1240      13.0000      53.4344
 43803.1651620370 03:57:50/04-Dec-2019     523.7200      17.4460      11.8100      -999.25      -999.25      -999.25      -999.25       1.1196      13.0000      53.2275
 43803.1652777778 03:58:00/04-Dec-2019     523.7200      12.4237      11.8100      -999.25      -999.25      -999.25      -999.25       1.1269      13.0000      53.5723
 43803.1653935185 03:58:10/04-Dec-2019     523.7200       9.9821      11.8100      -999.25      -999.25      -999.25      -999.25       1.1298      13.0000      53.7102
 43803.1655092593 03:58:20/04-Dec-2019     523.7200       7.9744      11.8100      -999.25      -999.25       0.0000       0.0000       1.1501      13.0000      54.6754
 43803.1656250000 03:58:30/04-Dec-2019     523.7200       7.6744      11.8100      -999.25      -999.25      -999.25      -999.25       1.1559      13.0000      54.9512
 43803.1657407407 03:58:40/04-Dec-2019     523.7200       8.3317      11.8100      -999.25      -999.25      -999.25      -999.25       1.1762      13.0000      55.9165
 43803.1658564815 03:58:50/04-Dec-2019     523.7200       9.1259      11.8100      -999.25      -999.25      -999.25      -999.25       1.1588      13.0000      55.0891
 43803.1659722222 03:59:00/04-Dec-2019     523.7200      10.1820      11.8100      -999.25      -999.25      -999.25      -999.25       1.1849      13.0000      56.3302
 43803.1660879630 03:59:10/04-Dec-2019     523.7200      11.2273      11.8100      -999.25      -999.25      -999.25      -999.25       1.1820      13.0000      56.1923
 43803.1662037037 03:59:20/04-Dec-2019     523.7200      35.8267      11.8100      -999.25      -999.25      -999.25      -999.25       1.1907      13.0000      56.6060
 43803.1663194444 03:59:30/04-Dec-2019     523.7200      37.9053      11.8100      -999.25      -999.25      -999.25      -999.25       1.1979      13.0000      56.9507
 43803.1664351852 03:59:40/04-Dec-2019     523.7200      30.7310      11.8100      -999.25      -999.25      -999.25      -999.25       1.1921      13.0000      56.6749
 43803.1665509259 03:59:50/04-Dec-2019     523.7200      16.5758      11.8100      -999.25      -999.25      -999.25      -999.25       1.1994      13.0000      57.0196
 43803.1666666667 04:00:00/04-Dec-2019     524.1000       0.0000      11.3600      -999.25      -999.25      -999.25      -999.25       1.1752      13.0000      55.9165
 43803.1667824074 04:00:10/04-Dec-2019     525.1800      78.0013      10.4700      -999.25      -999.25      -999.25      -999.25       1.1642      13.0000      55.5028
 43803.1668981481 04:00:20/04-Dec-2019     525.1200      77.7909      10.4100      -999.25      -999.25      -999.25      -999.25       1.1525      13.0000      54.9512
 43803.1670138889 04:00:30/04-Dec-2019     525.1200      76.9277      10.4100      -999.25      -999.25      -999.25      -999.25       1.1465      13.0000      54.6754
 43803.1671296296 04:00:40/04-Dec-2019     525.2100      76.7906      10.3200      -999.25      -999.25      -999.25      -999.25       1.1639      13.0000      55.5028
 43803.1672453704 04:00:50/04-Dec-2019     525.4000      77.4828      10.2200      -999.25      -999.25      -999.25      -999.25       1.1602      13.0000      55.3649
 43803.1673611111 04:01:00/04-Dec-2019     525.6800      78.1000       9.8500      -999.25      -999.25      -999.25      -999.25       1.1657      13.0000      55.6407
 43803.1674768519 04:01:10/04-Dec-2019     525.9600      79.0661       9.6600      -999.25      -999.25       0.0000       0.0000       1.1633      13.0000      55.5717
 43803.1675925926 04:01:20/04-Dec-2019     525.9600      79.6382       9.5700      -999.25      -999.25      -999.25      -999.25       1.1563      13.0000      55.2270
 43803.1677083333 04:01:30/04-Dec-2019     526.2400      80.3610       9.3900      -999.25      96.0000      -999.25      -999.25       1.1578      13.0000      55.2960
 43803.1678240741 04:01:40/04-Dec-2019     526.8600      80.3610       8.7300      -999.25      -999.25      -999.25      -999.25       1.1715      13.0000      56.0544
 43803.1679398148 04:01:50/04-Dec-2019     526.6700      79.6382       8.8500      18.0000      -999.25      -999.25      -999.25       1.1653      13.0000      55.7096
 43803.1680555556 04:02:00/04-Dec-2019     526.6600      78.1553       8.8700      -999.25      -999.25      -999.25      -999.25       1.1561      13.0000      55.2960
 43803.1681712963 04:02:10/04-Dec-2019     527.1200      73.8130       8.5000      -999.25      -999.25      -999.25      -999.25       1.1620      13.0000      55.6407
 43803.1682870370 04:02:20/04-Dec-2019     527.3300      73.6155       8.2000      -999.25      -999.25      -999.25      -999.25       1.1819      13.0000      56.6060
 43803.1684027778 04:02:30/04-Dec-2019     527.4400      74.6943       8.0700      -999.25      -999.25      -999.25      -999.25       1.1805      13.0000      56.5370
 43803.1685185185 04:02:40/04-Dec-2019     527.6100      76.4400       7.9100      -999.25      -999.25      -999.25      -999.25       1.1797      13.0000      56.5370
 43803.1686342593 04:02:50/04-Dec-2019     527.7900      77.3954       7.7300      -999.25      -999.25      -999.25      -999.25       1.1838      13.0000      56.7439
 43803.1687500000 04:03:00/04-Dec-2019     528.1700      80.3442       7.4500      -999.25      -999.25       0.0000       0.0000       1.1842      13.0000      56.8128
 43803.1688657407 04:03:10/04-Dec-2019     528.5400      84.6215       6.9800      -999.25      -999.25      -999.25      -999.25       1.1721      13.0000      56.2612
 43803.1689814815 04:03:20/04-Dec-2019     528.9200      84.0471       6.7000      -999.25      -999.25      -999.25      -999.25       1.1681      13.0000      56.1233
 43803.1690972222 04:03:30/04-Dec-2019     529.1300      83.5565       6.3800      -999.25      95.0000      -999.25      -999.25       1.1691      13.0000      56.1923
 43803.1692129630 04:03:40/04-Dec-2019     529.4200      83.7914       6.0900      -999.25      -999.25      -999.25      -999.25       1.1711      13.0000      56.3302
 43803.1693287037 04:03:50/04-Dec-2019     529.6400      84.6215       5.8900      27.0000      -999.25      -999.25      -999.25       1.1823      13.0000      56.8818
