~VERSION INFORMATION 
VERS  .    2.0                                     :CWLS Log ASCII Standard - VERSION 2.0
WRAP  .    NO                                      :One Line per Time step
PROD  .    Schlumberger Technology Corp.           :LAS Producer
PROG  .    Horizon LASWriter 9.2.113335.3100       :LAS Program name and version
SOURCE.    Run 12-TimeLogicalAcq                   :Run&Pass Information
CREA  .    01/21/2020                              :LAS Creation date {MM/DD/YYYY}
#--------------------------------------------------
~WELL INFORMATION 
#MNEM           .UNIT                      DATA            :DESCRIPTION
#----            ------          --------------            -----------------------------
STRT            .d               43837.2295138889          :START TIME(OLE Automation date)
STOP            .d               43837.6875000000          :STOP TIME(OLE Automation date)
STEP            .d                            0            :STEP TIME(10s in time)
NULL            .                       -999.25            :NULL VALUE
COMP            .                       Equinor            :COMPANY
WELL            .                        31/5-7            :WELL NAME
FLD             .                           Eos            :FIELD NAME
RIGN            .                 West Hercules            :Rig Name
RIGTYP          .                Semi-Submersible          :Rig Type
SON             .                     19SCA0085            :Service Order Number
SRVC            .                  Schlumberger            :SERVICE COMPANY
DATE            .                    01/07/2020            :LOG DATE(Composite Date for Composite LAP) (MM/DD/YYYY)
CLAB            .                       County:            :County Label
CNTY            .                                          :COUNTY
SLAB            .                                          :State/Province Label
STAT            .                                          :STATE or PROVINCE
PROV            .                                          :STATE or PROVINCE
CTRY            .                        Norway            :COUNTRY
CONT_REGION     .                        Europe            :Continent Region
SECT            .                                          :Section
TOWN            .                                          :Township
RANG            .                                          :Range
API             .                                          :API NUMBER
UWI             .                                          :UNIQUE WELL ID
LUL             .                Service Office            :Logging Unit Location
LUN             .                          A615            :Logging Unit Number
LOC             .                Norwegian North Sea       :FIELD LOCATION
FL1             .                Section: 8 1/2 in.        :Field Location Line 1
FL2             .                Job no.: 19SCA0085        :Field Location Line 2
LATI            .deg             60° 34' 35.14" N          :LATITUDE
LONG            .deg             3° 26' 36.13" E           :LONGITUDE
PDAT            .                           MSL            :Local Permanent Datum
LMF             .                            DF            :Logging Measured From
APD             .m                        31.00            :Elevation of Depth Reference (LMF) Above Permanent Datum
EPD             .m                         0.00            :Elevation of Permanent Datum (PDAT) above Mean Sea Level
EKB             .m                      -999.25            :Elevation of Kelly Bushing Above Permanent Datum
EDF             .m                        31.00            :Elevation of Drill Floor Above Permanent Datum
EGL             .m                      -307.00            :Elevation of Ground Level Above Permanent Datum
ECF             .m                      -999.25            :Elevation of Casing Flange above Permanent Datum
#--------------------------------------------------
~CURVE INFORMATION
#MNEM           .UNIT                  API CODE            :DESCRIPTION
#----            ------          --------------            -----------------------------
TIME_1900       .d                                         :                                                        Time Index(OLE Automation date)
TIME            .s                                         :                                (10s)                   Time(hh mm ss/dd-MMM-yyyy)
DEPTH           .m                                         :(RT)    (DnMWorkflow)                                   Depth Index
BLKP            .m                                         :(RT)    (DRILLING_SURFACE)                              Height of block above rig floor
GR              .gAPI                                      :(RT)    (ARC6)                                          Gamma Ray
CRPM            .c/min                                     :(RT)    (TELE675)                                       Collar Rotational Speed
STICK           .c/min                                     :(RT)    (TELE675)                                       Stick Slip Indicator
SHKRSK          .                                          :(RT)    (TELE675)                                       Shock Risk
SHKPK           .gn                                        :(RT)    (TELE675)                                       Shock Peak
DHAT            .degC                                      :(RM)    (ARC6)                                          Downhole Annulus Temperature
DHAP            .bar                                       :(RM)    (ARC6)                                          Downhole Annulus Pressure
ECD             .g/cm3                                     :(RM)    (ARC6)                                          Equivalent Circulating Density
#-------------------------------------------------------------
#       TIME_1900                 TIME        DEPTH         BLKP           GR         CRPM        STICK       SHKRSK        SHKPK         DHAT         DHAP          ECD 
#                                       (DnMWorkfl)  (DRILLING_)       (ARC6)    (TELE675)    (TELE675)    (TELE675)    (TELE675)       (ARC6)       (ARC6)       (ARC6) 
#                                              (RT)         (RT)         (RT)         (RT)         (RT)         (RT)         (RT)         (RM)         (RM)         (RM) 
#                                (10s)                                                                                                                                   
~ASCII
# ...
 43837.3684027778 08:50:30/07-Jan-2020   2656.59009     22.85000     62.97504     56.00000      -999.25      -999.25      -999.25     44.00000    312.67720      1.20421
 43837.3685185185 08:50:40/07-Jan-2020   2656.81006     22.63000     66.12758      -999.25    186.00000      0.00000      0.00000     44.00000    310.05720      1.19401
 43837.3686342593 08:50:50/07-Jan-2020   2656.86011     22.58000     69.28011      -999.25      -999.25      -999.25      -999.25     44.00000    311.50510      1.19957
 43837.3687500000 08:51:00/07-Jan-2020   2656.81982     22.62000     71.43174      -999.25      -999.25      -999.25      -999.25     44.00000    313.71150      1.20808
 43837.3688657407 08:51:10/07-Jan-2020   2657.21997     22.22000     69.23438      -999.25      -999.25      -999.25      -999.25     44.00000    309.85040      1.19303
 43837.3689814815 08:51:20/07-Jan-2020   2657.36011     22.08000     66.60597     62.00000      -999.25      -999.25      -999.25     44.00000    310.26410      1.19456
 43837.3690972222 08:51:30/07-Jan-2020   2657.48999     21.95000     65.12035      -999.25    147.00000      -999.25      -999.25     44.00000    309.43670      1.19132
 43837.3692129630 08:51:40/07-Jan-2020   2657.44995     21.99000     66.76315      -999.25      -999.25      0.00000      0.00000     44.00000    312.19460      1.20194
 43837.3693287037 08:51:50/07-Jan-2020   2657.66992     21.77000     71.01283      -999.25      -999.25      -999.25      -999.25     44.00000    312.19460      1.20185
 43837.3694444444 08:52:00/07-Jan-2020   2657.90015     21.54000     72.50478      -999.25      -999.25      -999.25      -999.25     44.00000    310.12620      1.19379
 43837.3695601852 08:52:10/07-Jan-2020   2657.93994     21.50000     69.64514      -999.25      -999.25      -999.25      -999.25     44.00000    309.98830      1.19324
 43837.3696759259 08:52:20/07-Jan-2020   2658.08008     21.36000     66.41769     62.00000      -999.25      -999.25      -999.25     44.00000    311.84990      1.20034
 43837.3697916667 08:52:30/07-Jan-2020   2658.38989     21.05000     61.68890      -999.25    135.00000      0.00000      0.00000     44.00000    309.02300      1.18932
 43837.3699074074 08:52:40/07-Jan-2020   2658.52979     20.91000     56.96009      -999.25      -999.25      -999.25      -999.25     44.00000    310.74670      1.19589
 43837.3700231481 08:52:50/07-Jan-2020   2658.74976     20.69000     53.73266      -999.25      -999.25      -999.25      -999.25     44.00000    308.12670      1.18571
 43837.3701388889 08:53:00/07-Jan-2020   2658.70996     20.73000     57.30301      -999.25      -999.25      -999.25      -999.25     44.00000    310.40200      1.19448
 43837.3702546296 08:53:10/07-Jan-2020   2658.84009     20.60000     55.96881     62.00000      -999.25      -999.25      -999.25     44.00000    313.09090      1.20477
 43837.3703703704 08:53:20/07-Jan-2020   2659.07007     20.37000     50.33713      -999.25     78.00000      -999.25      -999.25     43.00000    311.71200      1.19936
 43837.3704861111 08:53:30/07-Jan-2020   2659.03003     20.41000     47.05151      -999.25      -999.25      0.00000      0.00000     43.00000    312.53940      1.20257
 43837.3706018519 08:53:40/07-Jan-2020   2659.07007     20.45000     47.15511      -999.25      -999.25      -999.25      -999.25     43.00000    310.88460      1.19619
 43837.3707175926 08:53:50/07-Jan-2020   2659.47998     20.05000     48.77774      -999.25      -999.25      -999.25      -999.25     43.00000    310.05720      1.19283
 43837.3708333333 08:54:00/07-Jan-2020   2659.61011     19.82000     50.66971      -999.25      -999.25      -999.25      -999.25     43.00000    310.40200      1.19408
 43837.3709490741 08:54:10/07-Jan-2020   2659.66016     19.78000     51.44983     63.00000      -999.25      -999.25      -999.25     43.00000    309.85040      1.19194
 43837.3710648148 08:54:20/07-Jan-2020   2659.88989     19.55000     51.87593      -999.25    147.00000      0.00000      0.00000     43.00000    310.60880      1.19475
 43837.3711805556 08:54:30/07-Jan-2020   2660.02002     19.42000     51.44983      -999.25      -999.25      -999.25      -999.25     43.00000    310.81570      1.19549
 43837.3712962963 08:54:40/07-Jan-2020   2660.23999     19.19000     50.66971      -999.25      -999.25      -999.25      -999.25     43.00000    309.91930      1.19194
 43837.3714120370 08:54:50/07-Jan-2020   2660.19995     19.14000     52.07212      -999.25      -999.25      -999.25      -999.25     43.00000    312.26360      1.20096
 43837.3715277778 08:55:00/07-Jan-2020   2660.52002     18.92000     53.22243     59.00000      -999.25      -999.25      -999.25     43.00000    309.50570      1.19022
 43837.3716435185 08:55:10/07-Jan-2020   2660.65015     18.79000     53.72482      -999.25     72.00000      -999.25      -999.25     43.00000    311.36720      1.19732
 43837.3717592593 08:55:20/07-Jan-2020   2660.52002     18.91000     53.64027      -999.25      -999.25      0.00000      0.00000     43.00000    313.84940      1.20693
 43837.3718750000 08:55:30/07-Jan-2020   2660.92017     18.52000     52.99560      -999.25      -999.25      -999.25      -999.25     43.00000    310.67780      1.19455
 43837.3719907407 08:55:40/07-Jan-2020   2661.06006     18.38000     53.01362      -999.25      -999.25      -999.25      -999.25     43.00000    309.50570      1.18998
 43837.3721064815 08:55:50/07-Jan-2020   2661.09985     18.34000     53.29573      -999.25      -999.25      -999.25      -999.25     43.00000    311.02250      1.19579
 43837.3722222222 08:56:00/07-Jan-2020   2660.87988     18.56000     52.57882     65.00000      -999.25      -999.25      -999.25     43.00000    314.40090      1.20887
 43837.3723379630 08:56:10/07-Jan-2020   2661.28003     18.16000     52.57882      -999.25     60.00000      0.00000      0.00000     43.00000    311.36720      1.19704
 43837.3724537037 08:56:20/07-Jan-2020   2661.51001     17.93000     53.29573      -999.25      -999.25      -999.25      -999.25     43.00000    313.02200      1.20328
 43837.3725694444 08:56:30/07-Jan-2020   2661.47021     17.97000     54.12503      -999.25      -999.25      -999.25      -999.25     43.00000    313.09090      1.20358
 43837.3726851852 08:56:40/07-Jan-2020   2661.86987     17.57000     53.69514      -999.25      -999.25      -999.25      -999.25     43.00000    311.22930      1.19624
 43837.3728009259 08:56:50/07-Jan-2020   2662.01001     17.43000     49.49888     74.00000      -999.25      -999.25      -999.25     43.00000    309.64360      1.19009
 43837.3729166667 08:57:00/07-Jan-2020   2662.13989     17.30000     46.21823      -999.25     81.00000      -999.25      -999.25     43.00000    311.98780      1.19904
 43837.3730324074 08:57:10/07-Jan-2020   2662.27002     17.17000     46.34635      -999.25      -999.25      0.00000      0.00000     43.00000    311.36720      1.19659
 43837.3731481481 08:57:20/07-Jan-2020   2662.41016     17.03000     48.39098      -999.25      -999.25      -999.25      -999.25     43.00000    309.71250      1.19017
 43837.3732638889 08:57:30/07-Jan-2020   2662.55005     16.89000     49.49691      -999.25      -999.25      -999.25      -999.25     43.00000    311.02250      1.19514
 43837.3733796296 08:57:40/07-Jan-2020   2662.68018     16.76000     50.86181      -999.25      -999.25      -999.25      -999.25     43.00000    311.98780      1.19879
 43837.3734953704 08:57:50/07-Jan-2020   2662.82007     16.62000     53.62585     74.00000      -999.25      -999.25      -999.25     43.00000    310.47090      1.19290
 43837.3736111111 08:58:00/07-Jan-2020   2662.77002     16.67000     56.91148      -999.25    303.00000      0.00000      0.00000     43.00000    311.16040      1.19557
 43837.3737268519 08:58:10/07-Jan-2020   2662.90991     16.53000     59.67552      -999.25      -999.25      -999.25      -999.25     43.00000    310.05720      1.19127
 43837.3738425926 08:58:20/07-Jan-2020   2663.13989     16.30000     58.61549      -999.25      -999.25      -999.25      -999.25     42.00000    310.88460      1.19434
