~VERSION INFORMATION 
VERS  .    2.0                                     :CWLS Log ASCII Standard - VERSION 2.0
WRAP  .    NO                                      :One Line per Time step
PROD  .    Schlumberger Technology Corp.           :LAS Producer
PROG  .    Horizon LASWriter 9.2.113335.3100       :LAS Program name and version
SOURCE.    Run 9-TimeLogicalAcq                    :Run&Pass Information
CREA  .    01/21/2020                              :LAS Creation date {MM/DD/YYYY}
#--------------------------------------------------
~WELL INFORMATION 
#MNEM           .UNIT                      DATA            :DESCRIPTION
#----            ------          --------------            -----------------------------
STRT            .d               43828.3333333334          :START TIME(OLE Automation date)
STOP            .d               43829.1041666667          :STOP TIME(OLE Automation date)
STEP            .d                            0            :STEP TIME(10s in time)
NULL            .                       -999.25            :NULL VALUE
COMP            .                       Equinor            :COMPANY
WELL            .                        31/5-7            :WELL NAME
FLD             .                           Eos            :FIELD NAME
RIGN            .                 West Hercules            :Rig Name
RIGTYP          .                Semi-Submersible          :Rig Type
SON             .                     19SCA0085            :Service Order Number
SRVC            .                  Schlumberger            :SERVICE COMPANY
DATE            .                    12/29/2019            :LOG DATE(Composite Date for Composite LAP) (MM/DD/YYYY)
CLAB            .                       County:            :County Label
CNTY            .                                          :COUNTY
SLAB            .                                          :State/Province Label
STAT            .                                          :STATE or PROVINCE
PROV            .                                          :STATE or PROVINCE
CTRY            .                        Norway            :COUNTRY
CONT_REGION     .                        Europe            :Continent Region
SECT            .                                          :Section
TOWN            .                                          :Township
RANG            .                                          :Range
API             .                                          :API NUMBER
UWI             .                                          :UNIQUE WELL ID
LUL             .                Service Office            :Logging Unit Location
LUN             .                          A615            :Logging Unit Number
LOC             .                Norwegian North Sea       :FIELD LOCATION
FL1             .                Section: 8 1/2 in.        :Field Location Line 1
FL2             .                Job no.: 19SCA0085        :Field Location Line 2
LATI            .deg             60° 34' 35.14" N          :LATITUDE
LONG            .deg             3° 26' 36.13" E           :LONGITUDE
PDAT            .                           MSL            :Local Permanent Datum
LMF             .                            DF            :Logging Measured From
APD             .m                        31.00            :Elevation of Depth Reference (LMF) Above Permanent Datum
EPD             .m                         0.00            :Elevation of Permanent Datum (PDAT) above Mean Sea Level
EKB             .m                      -999.25            :Elevation of Kelly Bushing Above Permanent Datum
EDF             .m                        31.00            :Elevation of Drill Floor Above Permanent Datum
EGL             .m                      -307.00            :Elevation of Ground Level Above Permanent Datum
ECF             .m                      -999.25            :Elevation of Casing Flange above Permanent Datum
#--------------------------------------------------
~CURVE INFORMATION
#MNEM           .UNIT                  API CODE            :DESCRIPTION
#----            ------          --------------            -----------------------------
TIME_1900       .d                                         :                                                        Time Index(OLE Automation date)
TIME            .s                                         :                                (10s)                   Time(hh mm ss/dd-MMM-yyyy)
DEPTH           .m                                         :(RT)    (DnMWorkflow)                                   Depth Index
BLKP            .m                                         :(RT)    (DRILLING_SURFACE)                              Height of block above rig floor
GR              .gAPI                                      :(RT)    (ARC6)                                          Gamma Ray
CRPM            .c/min                                     :(RT)    (TELE675)                                       Collar Rotational Speed
STICK           .c/min                                     :(RT)    (TELE675)                                       Stick Slip Indicator
SHKRSK          .                                          :(RT)    (TELE675)                                       Shock Risk
SHKPK           .gn                                        :(RT)    (TELE675)                                       Shock Peak
DHAT            .degC                                      :(RM)    (ARC6)                                          Downhole Annulus Temperature
DHAP            .bar                                       :(RM)    (ARC6)                                          Downhole Annulus Pressure
ECD             .g/cm3                                     :(RM)    (ARC6)                                          Equivalent Circulating Density
#-------------------------------------------------------------
#       TIME_1900                 TIME        DEPTH         BLKP           GR         CRPM        STICK       SHKRSK        SHKPK         DHAT         DHAP          ECD 
#                                       (DnMWorkfl)  (DRILLING_)       (ARC6)    (TELE675)    (TELE675)    (TELE675)    (TELE675)       (ARC6)       (ARC6)       (ARC6) 
#                                              (RT)         (RT)         (RT)         (RT)         (RT)         (RT)         (RT)         (RM)         (RM)         (RM) 
#                                (10s)                                                                                                                                   
~ASCII
# ...
 43829.0111111111 00:16:00/30-Dec-2019   2577.68994     24.40000      -999.25      -999.25      -999.25      -999.25      -999.25     40.00000    288.82140      1.14648
 43829.0112268519 00:16:10/30-Dec-2019   2577.68994     24.41000      -999.25      -999.25      -999.25      -999.25      -999.25     40.00000    290.13140      1.15168
 43829.0113425926 00:16:20/30-Dec-2019   2577.27002     24.84000      -999.25      -999.25      -999.25      -999.25      -999.25     40.00000    291.92400      1.15897
 43829.0114583333 00:16:30/30-Dec-2019   2577.15015     24.94000      -999.25      -999.25      -999.25      -999.25      -999.25     40.00000    292.40670      1.16096
 43829.0115740741 00:16:40/30-Dec-2019   2577.15015     25.03000      -999.25      -999.25      -999.25      -999.25      -999.25     40.00000    287.64930      1.14207
 43829.0116898148 00:16:50/30-Dec-2019   2577.05981     25.03000      -999.25      -999.25      -999.25      -999.25      -999.25     40.00000    287.64930      1.14211
 43829.0118055556 00:17:00/30-Dec-2019   2577.23999     24.85000      -999.25      -999.25      -999.25      -999.25      -999.25     40.00000    288.68350      1.14614
 43829.0119212963 00:17:10/30-Dec-2019   2577.05981     24.94000      -999.25      -999.25      -999.25      -999.25      -999.25     40.00000    292.26880      1.16045
 43829.0120370370 00:17:20/30-Dec-2019   2577.15015     24.94000      -999.25      -999.25      -999.25      -999.25      -999.25     40.00000    292.13090      1.15986
 43829.0121527778 00:17:30/30-Dec-2019   2577.15015     24.94000      -999.25      -999.25      -999.25      -999.25      -999.25     40.00000    292.54460      1.16150
 43829.0122685185 00:17:40/30-Dec-2019   2577.15015     24.94000      -999.25      -999.25      -999.25      -999.25      -999.25     40.00000    290.75190      1.15439
 43829.0123842593 00:17:50/30-Dec-2019   2577.15015     24.94000      -999.25      -999.25      -999.25      -999.25      -999.25     40.00000    288.68350      1.14617
 43829.0125000000 00:18:00/30-Dec-2019   2577.15015     24.94000      -999.25      -999.25      -999.25      -999.25      -999.25     40.00000    291.37240      1.15685
 43829.0126157407 00:18:10/30-Dec-2019   2577.15015     24.94000      -999.25      -999.25      -999.25      -999.25      -999.25     40.00000    291.09670      1.15575
 43829.0127314815 00:18:20/30-Dec-2019   2577.15015     24.94000      -999.25      -999.25      -999.25      -999.25      -999.25     40.00000    291.92400      1.15904
 43829.0128472222 00:18:30/30-Dec-2019   2577.15015     24.94000      -999.25      -999.25      -999.25      -999.25      -999.25     40.00000    291.57930      1.15767
 43829.0129629630 00:18:40/30-Dec-2019   2576.86987     25.22000      -999.25      -999.25      -999.25      -999.25      -999.25     40.00000    290.20030      1.15232
 43829.0130787037 00:18:50/30-Dec-2019   2577.15015     24.94000      -999.25      -999.25      -999.25      -999.25      -999.25     40.00000    288.06300      1.14371
 43829.0131944444 00:19:00/30-Dec-2019   2576.95996     25.13000      -999.25      -999.25      -999.25      -999.25      -999.25     40.00000    288.61450      1.14599
 43829.0133101852 00:19:10/30-Dec-2019   2577.23999     24.94000      -999.25      -999.25      -999.25      -999.25      -999.25     40.00000    289.44190      1.14910
 43829.0134259259 00:19:20/30-Dec-2019   2577.34009     24.75000      -999.25      -999.25      -999.25      -999.25      -999.25     40.00000    293.57880      1.16552
 43829.0135416667 00:19:30/30-Dec-2019   2577.05981     24.94000      -999.25      -999.25      -999.25      -999.25      -999.25     40.00000    291.78610      1.15849
 43829.0136574074 00:19:40/30-Dec-2019   2577.15015     24.94000      -999.25      -999.25      -999.25      -999.25      -999.25     40.00000    290.75190      1.15439
 43829.0137731481 00:19:50/30-Dec-2019   2577.23999     24.85000      -999.25      -999.25      -999.25      -999.25      -999.25     40.00000    293.09610      1.16365
 43829.0138888889 00:20:00/30-Dec-2019   2577.84985     24.27000      -999.25      -999.25      -999.25      -999.25      -999.25     40.00000    292.61350      1.16153
 43829.0140046296 00:20:10/30-Dec-2019   2578.14014     24.06000      -999.25      -999.25      -999.25      -999.25      -999.25     40.00000    289.85560      1.15039
 43829.0141203704 00:20:20/30-Dec-2019   2577.29004     24.80000      -999.25      -999.25      -999.25      -999.25      -999.25     40.00000    290.88980      1.15487
 43829.0142361111 00:20:30/30-Dec-2019   2577.27979     24.81000      -999.25      -999.25      -999.25      -999.25      -999.25     40.00000    293.23400      1.16418
 43829.0143518519 00:20:40/30-Dec-2019   2577.27979     24.81000      -999.25      -999.25      -999.25      -999.25      -999.25     40.00000    291.92400      1.15898
 43829.0144675926 00:20:50/30-Dec-2019   2577.27979     24.81000      -999.25      -999.25      -999.25      -999.25      -999.25     40.00000    294.40610      1.16883
 43829.0145833333 00:21:00/30-Dec-2019   2577.27979     24.81000      -999.25      -999.25      -999.25      -999.25      -999.25     40.00000    293.57880      1.16555
 43829.0146990741 00:21:10/30-Dec-2019   2577.27979     24.81000      -999.25      -999.25      -999.25      -999.25      -999.25     40.00000    294.95770      1.17102
 43829.0148148148 00:21:20/30-Dec-2019   2577.27979     24.81000      -999.25      -999.25      -999.25      -999.25      -999.25     40.00000    286.68400      1.13818
 43829.0149305556 00:21:30/30-Dec-2019   2577.27979     24.81000      -999.25      -999.25      -999.25      -999.25      -999.25     40.00000    286.54610      1.13763
 43829.0150462963 00:21:40/30-Dec-2019   2577.27979     24.81000      -999.25      -999.25      -999.25      -999.25      -999.25     40.00000    293.16510      1.16391
 43829.0151620370 00:21:50/30-Dec-2019   2577.27979     24.81000      -999.25      -999.25      -999.25      -999.25      -999.25     40.00000    288.95930      1.14721
 43829.0152777778 00:22:00/30-Dec-2019   2577.27979     24.81000      -999.25      -999.25      -999.25      -999.25      -999.25     40.00000    288.47660      1.14529
 43829.0153935185 00:22:10/30-Dec-2019   2577.27979     24.81000      -999.25      -999.25      -999.25      -999.25      -999.25     40.00000    291.37240      1.15679
 43829.0155092593 00:22:20/30-Dec-2019   2577.27979     24.81000      -999.25      -999.25      -999.25      -999.25      -999.25     40.00000    291.51030      1.15734
 43829.0156250000 00:22:30/30-Dec-2019   2577.27979     24.81000      -999.25      -999.25      -999.25      -999.25      -999.25     41.00000    289.51090      1.14940
 43829.0157407407 00:22:40/30-Dec-2019   2577.27979     24.81000      -999.25      -999.25      -999.25      -999.25      -999.25     41.00000    289.85560      1.15077
 43829.0158564815 00:22:50/30-Dec-2019   2577.27979     24.81000      -999.25      -999.25      -999.25      -999.25      -999.25     41.00000    291.02770      1.15542
 43829.0159722222 00:23:00/30-Dec-2019   2577.27979     24.81000      -999.25      -999.25      -999.25      -999.25      -999.25     41.00000    292.19980      1.16008
 43829.0160879630 00:23:10/30-Dec-2019   2577.27979     24.81000      -999.25      -999.25      -999.25      -999.25      -999.25     41.00000    296.33670      1.17650
 43829.0162037037 00:23:20/30-Dec-2019   2577.27979     24.81000      -999.25      -999.25      -999.25      -999.25      -999.25     41.00000    294.26820      1.16829
 43829.0163194444 00:23:30/30-Dec-2019   2577.27979     24.81000      -999.25      -999.25      -999.25      -999.25      -999.25     41.00000    295.02670      1.17130
 43829.0164351852 00:23:40/30-Dec-2019   2577.27979     24.81000      -999.25      -999.25      -999.25      -999.25      -999.25     41.00000    295.64720      1.17376
 43829.0165509259 00:23:50/30-Dec-2019   2577.27979     24.81000      -999.25      -999.25      -999.25      -999.25      -999.25     41.00000    294.26820      1.16829
