~VERSION INFORMATION 
VERS  .    2.0                                     :CWLS Log ASCII Standard - VERSION 2.0
WRAP  .    NO                                      :One Line per Time step
PROD  .    Schlumberger Technology Corp.           :LAS Producer
PROG  .    Horizon LASWriter 9.2.113335.3100       :LAS Program name and version
SOURCE.    Run 10-TimeLogicalAcq                   :Run&Pass Information
CREA  .    01/21/2020                              :LAS Creation date {MM/DD/YYYY}
#--------------------------------------------------
~WELL INFORMATION 
#MNEM           .UNIT                      DATA            :DESCRIPTION
#----            ------          --------------            -----------------------------
STRT            .d               43830.7500000000          :START TIME(OLE Automation date)
STOP            .d               43831.2291666667          :STOP TIME(OLE Automation date)
STEP            .d                            0            :STEP TIME(10s in time)
NULL            .                       -999.25            :NULL VALUE
COMP            .                       Equinor            :COMPANY
WELL            .                        31/5-7            :WELL NAME
FLD             .                           Eos            :FIELD NAME
RIGN            .                 West Hercules            :Rig Name
RIGTYP          .                Semi-Submersible          :Rig Type
SON             .                     19SCA0085            :Service Order Number
SRVC            .                  Schlumberger            :SERVICE COMPANY
DATE            .                    12/31/2019            :LOG DATE(Composite Date for Composite LAP) (MM/DD/YYYY)
CLAB            .                       County:            :County Label
CNTY            .                                          :COUNTY
SLAB            .                                          :State/Province Label
STAT            .                                          :STATE or PROVINCE
PROV            .                                          :STATE or PROVINCE
CTRY            .                        Norway            :COUNTRY
CONT_REGION     .                        Europe            :Continent Region
SECT            .                                          :Section
TOWN            .                                          :Township
RANG            .                                          :Range
API             .                                          :API NUMBER
UWI             .                                          :UNIQUE WELL ID
LUL             .                Service Office            :Logging Unit Location
LUN             .                          A615            :Logging Unit Number
LOC             .                Norwegian North Sea       :FIELD LOCATION
FL1             .                Section: 8 1/2 in.        :Field Location Line 1
FL2             .                Job no.: 19SCA0085        :Field Location Line 2
LATI            .deg             60° 34' 35.14" N          :LATITUDE
LONG            .deg             3° 26' 36.13" E           :LONGITUDE
PDAT            .                           MSL            :Local Permanent Datum
LMF             .                            DF            :Logging Measured From
APD             .m                        31.00            :Elevation of Depth Reference (LMF) Above Permanent Datum
EPD             .m                         0.00            :Elevation of Permanent Datum (PDAT) above Mean Sea Level
EKB             .m                      -999.25            :Elevation of Kelly Bushing Above Permanent Datum
EDF             .m                        31.00            :Elevation of Drill Floor Above Permanent Datum
EGL             .m                      -307.00            :Elevation of Ground Level Above Permanent Datum
ECF             .m                      -999.25            :Elevation of Casing Flange above Permanent Datum
#--------------------------------------------------
~CURVE INFORMATION
#MNEM           .UNIT                  API CODE            :DESCRIPTION
#----            ------          --------------            -----------------------------
TIME_1900       .d                                         :                                                        Time Index(OLE Automation date)
TIME            .s                                         :                                (10s)                   Time(hh mm ss/dd-MMM-yyyy)
DEPTH           .m                                         :(RT)    (DnMWorkflow)                                   Depth Index
BLKP            .m                                         :(RT)    (DRILLING_SURFACE)                              Height of block above rig floor
GR              .gAPI                                      :(RT)    (ARC6)                                          Gamma Ray
CRPM            .c/min                                     :(RT)    (TELE675)                                       Collar Rotational Speed
STICK           .c/min                                     :(RT)    (TELE675)                                       Stick Slip Indicator
SHKRSK          .                                          :(RT)    (TELE675)                                       Shock Risk
SHKPK           .gn                                        :(RT)    (TELE675)                                       Shock Peak
DHAT            .degC                                      :(RM)    (ARC6)                                          Downhole Annulus Temperature
DHAP            .bar                                       :(RM)    (ARC6)                                          Downhole Annulus Pressure
ECD             .g/cm3                                     :(RM)    (ARC6)                                          Equivalent Circulating Density
#-------------------------------------------------------------
#       TIME_1900                 TIME        DEPTH         BLKP           GR         CRPM        STICK       SHKRSK        SHKPK         DHAT         DHAP          ECD 
#                                       (DnMWorkfl)  (DRILLING_)       (ARC6)    (TELE675)    (TELE675)    (TELE675)    (TELE675)       (ARC6)       (ARC6)       (ARC6) 
#                                              (RT)         (RT)         (RT)         (RT)         (RT)         (RT)         (RT)         (RM)         (RM)         (RM) 
#                                (10s)                                                                                                                                   
~ASCII
# ...
 43831.1333333333 03:12:00/01-Jan-2020   2556.27002      4.94000      -999.25      -999.25      -999.25      -999.25      -999.25     42.00000    292.95820      1.17269
 43831.1334490741 03:12:10/01-Jan-2020   2556.30005      4.91000      -999.25      -999.25      -999.25      -999.25      -999.25     42.00000    291.99300      1.16882
 43831.1335648148 03:12:20/01-Jan-2020   2556.32983      4.88000      -999.25      -999.25      -999.25      -999.25      -999.25     42.00000    293.16510      1.17349
 43831.1336805556 03:12:30/01-Jan-2020   2556.32983      4.88000      -999.25      -999.25      -999.25      -999.25      -999.25     42.00000    292.33770      1.17018
 43831.1337962963 03:12:40/01-Jan-2020   2556.32983      4.88000      -999.25      -999.25      -999.25      -999.25      -999.25     42.00000    292.47560      1.17073
 43831.1339120370 03:12:50/01-Jan-2020   2556.32983      4.88000      -999.25      -999.25      -999.25      -999.25      -999.25     42.00000    291.37240      1.16632
 43831.1340277778 03:13:00/01-Jan-2020   2556.32983      4.88000      -999.25      -999.25      -999.25      -999.25      -999.25     42.00000    291.44140      1.16659
 43831.1341435185 03:13:10/01-Jan-2020   2556.32983      4.88000      -999.25      -999.25      -999.25      -999.25      -999.25     42.00000    292.19980      1.16963
 43831.1342592593 03:13:20/01-Jan-2020   2556.32983      4.88000      -999.25      -999.25      -999.25      -999.25      -999.25     42.00000    291.85510      1.16825
 43831.1343750000 03:13:30/01-Jan-2020   2556.32983      4.88000      -999.25      -999.25      -999.25      -999.25      -999.25     42.00000    291.64820      1.16742
 43831.1344907407 03:13:40/01-Jan-2020   2556.32983      4.88000      -999.25      -999.25      -999.25      -999.25      -999.25     42.00000    291.51030      1.16687
 43831.1346064815 03:13:50/01-Jan-2020   2556.32983      4.88000      -999.25      -999.25      -999.25      -999.25      -999.25     42.00000    291.92400      1.16853
 43831.1347222222 03:14:00/01-Jan-2020   2556.32983      4.88000      -999.25      -999.25      -999.25      -999.25      -999.25     42.00000    292.26880      1.16991
 43831.1348379630 03:14:10/01-Jan-2020   2556.32983      4.88000      -999.25      -999.25      -999.25      -999.25      -999.25     42.00000    291.16560      1.16549
 43831.1349537037 03:14:20/01-Jan-2020   2556.32983      4.88000      -999.25      -999.25      -999.25      -999.25      -999.25     42.00000    291.16560      1.16549
 43831.1350694444 03:14:30/01-Jan-2020   2556.32983      4.88000      -999.25      -999.25      -999.25      -999.25      -999.25     42.00000    291.23460      1.16577
 43831.1351851852 03:14:40/01-Jan-2020   2556.32983      5.13000      -999.25      -999.25      -999.25      -999.25      -999.25     42.00000    292.75140      1.17184
 43831.1353009259 03:14:50/01-Jan-2020   2556.32983      5.90000      -999.25      -999.25      -999.25      -999.25      -999.25     42.00000    292.40670      1.17046
 43831.1354166667 03:15:00/01-Jan-2020   2556.32983      7.05000      -999.25      -999.25      -999.25      -999.25      -999.25     42.00000    292.95820      1.17267
 43831.1355324074 03:15:10/01-Jan-2020   2556.32983      7.05000      -999.25      -999.25      -999.25      -999.25      -999.25     41.00000    292.06190      1.16908
 43831.1356481481 03:15:20/01-Jan-2020   2556.32983      7.05000      -999.25      -999.25      -999.25      -999.25      -999.25     41.00000    290.47610      1.16273
 43831.1357638889 03:15:30/01-Jan-2020   2556.32983      7.05000      -999.25      -999.25      -999.25      -999.25      -999.25     41.00000    290.75190      1.16383
 43831.1358796296 03:15:40/01-Jan-2020   2556.32983      7.05000      -999.25      -999.25      -999.25      -999.25      -999.25     41.00000    290.26930      1.16190
 43831.1359953704 03:15:50/01-Jan-2020   2556.32983      7.05000      -999.25      -999.25      -999.25      -999.25      -999.25     41.00000    290.06240      1.16107
 43831.1361111111 03:16:00/01-Jan-2020   2556.32983      7.05000      -999.25      -999.25      -999.25      -999.25      -999.25     41.00000    289.44190      1.15859
 43831.1362268519 03:16:10/01-Jan-2020   2556.32983      7.05000      -999.25      -999.25      -999.25      -999.25      -999.25     41.00000    289.23510      1.15776
 43831.1363425926 03:16:20/01-Jan-2020   2556.32983      7.05000      -999.25      -999.25      -999.25      -999.25      -999.25     41.00000    288.68350      1.15555
 43831.1364583333 03:16:30/01-Jan-2020   2556.32983      7.05000      -999.25      -999.25      -999.25      -999.25      -999.25     41.00000    291.30350      1.16604
 43831.1365740741 03:16:40/01-Jan-2020   2556.32983      7.65000      -999.25      -999.25      -999.25      -999.25      -999.25     41.00000    293.09610      1.17322
 43831.1366898148 03:16:50/01-Jan-2020   2556.32983      6.90000      -999.25      -999.25      -999.25      -999.25      -999.25     41.00000    290.75190      1.16383
 43831.1368055556 03:17:00/01-Jan-2020   2556.32983      6.43000      -999.25      -999.25      -999.25      -999.25      -999.25     41.00000    289.16610      1.15749
 43831.1369212963 03:17:10/01-Jan-2020   2556.32983      4.63000      -999.25      -999.25      -999.25      -999.25      -999.25     41.00000    289.02820      1.15693
 43831.1370370370 03:17:20/01-Jan-2020   2556.32983      4.63000      -999.25      -999.25      -999.25      -999.25      -999.25     41.00000    288.20090      1.15362
 43831.1371527778 03:17:30/01-Jan-2020   2556.32983      3.70000      -999.25      -999.25      -999.25      -999.25      -999.25     41.00000    291.02770      1.16494
 43831.1372685185 03:17:40/01-Jan-2020   2556.32983      3.66000      -999.25      -999.25      -999.25      -999.25      -999.25     41.00000    291.44140      1.16659
 43831.1373842593 03:17:50/01-Jan-2020   2556.32983      3.66000      -999.25      -999.25      -999.25      -999.25      -999.25     41.00000    291.78610      1.16797
 43831.1375000000 03:18:00/01-Jan-2020   2556.32983      3.66000      -999.25      -999.25      -999.25      -999.25      -999.25     41.00000    291.57930      1.16715
 43831.1376157407 03:18:10/01-Jan-2020   2556.32983      3.66000      -999.25      -999.25      -999.25      -999.25      -999.25     41.00000    291.85510      1.16825
 43831.1377314815 03:18:20/01-Jan-2020   2556.32983      3.51000      -999.25      -999.25      -999.25      -999.25      -999.25     41.00000    290.75190      1.16383
 43831.1378472222 03:18:30/01-Jan-2020   2556.32983      3.50000      -999.25      -999.25      -999.25      -999.25      -999.25     41.00000    291.30350      1.16604
 43831.1379629630 03:18:40/01-Jan-2020   2556.32983      3.28000      -999.25      -999.25      -999.25      -999.25      -999.25     41.00000    291.92400      1.16853
 43831.1380787037 03:18:50/01-Jan-2020   2556.32983      3.71000      -999.25      -999.25      -999.25      -999.25      -999.25     41.00000    291.92400      1.16853
 43831.1381944444 03:19:00/01-Jan-2020   2556.32983      5.03000      -999.25      -999.25      -999.25      -999.25      -999.25     41.00000    290.82090      1.16411
 43831.1383101852 03:19:10/01-Jan-2020   2556.32983      5.03000      -999.25      -999.25      -999.25      -999.25      -999.25     41.00000    290.13140      1.16135
 43831.1384259259 03:19:20/01-Jan-2020   2556.32983      3.86000      -999.25      -999.25      -999.25      -999.25      -999.25     41.00000    291.99300      1.16880
 43831.1385416667 03:19:30/01-Jan-2020   2556.32983      3.58000      -999.25      -999.25      -999.25      -999.25      -999.25     41.00000    290.54510      1.16301
 43831.1386574074 03:19:40/01-Jan-2020   2556.32983      3.58000      -999.25      -999.25      -999.25      -999.25      -999.25     41.00000    293.50980      1.17487
 43831.1387731481 03:19:50/01-Jan-2020   2556.32983      3.58000      -999.25      -999.25      -999.25      -999.25      -999.25     41.00000    292.61350      1.17129
