~VERSION INFORMATION 
VERS  .    2.0                                     :CWLS Log ASCII Standard - VERSION 2.0
WRAP  .    NO                                      :One Line per Time step
PROD  .    Schlumberger Technology Corp.           :LAS Producer
PROG  .    Horizon LASWriter 9.2.113335.3100       :LAS Program name and version
SOURCE.    Run 9-TimeLogicalAcq                    :Run&Pass Information
CREA  .    01/21/2020                              :LAS Creation date {MM/DD/YYYY}
#--------------------------------------------------
~WELL INFORMATION 
#MNEM           .UNIT                      DATA            :DESCRIPTION
#----            ------          --------------            -----------------------------
STRT            .d               43828.3333333334          :START TIME(OLE Automation date)
STOP            .d               43829.1041666667          :STOP TIME(OLE Automation date)
STEP            .d                            0            :STEP TIME(10s in time)
NULL            .                       -999.25            :NULL VALUE
COMP            .                       Equinor            :COMPANY
WELL            .                        31/5-7            :WELL NAME
FLD             .                           Eos            :FIELD NAME
RIGN            .                 West Hercules            :Rig Name
RIGTYP          .                Semi-Submersible          :Rig Type
SON             .                     19SCA0085            :Service Order Number
SRVC            .                  Schlumberger            :SERVICE COMPANY
DATE            .                    12/29/2019            :LOG DATE(Composite Date for Composite LAP) (MM/DD/YYYY)
CLAB            .                       County:            :County Label
CNTY            .                                          :COUNTY
SLAB            .                                          :State/Province Label
STAT            .                                          :STATE or PROVINCE
PROV            .                                          :STATE or PROVINCE
CTRY            .                        Norway            :COUNTRY
CONT_REGION     .                        Europe            :Continent Region
SECT            .                                          :Section
TOWN            .                                          :Township
RANG            .                                          :Range
API             .                                          :API NUMBER
UWI             .                                          :UNIQUE WELL ID
LUL             .                Service Office            :Logging Unit Location
LUN             .                          A615            :Logging Unit Number
LOC             .                Norwegian North Sea       :FIELD LOCATION
FL1             .                Section: 8 1/2 in.        :Field Location Line 1
FL2             .                Job no.: 19SCA0085        :Field Location Line 2
LATI            .deg             60° 34' 35.14" N          :LATITUDE
LONG            .deg             3° 26' 36.13" E           :LONGITUDE
PDAT            .                           MSL            :Local Permanent Datum
LMF             .                            DF            :Logging Measured From
APD             .m                        31.00            :Elevation of Depth Reference (LMF) Above Permanent Datum
EPD             .m                         0.00            :Elevation of Permanent Datum (PDAT) above Mean Sea Level
EKB             .m                      -999.25            :Elevation of Kelly Bushing Above Permanent Datum
EDF             .m                        31.00            :Elevation of Drill Floor Above Permanent Datum
EGL             .m                      -307.00            :Elevation of Ground Level Above Permanent Datum
ECF             .m                      -999.25            :Elevation of Casing Flange above Permanent Datum
#--------------------------------------------------
~CURVE INFORMATION
#MNEM           .UNIT                  API CODE            :DESCRIPTION
#----            ------          --------------            -----------------------------
TIME_1900       .d                                         :                                                        Time Index(OLE Automation date)
TIME            .s                                         :                                (10s)                   Time(hh mm ss/dd-MMM-yyyy)
DEPTH           .m                                         :(RT)    (DnMWorkflow)                                   Depth Index
BLKP            .m                                         :(RT)    (DRILLING_SURFACE)                              Height of block above rig floor
GR              .gAPI                                      :(RT)    (ARC6)                                          Gamma Ray
CRPM            .c/min                                     :(RT)    (TELE675)                                       Collar Rotational Speed
STICK           .c/min                                     :(RT)    (TELE675)                                       Stick Slip Indicator
SHKRSK          .                                          :(RT)    (TELE675)                                       Shock Risk
SHKPK           .gn                                        :(RT)    (TELE675)                                       Shock Peak
DHAT            .degC                                      :(RM)    (ARC6)                                          Downhole Annulus Temperature
DHAP            .bar                                       :(RM)    (ARC6)                                          Downhole Annulus Pressure
ECD             .g/cm3                                     :(RM)    (ARC6)                                          Equivalent Circulating Density
#-------------------------------------------------------------
#       TIME_1900                 TIME        DEPTH         BLKP           GR         CRPM        STICK       SHKRSK        SHKPK         DHAT         DHAP          ECD 
#                                       (DnMWorkfl)  (DRILLING_)       (ARC6)    (TELE675)    (TELE675)    (TELE675)    (TELE675)       (ARC6)       (ARC6)       (ARC6) 
#                                              (RT)         (RT)         (RT)         (RT)         (RT)         (RT)         (RT)         (RM)         (RM)         (RM) 
#                                (10s)                                                                                                                                   
~ASCII
# ...
 43828.9166666667 22:00:00/29-Dec-2019   2589.81006     12.28000     62.20924      -999.25      -999.25      -999.25      -999.25     37.00000    304.26560      1.20212
 43828.9167824074 22:00:10/29-Dec-2019   2590.14014     11.95000     64.51801      -999.25      -999.25      -999.25      -999.25     37.00000    303.85200      1.20033
 43828.9168981481 22:00:20/29-Dec-2019   2590.19019     11.90000     65.53415      -999.25      -999.25      -999.25      -999.25     37.00000    303.78300      1.20003
 43828.9170138889 22:00:30/29-Dec-2019   2590.02002     11.88000     65.80370    108.00000      -999.25      -999.25      -999.25     37.00000    304.12780      1.20151
 43828.9171296296 22:00:40/29-Dec-2019   2589.92993     12.16000     70.59534      -999.25     93.00000      0.00000      0.00000     37.00000    303.85200      1.20042
 43828.9172453704 22:00:50/29-Dec-2019   2590.06982     11.93000     80.78760      -999.25      -999.25      -999.25      -999.25     37.00000    304.19670      1.20176
 43828.9173611111 22:01:00/29-Dec-2019   2590.04004     11.86000     90.42458      -999.25      -999.25      -999.25      -999.25     37.00000    303.85200      1.20038
 43828.9174768519 22:01:10/29-Dec-2019   2589.82007     12.17000    108.24510      -999.25      -999.25      -999.25      -999.25     37.00000    304.05880      1.20119
 43828.9175925926 22:01:20/29-Dec-2019   2589.89990     12.19000    118.98670    105.00000      -999.25      -999.25      -999.25     37.00000    304.05880      1.20123
 43828.9177083333 22:01:30/29-Dec-2019   2590.16016     12.03000    134.47780      -999.25    138.00000      -999.25      -999.25     37.00000    304.19670      1.20180
 43828.9178240741 22:01:40/29-Dec-2019   2590.36987     11.82000    147.49150      -999.25      -999.25      0.00000      0.00000     37.00000    303.92090      1.20045
 43828.9179398148 22:01:50/29-Dec-2019   2590.21997     11.87000    153.89610      -999.25      -999.25      -999.25      -999.25     37.00000    303.85200      1.20029
 43828.9180555556 22:02:00/29-Dec-2019   2590.36987     11.71000    158.24270      -999.25      -999.25      -999.25      -999.25     37.00000    303.92090      1.20049
 43828.9181712963 22:02:10/29-Dec-2019   2590.44995     11.64000    163.98300      -999.25      -999.25      -999.25      -999.25     37.00000    303.78300      1.19996
 43828.9182870370 22:02:20/29-Dec-2019   2590.28003     11.62000    168.03680     93.00000      -999.25      -999.25      -999.25     37.00000    303.98980      1.20070
 43828.9184027778 22:02:30/29-Dec-2019   2590.29004     11.80000    168.23980      -999.25    183.00000      0.00000      0.00000     37.00000    304.05880      1.20107
 43828.9185185185 22:02:40/29-Dec-2019   2590.81006     11.37000    115.51610      -999.25      -999.25      -999.25      -999.25     37.00000    303.98980      1.20056
 43828.9186342593 22:02:50/29-Dec-2019   2590.66016     11.43000    112.56500      -999.25      -999.25      -999.25      -999.25     37.00000    304.19670      1.20144
 43828.9187500000 22:03:00/29-Dec-2019   2590.52002     11.57000    111.77890      -999.25      -999.25      -999.25      -999.25     37.00000    304.47250      1.20257
 43828.9188657407 22:03:10/29-Dec-2019   2590.46997     11.62000    111.88930     84.00000      -999.25      -999.25      -999.25     37.00000    304.19670      1.20153
 43828.9189814815 22:03:20/29-Dec-2019   2590.52002     11.57000    157.13200      -999.25    381.00000      -999.25      -999.25     37.00000    304.40350      1.20237
 43828.9190972222 22:03:30/29-Dec-2019   2590.19019     11.90000    162.33740      -999.25      -999.25      0.00000      0.00000     37.00000    304.33460      1.20216
 43828.9192129630 22:03:40/29-Dec-2019   2590.63013     11.46000    120.70300      -999.25      -999.25      -999.25      -999.25     37.00000    304.12780      1.20119
 43828.9193287037 22:03:50/29-Dec-2019   2590.39014     11.70000    174.28650      -999.25      -999.25      -999.25      -999.25     37.00000    304.19670      1.20158
 43828.9194444444 22:04:00/29-Dec-2019   2590.44995     11.64000    122.44310      -999.25      -999.25      -999.25      -999.25     37.00000    303.85200      1.20018
 43828.9195601852 22:04:10/29-Dec-2019   2590.81006     11.28000    121.41210     96.00000      -999.25      -999.25      -999.25     37.00000    303.78300      1.19975
 43828.9196759259 22:04:20/29-Dec-2019   2590.78979     11.21000    120.98600      -999.25    129.00000      0.00000      0.00000     37.00000    304.26560      1.20173
 43828.9197916667 22:04:30/29-Dec-2019   2590.75000     11.33000    121.41210      -999.25      -999.25      -999.25      -999.25     37.00000    304.47250      1.20249
 43828.9199074074 22:04:40/29-Dec-2019   2591.10010     10.98000    123.02480      -999.25      -999.25      -999.25      -999.25     37.00000    304.26560      1.20154
 43828.9200231481 22:04:50/29-Dec-2019   2591.08008     11.01000    126.81390      -999.25      -999.25      -999.25      -999.25     37.00000    304.26560      1.20152
 43828.9201388889 22:05:00/29-Dec-2019   2590.75000     11.43000    127.35690    100.00000      -999.25      -999.25      -999.25     37.00000    304.47250      1.20249
 43828.9202546296 22:05:10/29-Dec-2019   2590.91992     11.17000    127.09230      -999.25    117.00000      -999.25      -999.25     38.00000    304.54140      1.20256
 43828.9203703704 22:05:20/29-Dec-2019   2591.23999     10.84000    127.50950      -999.25      -999.25      0.00000      0.00000     38.00000    304.61040      1.20281
 43828.9204861111 22:05:30/29-Dec-2019   2591.08008     11.01000    127.90040      -999.25      -999.25      -999.25      -999.25     38.00000    304.40350      1.20211
 43828.9206018519 22:05:40/29-Dec-2019   2590.93018     11.16000    127.66750      -999.25      -999.25      -999.25      -999.25     38.00000    304.40350      1.20214
 43828.9207175926 22:05:50/29-Dec-2019   2590.93994     11.15000    126.88280      -999.25      -999.25      -999.25      -999.25     38.00000    304.61040      1.20290
 43828.9208333333 22:06:00/29-Dec-2019   2591.07007     11.12000    125.50070     86.00000      -999.25      -999.25      -999.25     38.00000    304.67930      1.20310
 43828.9209490741 22:06:10/29-Dec-2019   2591.29004     10.90000    123.85790      -999.25    381.00000      0.00000      0.00000     38.00000    304.61040      1.20288
 43828.9210648148 22:06:20/29-Dec-2019   2591.40015     10.69000    122.47590      -999.25      -999.25      -999.25      -999.25     38.00000    304.67930      1.20301
 43828.9211805556 22:06:30/29-Dec-2019   2591.40015     10.69000    123.14030      -999.25      -999.25      -999.25      -999.25     38.00000    304.33460      1.20160
 43828.9212962963 22:06:40/29-Dec-2019   2591.21997     10.87000    124.44880      -999.25      -999.25      -999.25      -999.25     38.00000    304.61040      1.20282
 43828.9214120370 22:06:50/29-Dec-2019   2591.21997     10.87000    125.60620     93.00000      -999.25      -999.25      -999.25     38.00000    304.81720      1.20356
 43828.9215277778 22:07:00/29-Dec-2019   2591.60986     10.56000    126.81370      -999.25    123.00000      -999.25      -999.25     38.00000    304.54140      1.20243
 43828.9216435185 22:07:10/29-Dec-2019   2591.51001     10.58000    128.25630      -999.25      -999.25      -999.25      -999.25     38.00000    304.47250      1.20214
 43828.9217592593 22:07:20/29-Dec-2019   2591.59009     10.50000    129.65860      -999.25      -999.25      -999.25      -999.25     38.00000    304.81720      1.20346
 43828.9218750000 22:07:30/29-Dec-2019   2591.54004     10.55000    130.73370      -999.25      -999.25      -999.25      -999.25     38.00000    304.95510      1.20403
 43828.9219907407 22:07:40/29-Dec-2019   2591.54004     10.46000    131.22760      -999.25      -999.25      -999.25      -999.25     38.00000    304.95510      1.20403
 43828.9221064815 22:07:50/29-Dec-2019   2591.54004     10.46000    130.95940      -999.25      -999.25      -999.25      -999.25     38.00000    305.02410      1.20426
