~VERSION INFORMATION 
VERS  .    2.0                                     :CWLS Log ASCII Standard - VERSION 2.0
WRAP  .    NO                                      :One Line per Time step
PROD  .    Schlumberger Technology Corp.           :LAS Producer
PROG  .    Horizon LASWriter 9.2.113335.3100       :LAS Program name and version
SOURCE.    Run 13-TimeLogicalAcq                   :Run&Pass Information
CREA  .    01/21/2020                              :LAS Creation date {MM/DD/YYYY}
#--------------------------------------------------
~WELL INFORMATION 
#MNEM           .UNIT                      DATA            :DESCRIPTION
#----            ------          --------------            -----------------------------
STRT            .d               43844.3958333334          :START TIME(OLE Automation date)
STOP            .d               43845.1666666667          :STOP TIME(OLE Automation date)
STEP            .d                            0            :STEP TIME(10s in time)
NULL            .                       -999.25            :NULL VALUE
COMP            .                       Equinor            :COMPANY
WELL            .                        31/5-7            :WELL NAME
FLD             .                           Eos            :FIELD NAME
RIGN            .                 West Hercules            :Rig Name
RIGTYP          .                Semi-Submersible          :Rig Type
SON             .                     19SCA0085            :Service Order Number
SRVC            .                  Schlumberger            :SERVICE COMPANY
DATE            .                    01/13/2020            :LOG DATE(Composite Date for Composite LAP) (MM/DD/YYYY)
CLAB            .                       County:            :County Label
CNTY            .                                          :COUNTY
SLAB            .                                          :State/Province Label
STAT            .                                          :STATE or PROVINCE
PROV            .                                          :STATE or PROVINCE
CTRY            .                        Norway            :COUNTRY
CONT_REGION     .                        Europe            :Continent Region
SECT            .                                          :Section
TOWN            .                                          :Township
RANG            .                                          :Range
API             .                                          :API NUMBER
UWI             .                                          :UNIQUE WELL ID
LUL             .                Service Office            :Logging Unit Location
LUN             .                          A615            :Logging Unit Number
LOC             .                Norwegian North Sea       :FIELD LOCATION
FL1             .                Section: 8 1/2 in.        :Field Location Line 1
FL2             .                Job no.: 19SCA0085        :Field Location Line 2
LATI            .deg             60° 34' 35.14" N          :LATITUDE
LONG            .deg             3° 26' 36.13" E           :LONGITUDE
PDAT            .                           MSL            :Local Permanent Datum
LMF             .                            DF            :Logging Measured From
APD             .m                        31.00            :Elevation of Depth Reference (LMF) Above Permanent Datum
EPD             .m                         0.00            :Elevation of Permanent Datum (PDAT) above Mean Sea Level
EKB             .m                      -999.25            :Elevation of Kelly Bushing Above Permanent Datum
EDF             .m                        31.00            :Elevation of Drill Floor Above Permanent Datum
EGL             .m                      -307.00            :Elevation of Ground Level Above Permanent Datum
ECF             .m                      -999.25            :Elevation of Casing Flange above Permanent Datum
#--------------------------------------------------
~CURVE INFORMATION
#MNEM           .UNIT                  API CODE            :DESCRIPTION
#----            ------          --------------            -----------------------------
TIME_1900       .d                                         :                                                        Time Index(OLE Automation date)
TIME            .s                                         :                                (10s)                   Time(hh mm ss/dd-MMM-yyyy)
DEPTH           .m                                         :(RT)    (DnMWorkflow)                                   Depth Index
BLKP            .m                                         :(RT)    (DRILLING_SURFACE)                              Height of block above rig floor
GR              .gAPI                                      :(RT)    (ARC6)                                          Gamma Ray
CRPM            .c/min                                     :(RT)    (TELE675)                                       Collar Rotational Speed
STICK           .c/min                                     :(RT)    (TELE675)                                       Stick Slip Indicator
SHKRSK          .                                          :(RT)    (TELE675)                                       Shock Risk
SHKPK           .gn                                        :(RT)    (TELE675)                                       Shock Peak
DHAT            .degC                                      :(RM)    (ARC6)                                          Downhole Annulus Temperature
DHAP            .bar                                       :(RM)    (ARC6)                                          Downhole Annulus Pressure
ECD             .g/cm3                                     :(RM)    (ARC6)                                          Equivalent Circulating Density
#-------------------------------------------------------------
#       TIME_1900                 TIME        DEPTH         BLKP           GR         CRPM        STICK       SHKRSK        SHKPK         DHAT         DHAP          ECD 
#                                       (DnMWorkfl)  (DRILLING_)       (ARC6)    (TELE675)    (TELE675)    (TELE675)    (TELE675)       (ARC6)       (ARC6)       (ARC6) 
#                                              (RT)         (RT)         (RT)         (RT)         (RT)         (RT)         (RT)         (RM)         (RM)         (RM) 
#                                (10s)                                                                                                                                   
~ASCII
# ...
 43845.1625000000 03:54:00/15-Jan-2020   1692.90991     38.16000      -999.25      -999.25      -999.25      -999.25      -999.25     48.00000    197.53480      1.19609
 43845.1626157407 03:54:10/15-Jan-2020   1692.90991     23.58000      -999.25      -999.25      -999.25      -999.25      -999.25     48.00000    197.74160      1.19734
 43845.1627314815 03:54:20/15-Jan-2020   1692.90991     10.17000      -999.25      -999.25      -999.25      -999.25      -999.25     48.00000    196.56950      1.19025
 43845.1628472222 03:54:30/15-Jan-2020   1692.90991      8.14000      -999.25      -999.25      -999.25      -999.25      -999.25     48.00000    197.94850      1.19860
 43845.1629629630 03:54:40/15-Jan-2020   1692.90991      3.54000      -999.25      -999.25      -999.25      -999.25      -999.25     47.00000    197.12110      1.19359
 43845.1630787037 03:54:50/15-Jan-2020   1692.90991      3.46000      -999.25      -999.25      -999.25      -999.25      -999.25     47.00000    195.46640      1.18357
 43845.1631944444 03:55:00/15-Jan-2020   1690.55994      5.58000      -999.25      -999.25      -999.25      -999.25      -999.25     47.00000    193.94950      1.17606
 43845.1633101852 03:55:10/15-Jan-2020   1677.08997     19.05000      -999.25      -999.25      -999.25      -999.25      -999.25     47.00000    192.77740      1.17834
 43845.1634259259 03:55:20/15-Jan-2020   1662.16003     34.68000      -999.25      -999.25      -999.25      -999.25      -999.25     47.00000    193.39790      1.19297
 43845.1635416667 03:55:30/15-Jan-2020   1654.16003     42.03000      -999.25      -999.25      -999.25      -999.25      -999.25     47.00000    194.50110      1.20547
 43845.1636574074 03:55:40/15-Jan-2020   1653.54993     42.59000      -999.25      -999.25      -999.25      -999.25      -999.25     47.00000    195.05270      1.20933
 43845.1637731481 03:55:50/15-Jan-2020   1653.69006     42.43000      -999.25      -999.25      -999.25      -999.25      -999.25     47.00000    194.01850      1.20281
 43845.1638888889 03:56:00/15-Jan-2020   1653.70996     42.32000      -999.25      -999.25      -999.25      -999.25      -999.25     47.00000    193.81160      1.20152
 43845.1640046296 03:56:10/15-Jan-2020   1653.70996     42.32000      -999.25      -999.25      -999.25      -999.25      -999.25     47.00000    194.50110      1.20579
 43845.1641203704 03:56:20/15-Jan-2020   1653.70996     42.32000      -999.25      -999.25      -999.25      -999.25      -999.25     47.00000    194.70790      1.20707
 43845.1642361111 03:56:30/15-Jan-2020   1653.70996     38.44000      -999.25      -999.25      -999.25      -999.25      -999.25     47.00000    194.63900      1.20665
 43845.1643518518 03:56:40/15-Jan-2020   1653.70996     22.02000      -999.25      -999.25      -999.25      -999.25      -999.25     47.00000    192.43270      1.19297
 43845.1644675926 03:56:50/15-Jan-2020   1653.70996      9.05000      -999.25      -999.25      -999.25      -999.25      -999.25     47.00000    192.08790      1.19083
 43845.1645833333 03:57:00/15-Jan-2020   1653.70996      7.37000      -999.25      -999.25      -999.25      -999.25      -999.25     47.00000    192.57060      1.19382
 43845.1646990741 03:57:10/15-Jan-2020   1653.70996      3.69000      -999.25      -999.25      -999.25      -999.25      -999.25     47.00000    193.46690      1.19938
 43845.1648148148 03:57:20/15-Jan-2020   1653.70996      3.44000      -999.25      -999.25      -999.25      -999.25      -999.25     47.00000    193.26000      1.19810
 43845.1649305556 03:57:30/15-Jan-2020   1653.70996      3.57000      -999.25      -999.25      -999.25      -999.25      -999.25     47.00000    191.67430      1.18827
 43845.1650462963 03:57:40/15-Jan-2020   1651.10999      6.55000      -999.25      -999.25      -999.25      -999.25      -999.25     47.00000    189.05420      1.17387
 43845.1651620370 03:57:50/15-Jan-2020   1638.35999     18.91000      -999.25      -999.25      -999.25      -999.25      -999.25     47.00000    188.08900      1.17710
 43845.1652777778 03:58:00/15-Jan-2020   1625.62000     31.82000      -999.25      -999.25      -999.25      -999.25      -999.25     47.00000    187.53740      1.18289
 43845.1653935185 03:58:10/15-Jan-2020   1617.15002     40.24000      -999.25      -999.25      -999.25      -999.25      -999.25     47.00000    187.19270      1.18690
 43845.1655092593 03:58:20/15-Jan-2020   1614.38000     42.51000      -999.25      -999.25      -999.25      -999.25      -999.25     47.00000    187.60630      1.19154
 43845.1656250000 03:58:30/15-Jan-2020   1614.38000     42.51000      -999.25      -999.25      -999.25      -999.25      -999.25     47.00000    187.74420      1.19241
 43845.1657407407 03:58:40/15-Jan-2020   1614.50000     42.34999      -999.25      -999.25      -999.25      -999.25      -999.25     47.00000    188.08900      1.19451
 43845.1658564815 03:58:50/15-Jan-2020   1614.50000     42.34999      -999.25      -999.25      -999.25      -999.25      -999.25     47.00000    188.08900      1.19451
 43845.1659722222 03:59:00/15-Jan-2020   1614.50000     42.34999      -999.25      -999.25      -999.25      -999.25      -999.25     47.00000    187.46850      1.19057
 43845.1660879630 03:59:10/15-Jan-2020   1614.50000     39.53000      -999.25      -999.25      -999.25      -999.25      -999.25     47.00000    189.60580      1.20415
 43845.1662037037 03:59:20/15-Jan-2020   1614.50000     24.50000      -999.25      -999.25      -999.25      -999.25      -999.25     47.00000    186.98580      1.18751
 43845.1663194444 03:59:30/15-Jan-2020   1614.50000     10.27000      -999.25      -999.25      -999.25      -999.25      -999.25     47.00000    188.43370      1.19670
 43845.1664351852 03:59:40/15-Jan-2020   1614.50000      6.92000      -999.25      -999.25      -999.25      -999.25      -999.25     47.00000    188.98530      1.20021
 43845.1665509259 03:59:50/15-Jan-2020   1614.50000      3.38000      -999.25      -999.25      -999.25      -999.25      -999.25     47.00000    188.91630      1.19977
 43845.1666666667 04:00:00/15-Jan-2020   1614.50000      3.37000      -999.25      -999.25      -999.25      -999.25      -999.25     47.00000    188.57160      1.19758
