~VERSION INFORMATION 
VERS  .    2.0                                     :CWLS Log ASCII Standard - VERSION 2.0
WRAP  .    NO                                      :One Line per Time step
PROD  .    Schlumberger Technology Corp.           :LAS Producer
PROG  .    Horizon LASWriter 9.2.113335.3100       :LAS Program name and version
SOURCE.    Run 12-TimeLogicalAcq                   :Run&Pass Information
CREA  .    01/21/2020                              :LAS Creation date {MM/DD/YYYY}
#--------------------------------------------------
~WELL INFORMATION 
#MNEM           .UNIT                      DATA            :DESCRIPTION
#----            ------          --------------            -----------------------------
STRT            .d               43837.2295138889          :START TIME(OLE Automation date)
STOP            .d               43837.6875000000          :STOP TIME(OLE Automation date)
STEP            .d                            0            :STEP TIME(10s in time)
NULL            .                       -999.25            :NULL VALUE
COMP            .                       Equinor            :COMPANY
WELL            .                        31/5-7            :WELL NAME
FLD             .                           Eos            :FIELD NAME
RIGN            .                 West Hercules            :Rig Name
RIGTYP          .                Semi-Submersible          :Rig Type
SON             .                     19SCA0085            :Service Order Number
SRVC            .                  Schlumberger            :SERVICE COMPANY
DATE            .                    01/07/2020            :LOG DATE(Composite Date for Composite LAP) (MM/DD/YYYY)
CLAB            .                       County:            :County Label
CNTY            .                                          :COUNTY
SLAB            .                                          :State/Province Label
STAT            .                                          :STATE or PROVINCE
PROV            .                                          :STATE or PROVINCE
CTRY            .                        Norway            :COUNTRY
CONT_REGION     .                        Europe            :Continent Region
SECT            .                                          :Section
TOWN            .                                          :Township
RANG            .                                          :Range
API             .                                          :API NUMBER
UWI             .                                          :UNIQUE WELL ID
LUL             .                Service Office            :Logging Unit Location
LUN             .                          A615            :Logging Unit Number
LOC             .                Norwegian North Sea       :FIELD LOCATION
FL1             .                Section: 8 1/2 in.        :Field Location Line 1
FL2             .                Job no.: 19SCA0085        :Field Location Line 2
LATI            .deg             60° 34' 35.14" N          :LATITUDE
LONG            .deg             3° 26' 36.13" E           :LONGITUDE
PDAT            .                           MSL            :Local Permanent Datum
LMF             .                            DF            :Logging Measured From
APD             .m                        31.00            :Elevation of Depth Reference (LMF) Above Permanent Datum
EPD             .m                         0.00            :Elevation of Permanent Datum (PDAT) above Mean Sea Level
EKB             .m                      -999.25            :Elevation of Kelly Bushing Above Permanent Datum
EDF             .m                        31.00            :Elevation of Drill Floor Above Permanent Datum
EGL             .m                      -307.00            :Elevation of Ground Level Above Permanent Datum
ECF             .m                      -999.25            :Elevation of Casing Flange above Permanent Datum
#--------------------------------------------------
~CURVE INFORMATION
#MNEM           .UNIT                  API CODE            :DESCRIPTION
#----            ------          --------------            -----------------------------
TIME_1900       .d                                         :                                                        Time Index(OLE Automation date)
TIME            .s                                         :                                (10s)                   Time(hh mm ss/dd-MMM-yyyy)
DEPTH           .m                                         :(RT)    (DnMWorkflow)                                   Depth Index
BLKP            .m                                         :(RT)    (DRILLING_SURFACE)                              Height of block above rig floor
GR              .gAPI                                      :(RT)    (ARC6)                                          Gamma Ray
CRPM            .c/min                                     :(RT)    (TELE675)                                       Collar Rotational Speed
STICK           .c/min                                     :(RT)    (TELE675)                                       Stick Slip Indicator
SHKRSK          .                                          :(RT)    (TELE675)                                       Shock Risk
SHKPK           .gn                                        :(RT)    (TELE675)                                       Shock Peak
DHAT            .degC                                      :(RM)    (ARC6)                                          Downhole Annulus Temperature
DHAP            .bar                                       :(RM)    (ARC6)                                          Downhole Annulus Pressure
ECD             .g/cm3                                     :(RM)    (ARC6)                                          Equivalent Circulating Density
#-------------------------------------------------------------
#       TIME_1900                 TIME        DEPTH         BLKP           GR         CRPM        STICK       SHKRSK        SHKPK         DHAT         DHAP          ECD 
#                                       (DnMWorkfl)  (DRILLING_)       (ARC6)    (TELE675)    (TELE675)    (TELE675)    (TELE675)       (ARC6)       (ARC6)       (ARC6) 
#                                              (RT)         (RT)         (RT)         (RT)         (RT)         (RT)         (RT)         (RM)         (RM)         (RM) 
#                                (10s)                                                                                                                                   
~ASCII
# ...
 43837.5017361111 12:02:30/07-Jan-2020   2595.28003      5.15000    137.62490      -999.25      -999.25      -999.25      -999.25     41.00000    303.85200      1.19795
 43837.5018518518 12:02:40/07-Jan-2020   2595.28003      5.15000    136.52120      -999.25      -999.25      -999.25      -999.25     41.00000    304.05880      1.19877
 43837.5019675926 12:02:50/07-Jan-2020   2595.28003      5.15000    134.93660      -999.25      -999.25      -999.25      -999.25     41.00000    306.67880      1.20910
 43837.5020833333 12:03:00/07-Jan-2020   2595.28003      5.15000    133.05210      -999.25      -999.25      -999.25      -999.25     41.00000    304.26560      1.19959
 43837.5021990741 12:03:10/07-Jan-2020   2595.28003      5.15000    131.08290      -999.25      -999.25      -999.25      -999.25     41.00000    305.85140      1.20584
 43837.5023148148 12:03:20/07-Jan-2020   2595.28003      5.15000    129.25420      -999.25      -999.25      -999.25      -999.25     41.00000    304.40350      1.20013
 43837.5024305556 12:03:30/07-Jan-2020   2595.28003      5.15000    127.77460      -999.25      -999.25      -999.25      -999.25     41.00000    304.47250      1.20040
 43837.5025462963 12:03:40/07-Jan-2020   2595.28003      5.15000    126.81340      -999.25      -999.25      -999.25      -999.25     41.00000    304.05880      1.19877
 43837.5026620370 12:03:50/07-Jan-2020   2595.28003      5.15000    126.48030      -999.25      -999.25      -999.25      -999.25     41.00000    304.81720      1.20176
 43837.5027777778 12:04:00/07-Jan-2020   2595.28003      5.15000    126.81340      -999.25      -999.25      -999.25      -999.25     41.00000    306.26510      1.20747
 43837.5028935185 12:04:10/07-Jan-2020   2595.28003      5.15000    127.77460      -999.25      -999.25      -999.25      -999.25     41.00000    301.57670      1.18898
 43837.5030092593 12:04:20/07-Jan-2020   2595.28003      5.15000    129.25420      -999.25      -999.25      -999.25      -999.25     41.00000    304.19670      1.19931
 43837.5031250000 12:04:30/07-Jan-2020   2595.14014      5.29000    131.08290      -999.25      -999.25      -999.25      -999.25     41.00000    307.57510      1.21270
 43837.5032407407 12:04:40/07-Jan-2020   2594.78003      5.66000    133.05210      -999.25      -999.25      -999.25      -999.25     41.00000    305.09300      1.20308
 43837.5033564815 12:04:50/07-Jan-2020   2594.69019      5.74000    134.93660      -999.25      -999.25      -999.25      -999.25     41.00000    304.05880      1.19904
 43837.5034722222 12:05:00/07-Jan-2020   2594.69019      5.74000    136.52120      -999.25      -999.25      0.00000      0.00000     41.00000    303.57620      1.19714
 43837.5035879630 12:05:10/07-Jan-2020   2594.64990      5.78000    137.62490      -999.25      -999.25      -999.25      -999.25     41.00000    302.74880      1.19390
 43837.5037037037 12:05:20/07-Jan-2020   2594.64990      5.78000    136.80560      -999.25      -999.25      -999.25      -999.25     41.00000    302.47300      1.19281
 43837.5038194444 12:05:30/07-Jan-2020   2594.64990      5.78000    135.30980      -999.25      -999.25      -999.25      -999.25     41.00000    303.16250      1.19553
 43837.5039351852 12:05:40/07-Jan-2020   2594.27002      6.16000    133.88770     71.00000      -999.25      -999.25      -999.25     42.00000    300.19770      1.18401
 43837.5040509259 12:05:50/07-Jan-2020   2594.27002      6.16000    132.31140      -999.25    381.00000      0.00000      0.00000     42.00000    302.88670      1.19462
 43837.5041666667 12:06:00/07-Jan-2020   2594.10986      6.32000    130.73520      -999.25      -999.25      -999.25      -999.25     42.00000    303.85200      1.19850
 43837.5042824074 12:06:10/07-Jan-2020   2593.75000      6.71000    130.32800      -999.25      -999.25      -999.25      -999.25     42.00000    300.88720      1.18697
 43837.5043981481 12:06:20/07-Jan-2020   2593.13989      7.34000    129.36260      -999.25      -999.25      -999.25      -999.25     42.00000    302.12830      1.19215
 43837.5045138889 12:06:30/07-Jan-2020   2592.36011      8.13000    125.62710    102.00000      -999.25      -999.25      -999.25     42.00000    302.95560      1.19578
 43837.5046296296 12:06:40/07-Jan-2020   2591.60986      8.82000    117.12780      -999.25    381.00000      -999.25      -999.25     42.00000    302.95560      1.19612
 43837.5047453704 12:06:50/07-Jan-2020   2591.13989      9.29000    113.84220      -999.25      -999.25      0.00000      0.00000     42.00000    304.88620      1.20396
 43837.5048611111 12:07:00/07-Jan-2020   2590.39990     10.03000    167.18420      -999.25      -999.25      -999.25      -999.25     42.00000    304.19670      1.20159
 43837.5049768519 12:07:10/07-Jan-2020   2589.89014     10.54000    175.21170      -999.25      -999.25      -999.25      -999.25     42.00000    302.26620      1.19419
 43837.5050925926 12:07:20/07-Jan-2020   2589.40991     11.02000    183.99650      -999.25      -999.25      -999.25      -999.25     42.00000    303.64510      1.19986
 43837.5052083333 12:07:30/07-Jan-2020   2589.40015     11.03000    184.69150     98.00000      -999.25      -999.25      -999.25     42.00000    306.47200      1.21104
 43837.5053240741 12:07:40/07-Jan-2020   2589.40015     11.03000    182.19420      -999.25    330.00000      0.00000      0.00000     42.00000    304.54140      1.20341
 43837.5054398148 12:07:50/07-Jan-2020   2589.40015     11.03000    179.69690      -999.25      -999.25      -999.25      -999.25     42.00000    306.81670      1.21240
 43837.5055555556 12:08:00/07-Jan-2020   2589.38989     11.04000    176.54190      -999.25      -999.25      -999.25      -999.25     42.00000    307.29930      1.21431
 43837.5056712963 12:08:10/07-Jan-2020   2589.26001     11.17000    163.41600      -999.25      -999.25      -999.25      -999.25     42.00000    305.85140      1.20865
 43837.5057870370 12:08:20/07-Jan-2020   2588.35010     12.08000    146.26210     81.00000      -999.25      -999.25      -999.25     42.00000    302.67980      1.19654
 43837.5059027778 12:08:30/07-Jan-2020   2587.45996     12.97000    119.65900      -999.25    375.00000      -999.25      -999.25     42.00000    304.33460      1.20350
 43837.5060185185 12:08:40/07-Jan-2020   2586.63013     13.80000     98.83707      -999.25      -999.25      0.00000      0.00000     42.00000    305.85140      1.20989
 43837.5061342593 12:08:50/07-Jan-2020   2585.59985     14.83000     90.40707      -999.25      -999.25      -999.25      -999.25     42.00000    302.40410      1.19673
 43837.5062500000 12:09:00/07-Jan-2020   2584.57007     15.95000     85.07142      -999.25      -999.25      -999.25      -999.25     42.00000    302.81770      1.19885
 43837.5063657407 12:09:10/07-Jan-2020   2583.53979     16.92000     70.92313      -999.25      -999.25      -999.25      -999.25     42.00000    303.09350      1.20042
 43837.5064814815 12:09:20/07-Jan-2020   2582.72021     17.76000     71.41368     64.00000      -999.25      -999.25      -999.25     42.00000    300.81830      1.19179
 43837.5065972222 12:09:30/07-Jan-2020   2581.83984     18.61000     76.40832      -999.25    381.00000      0.00000      0.00000     42.00000    301.23200      1.19383
 43837.5067129630 12:09:40/07-Jan-2020   2581.05005     19.42000     81.40295      -999.25      -999.25      -999.25      -999.25     41.00000    299.09460      1.18573
 43837.5068287037 12:09:50/07-Jan-2020   2580.56006     19.87000     84.61794      -999.25      -999.25      -999.25      -999.25     41.00000    302.12830      1.19798
 43837.5069444444 12:10:00/07-Jan-2020   2580.42993     20.00000     86.73882      -999.25      -999.25      -999.25      -999.25     41.00000    304.67930      1.20815
 43837.5070601852 12:10:10/07-Jan-2020   2580.37012     20.06000     85.83747    109.00000      -999.25      -999.25      -999.25     41.00000    301.02510      1.19369
 43837.5071759259 12:10:20/07-Jan-2020   2580.29004     20.16000     83.34015      -999.25    177.00000      -999.25      -999.25     41.00000    304.05880      1.20576
