~VERSION INFORMATION 
VERS  .    2.0                                     :CWLS Log ASCII Standard - VERSION 2.0
WRAP  .    NO                                      :One Line per Time step
PROD  .    Schlumberger Technology Corp.           :LAS Producer
PROG  .    Horizon LASWriter 9.2.113335.3100       :LAS Program name and version
SOURCE.    Run 13-TimeLogicalAcq                   :Run&Pass Information
CREA  .    01/21/2020                              :LAS Creation date {MM/DD/YYYY}
#--------------------------------------------------
~WELL INFORMATION 
#MNEM           .UNIT                      DATA            :DESCRIPTION
#----            ------          --------------            -----------------------------
STRT            .d               43844.3958333334          :START TIME(OLE Automation date)
STOP            .d               43845.1666666667          :STOP TIME(OLE Automation date)
STEP            .d                            0            :STEP TIME(10s in time)
NULL            .                       -999.25            :NULL VALUE
COMP            .                       Equinor            :COMPANY
WELL            .                        31/5-7            :WELL NAME
FLD             .                           Eos            :FIELD NAME
RIGN            .                 West Hercules            :Rig Name
RIGTYP          .                Semi-Submersible          :Rig Type
SON             .                     19SCA0085            :Service Order Number
SRVC            .                  Schlumberger            :SERVICE COMPANY
DATE            .                    01/13/2020            :LOG DATE(Composite Date for Composite LAP) (MM/DD/YYYY)
CLAB            .                       County:            :County Label
CNTY            .                                          :COUNTY
SLAB            .                                          :State/Province Label
STAT            .                                          :STATE or PROVINCE
PROV            .                                          :STATE or PROVINCE
CTRY            .                        Norway            :COUNTRY
CONT_REGION     .                        Europe            :Continent Region
SECT            .                                          :Section
TOWN            .                                          :Township
RANG            .                                          :Range
API             .                                          :API NUMBER
UWI             .                                          :UNIQUE WELL ID
LUL             .                Service Office            :Logging Unit Location
LUN             .                          A615            :Logging Unit Number
LOC             .                Norwegian North Sea       :FIELD LOCATION
FL1             .                Section: 8 1/2 in.        :Field Location Line 1
FL2             .                Job no.: 19SCA0085        :Field Location Line 2
LATI            .deg             60° 34' 35.14" N          :LATITUDE
LONG            .deg             3° 26' 36.13" E           :LONGITUDE
PDAT            .                           MSL            :Local Permanent Datum
LMF             .                            DF            :Logging Measured From
APD             .m                        31.00            :Elevation of Depth Reference (LMF) Above Permanent Datum
EPD             .m                         0.00            :Elevation of Permanent Datum (PDAT) above Mean Sea Level
EKB             .m                      -999.25            :Elevation of Kelly Bushing Above Permanent Datum
EDF             .m                        31.00            :Elevation of Drill Floor Above Permanent Datum
EGL             .m                      -307.00            :Elevation of Ground Level Above Permanent Datum
ECF             .m                      -999.25            :Elevation of Casing Flange above Permanent Datum
#--------------------------------------------------
~CURVE INFORMATION
#MNEM           .UNIT                  API CODE            :DESCRIPTION
#----            ------          --------------            -----------------------------
TIME_1900       .d                                         :                                                        Time Index(OLE Automation date)
TIME            .s                                         :                                (10s)                   Time(hh mm ss/dd-MMM-yyyy)
DEPTH           .m                                         :(RT)    (DnMWorkflow)                                   Depth Index
BLKP            .m                                         :(RT)    (DRILLING_SURFACE)                              Height of block above rig floor
GR              .gAPI                                      :(RT)    (ARC6)                                          Gamma Ray
CRPM            .c/min                                     :(RT)    (TELE675)                                       Collar Rotational Speed
STICK           .c/min                                     :(RT)    (TELE675)                                       Stick Slip Indicator
SHKRSK          .                                          :(RT)    (TELE675)                                       Shock Risk
SHKPK           .gn                                        :(RT)    (TELE675)                                       Shock Peak
DHAT            .degC                                      :(RM)    (ARC6)                                          Downhole Annulus Temperature
DHAP            .bar                                       :(RM)    (ARC6)                                          Downhole Annulus Pressure
ECD             .g/cm3                                     :(RM)    (ARC6)                                          Equivalent Circulating Density
#-------------------------------------------------------------
#       TIME_1900                 TIME        DEPTH         BLKP           GR         CRPM        STICK       SHKRSK        SHKPK         DHAT         DHAP          ECD 
#                                       (DnMWorkfl)  (DRILLING_)       (ARC6)    (TELE675)    (TELE675)    (TELE675)    (TELE675)       (ARC6)       (ARC6)       (ARC6) 
#                                              (RT)         (RT)         (RT)         (RT)         (RT)         (RT)         (RT)         (RM)         (RM)         (RM) 
#                                (10s)                                                                                                                                   
~ASCII
# ...
 43844.4013888889 09:38:00/14-Jan-2020   1518.05005     39.85000      -999.25      -999.25      -999.25      -999.25      -999.25     47.00000    194.01850      1.31092
 43844.4015046296 09:38:10/14-Jan-2020   1518.05005     39.85000      -999.25      -999.25      -999.25      -999.25      -999.25     47.00000    194.01850      1.31092
 43844.4016203704 09:38:20/14-Jan-2020   1518.05005     39.85000      -999.25      -999.25      -999.25      -999.25      -999.25     47.00000    191.39850      1.29321
 43844.4017361111 09:38:30/14-Jan-2020   1517.68005     40.21000      -999.25      -999.25      -999.25      -999.25      -999.25     47.00000    189.60580      1.28141
 43844.4018518519 09:38:40/14-Jan-2020   1517.75000     40.15000      -999.25      -999.25      -999.25      -999.25      -999.25     47.00000    188.22690      1.27204
 43844.4019675926 09:38:50/14-Jan-2020   1517.75000     40.15000      -999.25      -999.25      -999.25      -999.25      -999.25     47.00000    188.08900      1.27110
 43844.4020833333 09:39:00/14-Jan-2020   1517.75000     40.15000      -999.25      -999.25      -999.25      -999.25      -999.25     47.00000    187.74420      1.26878
 43844.4021990741 09:39:10/14-Jan-2020   1517.77002     40.13000      -999.25      -999.25      -999.25      -999.25      -999.25     47.00000    189.46790      1.28041
 43844.4023148148 09:39:20/14-Jan-2020   1517.80994     40.09000      -999.25      -999.25      -999.25      -999.25      -999.25     47.00000    191.67430      1.29528
 43844.4024305556 09:39:30/14-Jan-2020   1517.82007     40.08000      -999.25      -999.25      -999.25      -999.25      -999.25     47.00000    190.08850      1.28456
 43844.4025462963 09:39:40/14-Jan-2020   1517.82007     40.08000      -999.25      -999.25      -999.25      -999.25      -999.25     47.00000    188.08900      1.27105
 43844.4026620370 09:39:50/14-Jan-2020   1517.82007     40.08000      -999.25      -999.25      -999.25      -999.25      -999.25     47.00000    185.46900      1.25334
 43844.4027777778 09:40:00/14-Jan-2020   1517.82007     40.08000      -999.25      -999.25      -999.25      -999.25      -999.25     47.00000    185.74480      1.25520
 43844.4028935185 09:40:10/14-Jan-2020   1517.82007     40.08000      -999.25      -999.25      -999.25      -999.25      -999.25     47.00000    188.70950      1.27524
 43844.4030092593 09:40:20/14-Jan-2020   1517.82007     40.08000      -999.25      -999.25      -999.25      -999.25      -999.25     46.00000    190.84690      1.28968
 43844.4031250000 09:40:30/14-Jan-2020   1517.82007     40.08000      -999.25      -999.25      -999.25      -999.25      -999.25     46.00000    188.64060      1.27477
 43844.4032407407 09:40:40/14-Jan-2020   1517.82007     40.08000      -999.25      -999.25      -999.25      -999.25      -999.25     46.00000    188.02000      1.27058
 43844.4033564815 09:40:50/14-Jan-2020   1517.82007     40.08000      -999.25      -999.25      -999.25      -999.25      -999.25     46.00000    188.57160      1.27431
 43844.4034722222 09:41:00/14-Jan-2020   1517.82007     40.11000      -999.25      -999.25      -999.25      -999.25      -999.25     46.00000    188.22690      1.27198
 43844.4035879630 09:41:10/14-Jan-2020   1517.80994     40.12000      -999.25      -999.25      -999.25      -999.25      -999.25     46.00000    190.98480      1.29062
 43844.4037037037 09:41:20/14-Jan-2020   1517.82007     40.10000      -999.25      -999.25      -999.25      -999.25      -999.25     46.00000    191.05370      1.29108
 43844.4038194444 09:41:30/14-Jan-2020   1517.82007     40.19000      -999.25      -999.25      -999.25      -999.25      -999.25     46.00000    188.50270      1.27384
 43844.4039351852 09:41:40/14-Jan-2020   1517.82007     40.68000      -999.25      -999.25      -999.25      -999.25      -999.25     46.00000    189.60580      1.28130
 43844.4040509259 09:41:50/14-Jan-2020   1517.82007     40.78000      -999.25      -999.25      -999.25      -999.25      -999.25     46.00000    190.15740      1.28502
 43844.4041666667 09:42:00/14-Jan-2020   1517.82007     40.78000      -999.25      -999.25      -999.25      -999.25      -999.25     46.00000    190.08850      1.28456
 43844.4042824074 09:42:10/14-Jan-2020   1517.82007     40.78000      -999.25      -999.25      -999.25      -999.25      -999.25     46.00000    188.70950      1.27524
 43844.4043981481 09:42:20/14-Jan-2020   1517.82007     40.78000      -999.25      -999.25      -999.25      -999.25      -999.25     45.00000    187.81320      1.26918
 43844.4045138889 09:42:30/14-Jan-2020   1517.82007     40.78000      -999.25      -999.25      -999.25      -999.25      -999.25     45.00000    187.95110      1.27011
 43844.4046296296 09:42:40/14-Jan-2020   1517.82007     40.78000      -999.25      -999.25      -999.25      -999.25      -999.25     45.00000    191.74320      1.29574
 43844.4047453704 09:42:50/14-Jan-2020   1517.82007     40.17000      -999.25      -999.25      -999.25      -999.25      -999.25     45.00000    191.46740      1.29388
 43844.4048611111 09:43:00/14-Jan-2020   1517.82007     26.15000      -999.25      -999.25      -999.25      -999.25      -999.25     45.00000    189.60580      1.28130
 43844.4049768519 09:43:10/14-Jan-2020   1517.82007      9.55000      -999.25      -999.25      -999.25      -999.25      -999.25     45.00000    187.81320      1.26918
 43844.4050925926 09:43:20/14-Jan-2020   1517.82007      3.91000      -999.25      -999.25      -999.25      -999.25      -999.25     45.00000    187.60630      1.26778
 43844.4052083333 09:43:30/14-Jan-2020   1517.82007      3.46000      -999.25      -999.25      -999.25      -999.25      -999.25     45.00000    186.71000      1.26173
 43844.4053240741 09:43:40/14-Jan-2020   1517.01001      3.95000      -999.25      -999.25      -999.25      -999.25      -999.25     45.00000    185.26210      1.25259
 43844.4054398148 09:43:50/14-Jan-2020   1515.19995      5.85000      -999.25      -999.25      -999.25      -999.25      -999.25     45.00000    186.08950      1.25972
 43844.4055555556 09:44:00/14-Jan-2020   1510.41003     10.25000      -999.25      -999.25      -999.25      -999.25      -999.25     45.00000    184.64160      1.25383
 43844.4056712963 09:44:10/14-Jan-2020   1501.77002     19.31000      -999.25      -999.25      -999.25      -999.25      -999.25     45.00000    183.74530      1.25495
 43844.4057870370 09:44:20/14-Jan-2020   1487.20007     33.88000      -999.25      -999.25      -999.25      -999.25      -999.25     45.00000    183.67630      1.26674
 43844.4059027778 09:44:30/14-Jan-2020   1477.90002     43.18000      -999.25      -999.25      -999.25      -999.25      -999.25     45.00000    183.40050      1.27303
 43844.4060185185 09:44:40/14-Jan-2020   1477.92004     43.17000      -999.25      -999.25      -999.25      -999.25      -999.25     45.00000    184.22790      1.27877
 43844.4061342593 09:44:50/14-Jan-2020   1478.60999     42.55000      -999.25      -999.25      -999.25      -999.25      -999.25     45.00000    184.84840      1.28249
 43844.4062500000 09:45:00/14-Jan-2020   1478.65002     42.43000      -999.25      -999.25      -999.25      -999.25      -999.25     45.00000    185.81370      1.28913
 43844.4063657407 09:45:10/14-Jan-2020   1478.76001     42.28000      -999.25      -999.25      -999.25      -999.25      -999.25     44.00000    184.02110      1.27660
 43844.4064814815 09:45:20/14-Jan-2020   1478.76001     42.20000      -999.25      -999.25      -999.25      -999.25      -999.25     44.00000    185.74480      1.28856
 43844.4065972222 09:45:30/14-Jan-2020   1478.76001     42.20000      -999.25      -999.25      -999.25      -999.25      -999.25     44.00000    185.26210      1.28521
 43844.4067129630 09:45:40/14-Jan-2020   1478.76001     42.20000      -999.25      -999.25      -999.25      -999.25      -999.25     44.00000    184.02110      1.27660
 43844.4068287037 09:45:50/14-Jan-2020   1478.76001     42.20000      -999.25      -999.25      -999.25      -999.25      -999.25     44.00000    184.02110      1.27660
