~VERSION INFORMATION 
VERS  .    2.0                                     :CWLS Log ASCII Standard - VERSION 2.0
WRAP  .    NO                                      :One Line per Time step
PROD  .    Schlumberger Technology Corp.           :LAS Producer
PROG  .    Horizon LASWriter 9.2.113335.3100       :LAS Program name and version
SOURCE.    Run 3-TimeLogicalAcq                    :Run&Pass Information
CREA  .    12/12/2019                              :LAS Creation date {MM/DD/YYYY}
#--------------------------------------------------
~WELL INFORMATION 
#MNEM           .UNIT                      DATA            :DESCRIPTION
#----            ------          --------------            -----------------------------
STRT            .d               43804.6875000000          :START TIME(OLE Automation date)
STOP            .d               43805.8541666667          :STOP TIME(OLE Automation date)
STEP            .d                            0            :STEP TIME(10s in time)
NULL            .                       -999.25            :NULL VALUE
COMP            .                       Equinor            :COMPANY
WELL            .                        31/5-7            :WELL NAME
FLD             .                           Eos            :FIELD NAME
RIGN            .                 West Hercules            :Rig Name
RIGTYP          .                Semi-Submersible          :Rig Type
SON             .                     19SCA0085            :Service Order Number
SRVC            .                  Schlumberger            :SERVICE COMPANY
DATE            .                    12/05/2019            :LOG DATE(Composite Date for Composite LAP) (MM/DD/YYYY)
CLAB            .                       County:            :County Label
CNTY            .                                          :COUNTY
SLAB            .                                          :State/Province Label
STAT            .                                          :STATE or PROVINCE
PROV            .                                          :STATE or PROVINCE
CTRY            .                        Norway            :COUNTRY
CONT_REGION     .                        Europe            :Continent Region
SECT            .                                          :Section
TOWN            .                                          :Township
RANG            .                                          :Range
API             .                                          :API NUMBER
UWI             .                                          :UNIQUE WELL ID
LUL             .                Service Office            :Logging Unit Location
LUN             .                          A615            :Logging Unit Number
LOC             .                Norwegian North Sea       :FIELD LOCATION
FL1             .                Section: 26 in.           :Field Location Line 1
FL2             .                Job no.: 19SCA0085        :Field Location Line 2
LATI            .deg             60° 34' 35.14" N          :LATITUDE
LONG            .deg             3° 26' 36.13" E           :LONGITUDE
PDAT            .                           MSL            :Local Permanent Datum
LMF             .                            DF            :Logging Measured From
APD             .m                        31.00            :Elevation of Depth Reference (LMF) Above Permanent Datum
EPD             .m                         0.00            :Elevation of Permanent Datum (PDAT) above Mean Sea Level
EKB             .m                      -999.25            :Elevation of Kelly Bushing Above Permanent Datum
EDF             .m                        31.00            :Elevation of Drill Floor Above Permanent Datum
EGL             .m                      -307.00            :Elevation of Ground Level Above Permanent Datum
ECF             .m                      -999.25            :Elevation of Casing Flange above Permanent Datum
#--------------------------------------------------
~CURVE INFORMATION
#MNEM           .UNIT                  API CODE            :DESCRIPTION
#----            ------          --------------            -----------------------------
TIME_1900       .d                                         :                                                        Time Index(OLE Automation date)
TIME            .s                                         :                                (10s)                   Time(hh mm ss/dd-MMM-yyyy)
DEPTH           .m                                         :(RT)    (DnMWorkflow)                                   Depth Index
GR_CAL          .gAPI                                      :(RT)    (ARC9)                                          Calibrated Gamma Ray
BLKP            .m                                         :(RT)    (DRILLING_SURFACE)                              Height of block above rig floor
CRPM            .c/min                                     :(RT)    (TELE900)                                       Collar Rotational Speed
STICK           .c/min                                     :(RT)    (TELE900)                                       Stick Slip Indicator
SHKPK           .gn                                        :(RT)    (TELE900)                                       Shock Peak
SHKRSK          .                                          :(RT)    (TELE900)                                       Shock Risk
DHAP            .bar                                       :(RM)    (ARC9)                                          Downhole Annulus Pressure
DHAT            .degC                                      :(RM)    (ARC9)                                          Downhole Annulus Temperature
ECD             .g/cm3                                     :(RM)    (ARC9)                                          Equivalent Circulating Density
#-------------------------------------------------------------
#       TIME_1900                 TIME        DEPTH       GR_CAL         BLKP         CRPM        STICK        SHKPK       SHKRSK         DHAP         DHAT          ECD 
#                                       (DnMWorkfl)       (ARC9)  (DRILLING_)    (TELE900)    (TELE900)    (TELE900)    (TELE900)       (ARC9)       (ARC9)       (ARC9) 
#                                              (RT)         (RT)         (RT)         (RT)         (RT)         (RT)         (RT)         (RM)         (RM)         (RM) 
#                                (10s)                                                                                                                                   
~ASCII
# ...
 43805.1541666667 03:42:00/06-Dec-2019     609.9100      81.3877      10.6300      -999.25      -999.25      -999.25      -999.25      60.4670      13.0000       1.1079
 43805.1542824074 03:42:10/06-Dec-2019     609.8300      84.4026      10.8000      -999.25      -999.25      -999.25      -999.25      60.3981      13.0000       1.1068
 43805.1543981481 03:42:20/06-Dec-2019     611.2300      82.9205       9.3100      77.0000      -999.25       0.0000       0.0000      60.3981      13.0000       1.1040
 43805.1545138889 03:42:30/06-Dec-2019     609.3100      80.9857      10.9400      -999.25      42.0000      -999.25      -999.25      60.4670      13.0000       1.1090
 43805.1546296296 03:42:40/06-Dec-2019     609.9800      79.5036      10.7500      -999.25      -999.25      -999.25      -999.25      60.4670      13.0000       1.1078
 43805.1547453704 03:42:50/06-Dec-2019     611.4700      80.6538       9.0700      -999.25      -999.25      -999.25      -999.25      60.5360      13.0000       1.1061
 43805.1548611111 03:43:00/06-Dec-2019     609.8600      79.6439      10.6800      -999.25      -999.25      -999.25      -999.25      60.5360      13.0000       1.1093
 43805.1549768519 03:43:10/06-Dec-2019     611.1900      79.1247       9.3500      77.0000      -999.25       0.0000       0.0000      60.5360      13.0000       1.1066
 43805.1550925926 03:43:20/06-Dec-2019     610.2300      83.2800      10.2100      -999.25      27.0000      -999.25      -999.25      60.6049      13.0000       1.1097
 43805.1552083333 03:43:30/06-Dec-2019     610.7100      87.3964      10.1100      -999.25      -999.25      -999.25      -999.25      60.6049      13.0000       1.1089
 43805.1553240741 03:43:40/06-Dec-2019     611.3100      86.8587       9.2300      -999.25      -999.25      -999.25      -999.25      60.6049      13.0000       1.1076
 43805.1554398148 03:43:50/06-Dec-2019     610.9400      85.9635       9.6900      81.0000      -999.25       0.0000       0.0000      60.6049      13.0000       1.1084
 43805.1555555556 03:44:00/06-Dec-2019     611.4400      85.9635       9.1800      -999.25      36.0000      -999.25      -999.25      60.6739      13.0000       1.1087
 43805.1556712963 03:44:10/06-Dec-2019     611.1800      86.8587       9.3500      -999.25      -999.25      -999.25      -999.25      60.6739      13.0000       1.1092
 43805.1557870370 03:44:20/06-Dec-2019     611.9400      85.4201       8.6000      -999.25      -999.25      -999.25      -999.25      60.7428      13.0000       1.1089
 43805.1559027778 03:44:30/06-Dec-2019     610.9600      83.7712       9.1900      79.0000      -999.25      -999.25      -999.25      60.8118      13.0000       1.1120
 43805.1560185185 03:44:40/06-Dec-2019     611.0600      81.9531       9.5700      -999.25      42.0000       0.0000       0.0000      60.8807      13.0000       1.1132
 43805.1561342593 03:44:50/06-Dec-2019     611.9100      80.1350       8.6200      -999.25      -999.25      -999.25      -999.25      60.8807      13.0000       1.1115
 43805.1562500000 03:45:00/06-Dec-2019     611.5200      79.1676       8.9200      -999.25      -999.25      -999.25      -999.25      60.8807      13.0000       1.1122
 43805.1563657407 03:45:10/06-Dec-2019     611.7300      77.0817       8.8100      -999.25      -999.25      -999.25      -999.25      60.9497      13.0000       1.1131
 43805.1564814815 03:45:20/06-Dec-2019     611.7900      72.0187       8.7500      79.0000      -999.25       0.0000       0.0000      60.8807      13.0000       1.1117
 43805.1565972222 03:45:30/06-Dec-2019     612.1600      70.0839       8.3800      -999.25      27.0000      -999.25      -999.25      61.0186      13.0000       1.1135
 43805.1567129630 03:45:40/06-Dec-2019     611.6600      72.1827       8.8800      -999.25      -999.25      -999.25      -999.25      61.0186      13.0000       1.1145
 43805.1568287037 03:45:50/06-Dec-2019     612.6100      72.1827       7.9300      -999.25      -999.25      -999.25      -999.25      61.0186      13.0000       1.1126
 43805.1569444444 03:46:00/06-Dec-2019     612.4200      70.0839       8.1200      78.0000      -999.25      -999.25      -999.25      61.0186      13.0000       1.1129
 43805.1570601852 03:46:10/06-Dec-2019     611.9500      72.0187       8.5900      -999.25      42.0000       0.0000       1.0000      61.0186      13.0000       1.1139
 43805.1571759259 03:46:20/06-Dec-2019     612.7100      77.0817       7.8300      -999.25      -999.25      -999.25      -999.25      61.0876      13.0000       1.1137
 43805.1572916667 03:46:30/06-Dec-2019     612.2300      76.1281       8.3100      -999.25      -999.25      -999.25      -999.25      61.3633      13.0000       1.1197
 43805.1574074074 03:46:40/06-Dec-2019     613.2700      75.4557       7.2700      -999.25      -999.25      -999.25      -999.25      61.0876      13.0000       1.1126
 43805.1575231481 03:46:50/06-Dec-2019     612.8000      75.9213       7.7400      81.0000      -999.25       0.0000       0.0000      61.0876      13.0000       1.1135
 43805.1576388889 03:47:00/06-Dec-2019     612.8000      75.4520       7.7400      -999.25      -999.25      -999.25      -999.25      61.0186      13.0000       1.1123
 43805.1577546296 03:47:10/06-Dec-2019     613.2700      76.1688       7.2700      -999.25      -999.25      -999.25      -999.25      60.9497      13.0000       1.1100
 43805.1578703704 03:47:20/06-Dec-2019     613.1900      79.1118       7.3500      -999.25      -999.25      -999.25      -999.25      60.9497      13.0000       1.1102
 43805.1579861111 03:47:30/06-Dec-2019     613.1000      80.0268       7.4400      83.0000      -999.25       0.0000       0.0000      60.9497      13.0000       1.1104
 43805.1581018518 03:47:40/06-Dec-2019     612.5900      80.2863       7.9500      -999.25      51.0000      -999.25      -999.25      60.9497      13.0000       1.1114
 43805.1582175926 03:47:50/06-Dec-2019     613.4400      79.7689       7.1000      -999.25      -999.25      -999.25      -999.25      60.9497      13.0000       1.1097
 43805.1583333333 03:48:00/06-Dec-2019     613.4500      77.8050       7.0900      -999.25      -999.25      -999.25      -999.25      60.8807      13.0000       1.1084
 43805.1584490741 03:48:10/06-Dec-2019     613.6100      75.2148       6.9300      80.0000      -999.25      -999.25      -999.25      60.9497      13.0000       1.1094
 43805.1585648148 03:48:20/06-Dec-2019     613.6100      74.6956       6.7500      -999.25      45.0000       0.0000       0.0000      60.8807      13.0000       1.1081
 43805.1586805556 03:48:30/06-Dec-2019     612.6600      78.8510       7.8800      -999.25      -999.25      -999.25      -999.25      60.9497      13.0000       1.1113
 43805.1587962963 03:48:40/06-Dec-2019     614.1600      83.3736       6.6600      -999.25      -999.25      -999.25      -999.25      61.0186      13.0000       1.1096
 43805.1589120370 03:48:50/06-Dec-2019     614.7100      86.1516       5.8300      -999.25      -999.25      -999.25      -999.25      60.9497      13.0000       1.1072
 43805.1590277778 03:49:00/06-Dec-2019     613.2900      87.0469       7.2500      79.0000      -999.25       0.0000       0.0000      61.0186      13.0000       1.1112
 43805.1591435185 03:49:10/06-Dec-2019     614.2100      87.0469       6.3300      -999.25      63.0000      -999.25      -999.25      61.0186      13.0000       1.1094
 43805.1592592593 03:49:20/06-Dec-2019     614.5400      86.1516       6.0000      -999.25      -999.25      -999.25      -999.25      61.0186      13.0000       1.1088
 43805.1593750000 03:49:30/06-Dec-2019     614.1100      81.5995       6.4300      -999.25      -999.25      -999.25      -999.25      61.0186      13.0000       1.1096
 43805.1594907407 03:49:40/06-Dec-2019     614.8400      82.4948       5.7000      79.0000      -999.25      -999.25      -999.25      61.0186      13.0000       1.1082
 43805.1596064815 03:49:50/06-Dec-2019     614.3200      82.4948       6.2200      -999.25      30.0000       0.0000       0.0000      61.0186      13.0000       1.1092
