~VERSION INFORMATION 
VERS  .    2.0                                     :CWLS Log ASCII Standard - VERSION 2.0
WRAP  .    NO                                      :One Line per Time step
PROD  .    Schlumberger Technology Corp.           :LAS Producer
PROG  .    Horizon LASWriter 9.2.113335.3100       :LAS Program name and version
SOURCE.    Run 5-TimeLogicalAcq                    :Run&Pass Information
CREA  .    12/20/2019                              :LAS Creation date {MM/DD/YYYY}
#--------------------------------------------------
~WELL INFORMATION 
#MNEM           .UNIT                      DATA            :DESCRIPTION
#----            ------          --------------            -----------------------------
STRT            .d               43815.4062500000          :START TIME(OLE Automation date)
STOP            .d               43816.7395833333          :STOP TIME(OLE Automation date)
STEP            .d                            0            :STEP TIME(10s in time)
NULL            .                       -999.25            :NULL VALUE
COMP            .                       Equinor            :COMPANY
WELL            .                        31/5-7            :WELL NAME
FLD             .                           Eos            :FIELD NAME
RIGN            .                 West Hercules            :Rig Name
RIGTYP          .                Semi-Submersible          :Rig Type
SON             .                     19SCA0085            :Service Order Number
SRVC            .                  Schlumberger            :SERVICE COMPANY
DATE            .                    12/16/2019            :LOG DATE(Composite Date for Composite LAP) (MM/DD/YYYY)
CLAB            .                       County:            :County Label
CNTY            .                                          :COUNTY
SLAB            .                                          :State/Province Label
STAT            .                                          :STATE or PROVINCE
PROV            .                                          :STATE or PROVINCE
CTRY            .                        Norway            :COUNTRY
CONT_REGION     .                        Europe            :Continent Region
SECT            .                                          :Section
TOWN            .                                          :Township
RANG            .                                          :Range
API             .                                          :API NUMBER
UWI             .                                          :UNIQUE WELL ID
LUL             .                Service Office            :Logging Unit Location
LUN             .                          A615            :Logging Unit Number
LOC             .                Norwegian North Sea       :FIELD LOCATION
FL1             .                Section: 12 1/4 in. pilot :Field Location Line 1
FL2             .                Job no.: 19SCA0085        :Field Location Line 2
LATI            .deg             60° 34' 35.14" N          :LATITUDE
LONG            .deg             3° 26' 36.13" E           :LONGITUDE
PDAT            .                           MSL            :Local Permanent Datum
LMF             .                            DF            :Logging Measured From
APD             .m                        31.00            :Elevation of Depth Reference (LMF) Above Permanent Datum
EPD             .m                         0.00            :Elevation of Permanent Datum (PDAT) above Mean Sea Level
EKB             .m                      -999.25            :Elevation of Kelly Bushing Above Permanent Datum
EDF             .m                        31.00            :Elevation of Drill Floor Above Permanent Datum
EGL             .m                      -307.00            :Elevation of Ground Level Above Permanent Datum
ECF             .m                      -999.25            :Elevation of Casing Flange above Permanent Datum
#--------------------------------------------------
~CURVE INFORMATION
#MNEM           .UNIT                  API CODE            :DESCRIPTION
#----            ------          --------------            -----------------------------
TIME_1900       .d                                         :                                                        Time Index(OLE Automation date)
TIME            .s                                         :                                (10s)                   Time(hh mm ss/dd-MMM-yyyy)
DEPTH           .m                                         :(RT)    (DnMWorkflow)                                   Depth Index
GR              .gAPI                                      :(RT)    (ARC9)                                          Gamma Ray
BLKP            .m                                         :(RT)    (DRILLING_SURFACE)                              Height of block above rig floor
STICK           .c/min                                     :(RT)    (TELE900)                                       Stick Slip Indicator
CRPM            .c/min                                     :(RT)    (TELE900)                                       Collar Rotational Speed
SHKRSK          .                                          :(RT)    (TELE900)                                       Shock Risk
SHKPK           .gn                                        :(RT)    (TELE900)                                       Shock Peak
ECD             .g/cm3                                     :(RM)    (ARC9)                                          Equivalent Circulating Density
DHAP            .bar                                       :(RM)    (ARC9)                                          Downhole Annulus Pressure
DHAT            .degC                                      :(RM)    (ARC9)                                          Downhole Annulus Temperature
#-------------------------------------------------------------
#       TIME_1900                 TIME        DEPTH           GR         BLKP        STICK         CRPM       SHKRSK        SHKPK          ECD         DHAP         DHAT 
#                                       (DnMWorkfl)       (ARC9)  (DRILLING_)    (TELE900)    (TELE900)    (TELE900)    (TELE900)       (ARC9)       (ARC9)       (ARC9) 
#                                              (RT)         (RT)         (RT)         (RT)         (RT)         (RT)         (RT)         (RM)         (RM)         (RM) 
#                                (10s)                                                                                                                                   
~ASCII
# ...
 43815.9729166667 23:21:00/16-Dec-2019    1598.3700      96.7224       9.7900      -999.25      -999.25      -999.25      -999.25       1.3306     207.0496      30.0000
 43815.9730324074 23:21:10/16-Dec-2019    1598.7599      98.5230       9.4200      -999.25      -999.25      -999.25      -999.25       1.3302     207.0496      30.0000
 43815.9731481481 23:21:20/16-Dec-2019    1598.8500      97.3926       9.3200      -999.25      -999.25      -999.25      -999.25       1.3306     207.1185      30.0000
 43815.9732638889 23:21:30/16-Dec-2019    1599.3199      92.8065       8.8600      -999.25     197.0000      -999.25      -999.25       1.3306     207.1875      30.0000
 43815.9733796296 23:21:40/16-Dec-2019    1599.6001      88.9185       8.5700      -999.25      -999.25      -999.25      -999.25       1.3304     207.1875      30.0000
 43815.9734953704 23:21:50/16-Dec-2019    1599.8900      87.8438       8.2800      -999.25      -999.25      -999.25      -999.25       1.3306     207.2564      30.0000
 43815.9736111111 23:22:00/16-Dec-2019    1600.2900      87.5772       7.8900      -999.25      -999.25      -999.25      -999.25       1.3316     207.4632      30.0000
 43815.9737268519 23:22:10/16-Dec-2019    1600.5200      90.9436       7.6700     327.0000      -999.25      -999.25      -999.25       1.3305     207.3254      30.0000
 43815.9738425926 23:22:20/16-Dec-2019    1600.8000      99.3586       7.3700      -999.25      -999.25       0.0000       0.0000       1.3307     207.3943      30.0000
 43815.9739583333 23:22:30/16-Dec-2019    1601.0900     107.0924       7.0800      -999.25      -999.25      -999.25      -999.25       1.3314     207.5322      30.0000
 43815.9740740741 23:22:40/16-Dec-2019    1601.3900     114.4432       6.7700      -999.25      -999.25      -999.25      -999.25       1.3320     207.6701      30.0000
 43815.9741898148 23:22:50/16-Dec-2019    1601.6799     114.6497       6.4800      -999.25     169.0000      -999.25      -999.25       1.3322     207.7390      30.0000
 43815.9743055556 23:23:00/16-Dec-2019    1602.0499     102.1709       6.1100      -999.25      -999.25      -999.25      -999.25       1.3337     208.0148      30.0000
 43815.9744212963 23:23:10/16-Dec-2019    1602.2400      88.9927       5.9200      -999.25      -999.25      -999.25      -999.25       1.3321     207.8080      30.0000
 43815.9745370370 23:23:20/16-Dec-2019    1602.5199      93.0158       5.6400      -999.25      -999.25      -999.25      -999.25       1.3324     207.8769      30.0000
 43815.9746527778 23:23:30/16-Dec-2019    1602.9000     106.2189       5.2600     303.0000      -999.25      -999.25      -999.25       1.3342     208.2217      30.0000
 43815.9747685185 23:23:40/16-Dec-2019    1603.3900     108.3085       4.7700      -999.25      -999.25      -999.25      -999.25       1.3347     208.3596      30.0000
 43815.9748842593 23:23:50/16-Dec-2019    1603.6901      98.3068       4.4700      -999.25      -999.25       0.0000       0.0000       1.3355     208.4975      30.0000
 43815.9750000000 23:24:00/16-Dec-2019    1603.7200      90.0504       4.4300      -999.25      -999.25      -999.25      -999.25       1.3353     208.4975      30.0000
 43815.9751157407 23:24:10/16-Dec-2019    1604.1001      89.2285       4.0600      -999.25      -999.25      -999.25      -999.25       1.3350     208.4975      30.0000
 43815.9752314815 23:24:20/16-Dec-2019    1604.3201      91.5216       3.8400      -999.25     170.0000      -999.25      -999.25       1.3348     208.4975      30.0000
 43815.9753472222 23:24:30/16-Dec-2019    1604.7000      93.4656       3.4600      -999.25      -999.25      -999.25      -999.25       1.3328     208.2217      30.0000
 43815.9754629630 23:24:40/16-Dec-2019    1605.1500      93.5529       3.0100      -999.25      -999.25      -999.25      -999.25       1.3311     208.0148      30.0000
 43815.9755787037 23:24:50/16-Dec-2019    1605.1100      94.1884       3.0500      -999.25      -999.25      -999.25      -999.25       1.3307     207.9459      30.0000
 43815.9756944444 23:25:00/16-Dec-2019    1605.5601      94.6093       2.6000     348.0000      -999.25      -999.25      -999.25       1.3316     208.1527      30.0000
 43815.9758101852 23:25:10/16-Dec-2019    1605.3899      94.0205       2.7700      -999.25      -999.25       0.0000       0.0000       1.3305     207.9459      30.0000
 43815.9759259259 23:25:20/16-Dec-2019    1605.7500      93.7711       2.4100      -999.25      -999.25      -999.25      -999.25       1.3315     208.1527      30.0000
 43815.9760416667 23:25:30/16-Dec-2019    1606.0100      94.4417       2.1500      -999.25      -999.25      -999.25      -999.25       1.3304     208.0148      30.0000
 43815.9761574074 23:25:40/16-Dec-2019    1605.8201      94.2735       2.3400      -999.25     183.0000      -999.25      -999.25       1.3300     207.9459      30.0000
 43815.9762731481 23:25:50/16-Dec-2019    1606.1100      93.7235       2.0500      -999.25      -999.25      -999.25      -999.25       1.3311     208.1527      30.0000
 43815.9763888889 23:26:00/16-Dec-2019    1606.0200      95.7659       2.1400      -999.25      -999.25      -999.25      -999.25       1.3299     207.9459      30.0000
 43815.9765046296 23:26:10/16-Dec-2019    1606.0701      -999.25       2.0900      -999.25      -999.25      -999.25      -999.25       1.3268     207.4632      30.0000
 43815.9766203704 23:26:20/16-Dec-2019    1604.7900      -999.25       3.3700     192.0000      -999.25      -999.25      -999.25       1.3295     207.7390      30.0000
 43815.9767361111 23:26:30/16-Dec-2019    1603.7400      -999.25       4.4200      -999.25      -999.25      -999.25      -999.25       1.3235     206.6359      30.0000
 43815.9768518518 23:26:40/16-Dec-2019    1603.1399      -999.25       5.0200      -999.25      -999.25      -999.25      -999.25       1.3297     207.5322      30.0000
 43815.9769675926 23:26:50/16-Dec-2019    1604.0299      -999.25       4.1300      -999.25      -999.25      -999.25      -999.25       1.3276     207.3254      30.0000
 43815.9770833333 23:27:00/16-Dec-2019    1603.1399      -999.25       5.0200      -999.25      -999.25      -999.25      -999.25       1.3174     205.6017      30.0000
 43815.9771990741 23:27:10/16-Dec-2019    1603.2999      -999.25       4.8500      -999.25      -999.25      -999.25      -999.25       1.3000     202.9127      30.0000
 43815.9773148148 23:27:20/16-Dec-2019    1603.7100      -999.25       4.4500      -999.25      -999.25      -999.25      -999.25       1.2983     202.7059      30.0000
 43815.9774305556 23:27:30/16-Dec-2019    1603.6400      -999.25       4.5200      -999.25      -999.25      -999.25      -999.25       1.3001     202.9817      30.0000
 43815.9775462963 23:27:40/16-Dec-2019    1603.6100      -999.25       4.5500      -999.25      -999.25      -999.25      -999.25       1.2992     202.8438      30.0000
 43815.9776620370 23:27:50/16-Dec-2019    1603.6801      -999.25       4.4800      -999.25      -999.25      -999.25      -999.25       1.2956     202.2922      30.0000
 43815.9777777778 23:28:00/16-Dec-2019    1603.6901      -999.25       4.4700      -999.25      -999.25      -999.25      -999.25       1.2987     202.7748      30.0000
 43815.9778935185 23:28:10/16-Dec-2019    1603.6901      -999.25       4.4700      -999.25      -999.25      -999.25      -999.25       1.3014     203.1885      30.0000
 43815.9780092593 23:28:20/16-Dec-2019    1603.6901      -999.25       4.4700      -999.25      -999.25      -999.25      -999.25       1.2983     202.7059      30.0000
 43815.9781250000 23:28:30/16-Dec-2019    1603.6901      -999.25       4.4700      -999.25      -999.25      -999.25      -999.25       1.2961     202.3611      30.0000
 43815.9782407407 23:28:40/16-Dec-2019    1603.6901      -999.25       4.4700      -999.25      -999.25      -999.25      -999.25       1.2974     202.5680      30.0000
 43815.9783564815 23:28:50/16-Dec-2019    1603.6901      -999.25       4.5000      -999.25      -999.25      -999.25      -999.25       1.3014     203.1885      30.0000
