~VERSION INFORMATION 
VERS  .    2.0                                     :CWLS Log ASCII Standard - VERSION 2.0
WRAP  .    NO                                      :One Line per Time step
PROD  .    Schlumberger Technology Corp.           :LAS Producer
PROG  .    Horizon LASWriter 9.2.113335.3100       :LAS Program name and version
SOURCE.    Run 3-TimeLogicalAcq                    :Run&Pass Information
CREA  .    12/12/2019                              :LAS Creation date {MM/DD/YYYY}
#--------------------------------------------------
~WELL INFORMATION 
#MNEM           .UNIT                      DATA            :DESCRIPTION
#----            ------          --------------            -----------------------------
STRT            .d               43804.6875000000          :START TIME(OLE Automation date)
STOP            .d               43805.8541666667          :STOP TIME(OLE Automation date)
STEP            .d                            0            :STEP TIME(10s in time)
NULL            .                       -999.25            :NULL VALUE
COMP            .                       Equinor            :COMPANY
WELL            .                        31/5-7            :WELL NAME
FLD             .                           Eos            :FIELD NAME
RIGN            .                 West Hercules            :Rig Name
RIGTYP          .                Semi-Submersible          :Rig Type
SON             .                     19SCA0085            :Service Order Number
SRVC            .                  Schlumberger            :SERVICE COMPANY
DATE            .                    12/05/2019            :LOG DATE(Composite Date for Composite LAP) (MM/DD/YYYY)
CLAB            .                       County:            :County Label
CNTY            .                                          :COUNTY
SLAB            .                                          :State/Province Label
STAT            .                                          :STATE or PROVINCE
PROV            .                                          :STATE or PROVINCE
CTRY            .                        Norway            :COUNTRY
CONT_REGION     .                        Europe            :Continent Region
SECT            .                                          :Section
TOWN            .                                          :Township
RANG            .                                          :Range
API             .                                          :API NUMBER
UWI             .                                          :UNIQUE WELL ID
LUL             .                Service Office            :Logging Unit Location
LUN             .                          A615            :Logging Unit Number
LOC             .                Norwegian North Sea       :FIELD LOCATION
FL1             .                Section: 26 in.           :Field Location Line 1
FL2             .                Job no.: 19SCA0085        :Field Location Line 2
LATI            .deg             60° 34' 35.14" N          :LATITUDE
LONG            .deg             3° 26' 36.13" E           :LONGITUDE
PDAT            .                           MSL            :Local Permanent Datum
LMF             .                            DF            :Logging Measured From
APD             .m                        31.00            :Elevation of Depth Reference (LMF) Above Permanent Datum
EPD             .m                         0.00            :Elevation of Permanent Datum (PDAT) above Mean Sea Level
EKB             .m                      -999.25            :Elevation of Kelly Bushing Above Permanent Datum
EDF             .m                        31.00            :Elevation of Drill Floor Above Permanent Datum
EGL             .m                      -307.00            :Elevation of Ground Level Above Permanent Datum
ECF             .m                      -999.25            :Elevation of Casing Flange above Permanent Datum
#--------------------------------------------------
~CURVE INFORMATION
#MNEM           .UNIT                  API CODE            :DESCRIPTION
#----            ------          --------------            -----------------------------
TIME_1900       .d                                         :                                                        Time Index(OLE Automation date)
TIME            .s                                         :                                (10s)                   Time(hh mm ss/dd-MMM-yyyy)
DEPTH           .m                                         :(RT)    (DnMWorkflow)                                   Depth Index
GR_CAL          .gAPI                                      :(RT)    (ARC9)                                          Calibrated Gamma Ray
BLKP            .m                                         :(RT)    (DRILLING_SURFACE)                              Height of block above rig floor
CRPM            .c/min                                     :(RT)    (TELE900)                                       Collar Rotational Speed
STICK           .c/min                                     :(RT)    (TELE900)                                       Stick Slip Indicator
SHKPK           .gn                                        :(RT)    (TELE900)                                       Shock Peak
SHKRSK          .                                          :(RT)    (TELE900)                                       Shock Risk
DHAP            .bar                                       :(RM)    (ARC9)                                          Downhole Annulus Pressure
DHAT            .degC                                      :(RM)    (ARC9)                                          Downhole Annulus Temperature
ECD             .g/cm3                                     :(RM)    (ARC9)                                          Equivalent Circulating Density
#-------------------------------------------------------------
#       TIME_1900                 TIME        DEPTH       GR_CAL         BLKP         CRPM        STICK        SHKPK       SHKRSK         DHAP         DHAT          ECD 
#                                       (DnMWorkfl)       (ARC9)  (DRILLING_)    (TELE900)    (TELE900)    (TELE900)    (TELE900)       (ARC9)       (ARC9)       (ARC9) 
#                                              (RT)         (RT)         (RT)         (RT)         (RT)         (RT)         (RT)         (RM)         (RM)         (RM) 
#                                (10s)                                                                                                                                   
~ASCII
# ...
 43804.8430555556 20:14:00/05-Dec-2019     424.6300      -999.25      43.4900      -999.25      -999.25      -999.25      -999.25      39.3691      12.0000       1.0813
 43804.8431712963 20:14:10/05-Dec-2019     424.6600      -999.25      43.4600      -999.25      -999.25      -999.25      -999.25      39.3691      12.0000       1.0812
 43804.8432870370 20:14:20/05-Dec-2019     424.6800      -999.25      43.4400      -999.25      -999.25      -999.25      -999.25      39.3691      12.0000       1.0811
 43804.8434027778 20:14:30/05-Dec-2019     424.6800      -999.25      43.4400      -999.25      -999.25      -999.25      -999.25      39.3691      12.0000       1.0811
 43804.8435185185 20:14:40/05-Dec-2019     424.6800      -999.25      43.4400      -999.25      -999.25      -999.25      -999.25      39.4380      12.0000       1.0830
 43804.8436342593 20:14:50/05-Dec-2019     424.6800      -999.25      43.4400      -999.25      -999.25      -999.25      -999.25      39.3691      12.0000       1.0811
 43804.8437500000 20:15:00/05-Dec-2019     424.6800      -999.25      43.4400      -999.25      -999.25      -999.25      -999.25      39.3691      12.0000       1.0811
 43804.8438657407 20:15:10/05-Dec-2019     424.6800      -999.25      43.4400      -999.25      -999.25      -999.25      -999.25      39.3691      12.0000       1.0811
 43804.8439814815 20:15:20/05-Dec-2019     424.6800      -999.25      43.4400      -999.25      -999.25      -999.25      -999.25      39.3001      12.0000       1.0792
 43804.8440972222 20:15:30/05-Dec-2019     424.6800      -999.25      43.4400      -999.25      -999.25      -999.25      -999.25      39.3691      12.0000       1.0811
 43804.8442129630 20:15:40/05-Dec-2019     424.6800      -999.25      43.4400      -999.25      -999.25      -999.25      -999.25      39.3691      12.0000       1.0811
 43804.8443287037 20:15:50/05-Dec-2019     424.6800      -999.25      43.4400      -999.25      -999.25      -999.25      -999.25      39.3691      12.0000       1.0811
 43804.8444444444 20:16:00/05-Dec-2019     424.6800      -999.25      43.4400      -999.25      -999.25      -999.25      -999.25      39.3001      12.0000       1.0792
 43804.8445601852 20:16:10/05-Dec-2019     424.6800      -999.25      43.4400      -999.25      -999.25      -999.25      -999.25      39.3001      12.0000       1.0792
 43804.8446759259 20:16:20/05-Dec-2019     424.6800      -999.25      43.4400      -999.25      -999.25      -999.25      -999.25      39.3691      12.0000       1.0811
 43804.8447916667 20:16:30/05-Dec-2019     424.6800      -999.25      43.4400      -999.25      -999.25      -999.25      -999.25      39.3691      12.0000       1.0811
 43804.8449074074 20:16:40/05-Dec-2019     424.6800      -999.25      43.4400      -999.25      -999.25      -999.25      -999.25      39.3691      12.0000       1.0811
 43804.8450231481 20:16:50/05-Dec-2019     424.6800      -999.25      43.4400      -999.25      -999.25      -999.25      -999.25      39.3691      12.0000       1.0811
 43804.8451388889 20:17:00/05-Dec-2019     424.6800      -999.25      43.4400      -999.25      -999.25      -999.25      -999.25      39.3001      12.0000       1.0792
 43804.8452546296 20:17:10/05-Dec-2019     424.6800      -999.25      43.4400      -999.25      -999.25      -999.25      -999.25      39.3691      12.0000       1.0811
 43804.8453703704 20:17:20/05-Dec-2019     424.6800      -999.25      43.4400      -999.25      -999.25      -999.25      -999.25      39.3691      12.0000       1.0811
 43804.8454861111 20:17:30/05-Dec-2019     424.6800      -999.25      43.4400      -999.25      -999.25      -999.25      -999.25      39.3691      12.0000       1.0811
 43804.8456018518 20:17:40/05-Dec-2019     424.6800      -999.25      43.5900      -999.25      -999.25      -999.25      -999.25      39.3001      12.0000       1.0792
 43804.8457175926 20:17:50/05-Dec-2019     424.6800      -999.25      43.7400      -999.25      -999.25      -999.25      -999.25      39.3691      12.0000       1.0811
 43804.8458333333 20:18:00/05-Dec-2019     424.6800      -999.25      43.9400      -999.25      -999.25      -999.25      -999.25      39.3001      12.0000       1.0792
 43804.8459490741 20:18:10/05-Dec-2019     424.6800      -999.25      43.9400      -999.25      -999.25      -999.25      -999.25      39.3001      12.0000       1.0792
 43804.8460648148 20:18:20/05-Dec-2019     424.6800      -999.25      43.9400      -999.25      -999.25      -999.25      -999.25      39.3691      12.0000       1.0811
 43804.8461805556 20:18:30/05-Dec-2019     424.6800      -999.25      43.9400      -999.25      -999.25      -999.25      -999.25      39.3001      12.0000       1.0792
 43804.8462962963 20:18:40/05-Dec-2019     424.6800      -999.25      43.9400      -999.25      -999.25      -999.25      -999.25      39.3691      12.0000       1.0811
 43804.8464120370 20:18:50/05-Dec-2019     424.6800      -999.25      41.3000      -999.25      -999.25      -999.25      -999.25      39.3001      12.0000       1.0792
 43804.8465277778 20:19:00/05-Dec-2019     424.6800      -999.25      25.5400      -999.25      -999.25      -999.25      -999.25      39.3691      12.0000       1.0811
 43804.8466435185 20:19:10/05-Dec-2019     424.6800      -999.25      11.9800      -999.25      -999.25      -999.25      -999.25      39.2312      12.0000       1.0773
 43804.8467592593 20:19:20/05-Dec-2019     424.6800      -999.25       8.4800      -999.25      -999.25      -999.25      -999.25      39.3001      12.0000       1.0792
 43804.8468750000 20:19:30/05-Dec-2019     424.6800      -999.25       5.2900      -999.25      -999.25      -999.25      -999.25      39.3001      12.0000       1.0792
 43804.8469907407 20:19:40/05-Dec-2019     424.6800      -999.25       4.8300      -999.25      -999.25      -999.25      -999.25      39.3001      12.0000       1.0792
 43804.8471064815 20:19:50/05-Dec-2019     424.6800      -999.25       4.8300      -999.25      -999.25      -999.25      -999.25      39.3001      12.0000       1.0792
 43804.8472222222 20:20:00/05-Dec-2019     424.6800      -999.25       4.8300      -999.25      -999.25      -999.25      -999.25      39.3001      12.0000       1.0792
 43804.8473379630 20:20:10/05-Dec-2019     424.6800      -999.25       4.8000      -999.25      -999.25      -999.25      -999.25      39.3001      12.0000       1.0792
 43804.8474537037 20:20:20/05-Dec-2019     424.6800      -999.25       4.6800      -999.25      -999.25      -999.25      -999.25      39.2312      12.0000       1.0773
 43804.8475694444 20:20:30/05-Dec-2019     424.6800      -999.25       4.5400      -999.25      -999.25      -999.25      -999.25      39.3001      12.0000       1.0792
 43804.8476851852 20:20:40/05-Dec-2019     424.6800      -999.25       4.5200      -999.25      -999.25      -999.25      -999.25      39.2312      12.0000       1.0773
 43804.8478009259 20:20:50/05-Dec-2019     424.6800      -999.25       4.5200      -999.25      -999.25      -999.25      -999.25      39.2312      12.0000       1.0773
 43804.8479166667 20:21:00/05-Dec-2019     424.6800      -999.25       4.5200      -999.25      -999.25      -999.25      -999.25      39.1622      12.0000       1.0754
 43804.8480324074 20:21:10/05-Dec-2019     424.6800      -999.25       4.5200      -999.25      -999.25      -999.25      -999.25      39.1622      12.0000       1.0754
 43804.8481481481 20:21:20/05-Dec-2019     424.6800      -999.25       4.5200      -999.25      -999.25      -999.25      -999.25      39.3001      12.0000       1.0792
 43804.8482638889 20:21:30/05-Dec-2019     424.6800      -999.25       4.5200      -999.25      -999.25      -999.25      -999.25      39.2312      12.0000       1.0773
 43804.8483796296 20:21:40/05-Dec-2019     424.6800      -999.25       4.5200      -999.25      -999.25      -999.25      -999.25      39.1622      12.0000       1.0754
 43804.8484953704 20:21:50/05-Dec-2019     424.6800      -999.25       4.5200      -999.25      -999.25      -999.25      -999.25      39.2312      12.0000       1.0773
