~VERSION INFORMATION 
VERS  .    2.0                                     :CWLS Log ASCII Standard - VERSION 2.0
WRAP  .    NO                                      :One Line per Time step
PROD  .    Schlumberger Technology Corp.           :LAS Producer
PROG  .    Horizon LASWriter 9.2.113335.3100       :LAS Program name and version
SOURCE.    Run 5-TimeLogicalAcq                    :Run&Pass Information
CREA  .    12/20/2019                              :LAS Creation date {MM/DD/YYYY}
#--------------------------------------------------
~WELL INFORMATION 
#MNEM           .UNIT                      DATA            :DESCRIPTION
#----            ------          --------------            -----------------------------
STRT            .d               43815.4062500000          :START TIME(OLE Automation date)
STOP            .d               43816.7395833333          :STOP TIME(OLE Automation date)
STEP            .d                            0            :STEP TIME(10s in time)
NULL            .                       -999.25            :NULL VALUE
COMP            .                       Equinor            :COMPANY
WELL            .                        31/5-7            :WELL NAME
FLD             .                           Eos            :FIELD NAME
RIGN            .                 West Hercules            :Rig Name
RIGTYP          .                Semi-Submersible          :Rig Type
SON             .                     19SCA0085            :Service Order Number
SRVC            .                  Schlumberger            :SERVICE COMPANY
DATE            .                    12/16/2019            :LOG DATE(Composite Date for Composite LAP) (MM/DD/YYYY)
CLAB            .                       County:            :County Label
CNTY            .                                          :COUNTY
SLAB            .                                          :State/Province Label
STAT            .                                          :STATE or PROVINCE
PROV            .                                          :STATE or PROVINCE
CTRY            .                        Norway            :COUNTRY
CONT_REGION     .                        Europe            :Continent Region
SECT            .                                          :Section
TOWN            .                                          :Township
RANG            .                                          :Range
API             .                                          :API NUMBER
UWI             .                                          :UNIQUE WELL ID
LUL             .                Service Office            :Logging Unit Location
LUN             .                          A615            :Logging Unit Number
LOC             .                Norwegian North Sea       :FIELD LOCATION
FL1             .                Section: 12 1/4 in. pilot :Field Location Line 1
FL2             .                Job no.: 19SCA0085        :Field Location Line 2
LATI            .deg             60° 34' 35.14" N          :LATITUDE
LONG            .deg             3° 26' 36.13" E           :LONGITUDE
PDAT            .                           MSL            :Local Permanent Datum
LMF             .                            DF            :Logging Measured From
APD             .m                        31.00            :Elevation of Depth Reference (LMF) Above Permanent Datum
EPD             .m                         0.00            :Elevation of Permanent Datum (PDAT) above Mean Sea Level
EKB             .m                      -999.25            :Elevation of Kelly Bushing Above Permanent Datum
EDF             .m                        31.00            :Elevation of Drill Floor Above Permanent Datum
EGL             .m                      -307.00            :Elevation of Ground Level Above Permanent Datum
ECF             .m                      -999.25            :Elevation of Casing Flange above Permanent Datum
#--------------------------------------------------
~CURVE INFORMATION
#MNEM           .UNIT                  API CODE            :DESCRIPTION
#----            ------          --------------            -----------------------------
TIME_1900       .d                                         :                                                        Time Index(OLE Automation date)
TIME            .s                                         :                                (10s)                   Time(hh mm ss/dd-MMM-yyyy)
DEPTH           .m                                         :(RT)    (DnMWorkflow)                                   Depth Index
GR              .gAPI                                      :(RT)    (ARC9)                                          Gamma Ray
BLKP            .m                                         :(RT)    (DRILLING_SURFACE)                              Height of block above rig floor
STICK           .c/min                                     :(RT)    (TELE900)                                       Stick Slip Indicator
CRPM            .c/min                                     :(RT)    (TELE900)                                       Collar Rotational Speed
SHKRSK          .                                          :(RT)    (TELE900)                                       Shock Risk
SHKPK           .gn                                        :(RT)    (TELE900)                                       Shock Peak
ECD             .g/cm3                                     :(RM)    (ARC9)                                          Equivalent Circulating Density
DHAP            .bar                                       :(RM)    (ARC9)                                          Downhole Annulus Pressure
DHAT            .degC                                      :(RM)    (ARC9)                                          Downhole Annulus Temperature
#-------------------------------------------------------------
#       TIME_1900                 TIME        DEPTH           GR         BLKP        STICK         CRPM       SHKRSK        SHKPK          ECD         DHAP         DHAT 
#                                       (DnMWorkfl)       (ARC9)  (DRILLING_)    (TELE900)    (TELE900)    (TELE900)    (TELE900)       (ARC9)       (ARC9)       (ARC9) 
#                                              (RT)         (RT)         (RT)         (RT)         (RT)         (RT)         (RT)         (RM)         (RM)         (RM) 
#                                (10s)                                                                                                                                   
~ASCII
# ...
 43816.4784722222 11:29:00/17-Dec-2019    1482.5800      -999.25      43.1200      -999.25      -999.25      -999.25      -999.25       1.2890     185.9516      30.0000
 43816.4785879630 11:29:10/17-Dec-2019    1482.5800      -999.25      43.1200      -999.25      -999.25      -999.25      -999.25       1.2895     186.0205      30.0000
 43816.4787037037 11:29:20/17-Dec-2019    1482.5800      -999.25      43.1200      -999.25      -999.25      -999.25      -999.25       1.2852     185.4000      30.0000
 43816.4788194444 11:29:30/17-Dec-2019    1482.5800      -999.25      43.1200      -999.25      -999.25      -999.25      -999.25       1.2795     184.5727      30.0000
 43816.4789351852 11:29:40/17-Dec-2019    1482.5800      -999.25      43.1200      -999.25      -999.25      -999.25      -999.25       1.2842     185.2621      30.0000
 43816.4790509259 11:29:50/17-Dec-2019    1482.5800      -999.25      43.1200      -999.25      -999.25      -999.25      -999.25       1.2924     186.4342      30.0000
 43816.4791666667 11:30:00/17-Dec-2019    1482.5800      -999.25      43.1200      -999.25      -999.25      -999.25      -999.25       1.2833     185.1242      30.0000
 43816.4792824074 11:30:10/17-Dec-2019    1482.5800      -999.25      43.1200      -999.25      -999.25      -999.25      -999.25       1.2771     184.2279      30.0000
 43816.4793981481 11:30:20/17-Dec-2019    1482.5800      -999.25      43.1200      -999.25      -999.25      -999.25      -999.25       1.2785     184.4348      30.0000
 43816.4795138889 11:30:30/17-Dec-2019    1482.5800      -999.25      43.1200      -999.25      -999.25      -999.25      -999.25       1.2833     185.1242      30.0000
 43816.4796296296 11:30:40/17-Dec-2019    1482.5800      -999.25      43.1200      -999.25      -999.25      -999.25      -999.25       1.2804     184.7105      30.0000
 43816.4797453704 11:30:50/17-Dec-2019    1482.5800      -999.25      43.1200      -999.25      -999.25      -999.25      -999.25       1.2890     185.9516      30.0000
 43816.4798611111 11:31:00/17-Dec-2019    1482.5800      -999.25      43.1200      -999.25      -999.25      -999.25      -999.25       1.2847     185.3311      30.0000
 43816.4799768519 11:31:10/17-Dec-2019    1482.5800      -999.25      43.1300      -999.25      -999.25      -999.25      -999.25       1.2809     184.7795      30.0000
 43816.4800925926 11:31:20/17-Dec-2019    1482.5800      -999.25      43.4400      -999.25      -999.25      -999.25      -999.25       1.2838     185.1932      30.0000
 43816.4802083333 11:31:30/17-Dec-2019    1482.5800      -999.25      43.4400      -999.25      -999.25      -999.25      -999.25       1.2881     185.8137      30.0000
 43816.4803240741 11:31:40/17-Dec-2019    1482.5800      -999.25      43.4400      -999.25      -999.25      -999.25      -999.25       1.2919     186.3653      30.0000
 43816.4804398148 11:31:50/17-Dec-2019    1482.5800      -999.25      43.4400      -999.25      -999.25      -999.25      -999.25       1.2833     185.1242      30.0000
 43816.4805555556 11:32:00/17-Dec-2019    1482.5800      -999.25      43.4400      -999.25      -999.25      -999.25      -999.25       1.2852     185.4000      30.0000
 43816.4806712963 11:32:10/17-Dec-2019    1482.5800      -999.25      43.4400      -999.25      -999.25      -999.25      -999.25       1.2814     184.8484      30.0000
 43816.4807870370 11:32:20/17-Dec-2019    1482.5800      -999.25      43.4400      -999.25      -999.25      -999.25      -999.25       1.2909     186.2274      30.0000
 43816.4809027778 11:32:30/17-Dec-2019    1482.5800      -999.25      43.4400      -999.25      -999.25      -999.25      -999.25       1.2814     184.8484      30.0000
 43816.4810185185 11:32:40/17-Dec-2019    1482.5800      -999.25      42.2300      -999.25      -999.25      -999.25      -999.25       1.2785     184.4348      30.0000
 43816.4811342593 11:32:50/17-Dec-2019    1482.5800      -999.25      26.9600      -999.25      -999.25      -999.25      -999.25       1.2795     184.5727      30.0000
 43816.4812500000 11:33:00/17-Dec-2019    1482.5800      -999.25      10.5200      -999.25      -999.25      -999.25      -999.25       1.2809     184.7795      30.0000
 43816.4813657407 11:33:10/17-Dec-2019    1482.5800      -999.25       5.1100      -999.25      -999.25      -999.25      -999.25       1.2766     184.1590      30.0000
 43816.4814814815 11:33:20/17-Dec-2019    1482.5800      -999.25       4.8000      -999.25      -999.25      -999.25      -999.25       1.2895     186.0205      30.0000
 43816.4815972222 11:33:30/17-Dec-2019    1482.5800      -999.25       4.3800      -999.25      -999.25      -999.25      -999.25       1.2842     185.2621      30.0000
 43816.4817129630 11:33:40/17-Dec-2019    1482.5800      -999.25       4.2800      -999.25      -999.25      -999.25      -999.25       1.2838     185.1932      30.0000
 43816.4818287037 11:33:50/17-Dec-2019    1482.5800      -999.25       4.2600      -999.25      -999.25      -999.25      -999.25       1.2790     184.5037      30.0000
 43816.4819444444 11:34:00/17-Dec-2019    1482.5800      -999.25       4.2400      -999.25      -999.25      -999.25      -999.25       1.2828     185.0553      30.0000
 43816.4820601852 11:34:10/17-Dec-2019    1482.5800      -999.25       4.2300      -999.25      -999.25      -999.25      -999.25       1.2814     184.8484      30.0000
 43816.4821759259 11:34:20/17-Dec-2019    1482.5800      -999.25       4.2300      -999.25      -999.25      -999.25      -999.25       1.2881     185.8137      30.0000
 43816.4822916667 11:34:30/17-Dec-2019    1482.5800      -999.25       4.2600      -999.25      -999.25      -999.25      -999.25       1.2871     185.6758      30.0000
 43816.4824074074 11:34:40/17-Dec-2019    1482.2900      -999.25       4.3000      -999.25      -999.25      -999.25      -999.25       1.2893     185.9516      30.0000
 43816.4825231481 11:34:50/17-Dec-2019    1482.2900      -999.25       4.3000      -999.25      -999.25      -999.25      -999.25       1.2845     185.2621      30.0000
 43816.4826388889 11:35:00/17-Dec-2019    1482.2900      -999.25       4.3000      -999.25      -999.25      -999.25      -999.25       1.2859     185.4690      30.0000
 43816.4827546296 11:35:10/17-Dec-2019    1482.2900      -999.25       4.3000      -999.25      -999.25      -999.25      -999.25       1.2850     185.3311      30.0000
 43816.4828703704 11:35:20/17-Dec-2019    1482.2900      -999.25       4.3000      -999.25      -999.25      -999.25      -999.25       1.2883     185.8137      30.0000
 43816.4829861111 11:35:30/17-Dec-2019    1482.2900      -999.25       4.3000      -999.25      -999.25      -999.25      -999.25       1.2811     184.7795      30.0000
 43816.4831018519 11:35:40/17-Dec-2019    1482.2900      -999.25       4.3000      -999.25      -999.25      -999.25      -999.25       1.2816     184.8484      30.0000
 43816.4832175926 11:35:50/17-Dec-2019    1482.2900      -999.25       4.3000      -999.25      -999.25      -999.25      -999.25       1.2964     186.9858      30.0000
 43816.4833333333 11:36:00/17-Dec-2019    1482.2900      -999.25       4.3000      -999.25      -999.25      -999.25      -999.25       1.2988     187.3305      30.0000
 43816.4834490741 11:36:10/17-Dec-2019    1482.2900      -999.25       4.3000      -999.25      -999.25      -999.25      -999.25       1.2979     187.1927      30.0000
 43816.4835648148 11:36:20/17-Dec-2019    1482.2900      -999.25       4.3000      -999.25      -999.25      -999.25      -999.25       1.2941     186.6411      30.0000
 43816.4836805556 11:36:30/17-Dec-2019    1482.2900      -999.25       4.3000      -999.25      -999.25      -999.25      -999.25       1.2993     187.3995      30.0000
 43816.4837962963 11:36:40/17-Dec-2019    1482.2900      -999.25       4.3000      -999.25      -999.25      -999.25      -999.25       1.2931     186.5032      30.0000
 43816.4839120370 11:36:50/17-Dec-2019    1482.2900      -999.25       4.3000      -999.25      -999.25      -999.25      -999.25       1.2883     185.8137      30.0000
