~VERSION INFORMATION 
VERS  .    2.0                                     :CWLS Log ASCII Standard - VERSION 2.0
WRAP  .    NO                                      :One Line per Time step
PROD  .    Schlumberger Technology Corp.           :LAS Producer
PROG  .    Horizon LASWriter 9.2.113335.3100       :LAS Program name and version
SOURCE.    Run 7-TimeLogicalAcq                    :Run&Pass Information
CREA  .    12/27/2019                              :LAS Creation date {MM/DD/YYYY}
#--------------------------------------------------
~WELL INFORMATION 
#MNEM           .UNIT                      DATA            :DESCRIPTION
#----            ------          --------------            -----------------------------
STRT            .d               43818.4166666667          :START TIME(OLE Automation date)
STOP            .d               43819.7083333333          :STOP TIME(OLE Automation date)
STEP            .d                            0            :STEP TIME(10s in time)
NULL            .                       -999.25            :NULL VALUE
COMP            .                       Equinor            :COMPANY
WELL            .                        31/5-7            :WELL NAME
FLD             .                           Eos            :FIELD NAME
RIGN            .                 West Hercules            :Rig Name
RIGTYP          .                Semi-Submersible          :Rig Type
SON             .                     19SCA0085            :Service Order Number
SRVC            .                  Schlumberger            :SERVICE COMPANY
DATE            .                    12/19/2019            :LOG DATE(Composite Date for Composite LAP) (MM/DD/YYYY)
CLAB            .                       County:            :County Label
CNTY            .                                          :COUNTY
SLAB            .                                          :State/Province Label
STAT            .                                          :STATE or PROVINCE
PROV            .                                          :STATE or PROVINCE
CTRY            .                        Norway            :COUNTRY
CONT_REGION     .                        Europe            :Continent Region
SECT            .                                          :Section
TOWN            .                                          :Township
RANG            .                                          :Range
API             .                                          :API NUMBER
UWI             .                                          :UNIQUE WELL ID
LUL             .                Service Office            :Logging Unit Location
LUN             .                          A615            :Logging Unit Number
LOC             .                Norwegian North Sea       :FIELD LOCATION
FL1             .                Section: 12 1/4 x 17 1/5 in.:Field Location Line 1
FL2             .                Job no.: 19SCA0085        :Field Location Line 2
LATI            .deg             60° 34' 35.14" N          :LATITUDE
LONG            .deg             3° 26' 36.13" E           :LONGITUDE
PDAT            .                           MSL            :Local Permanent Datum
LMF             .                            DF            :Logging Measured From
APD             .m                        31.00            :Elevation of Depth Reference (LMF) Above Permanent Datum
EPD             .m                         0.00            :Elevation of Permanent Datum (PDAT) above Mean Sea Level
EKB             .m                      -999.25            :Elevation of Kelly Bushing Above Permanent Datum
EDF             .m                        31.00            :Elevation of Drill Floor Above Permanent Datum
EGL             .m                      -307.00            :Elevation of Ground Level Above Permanent Datum
ECF             .m                      -999.25            :Elevation of Casing Flange above Permanent Datum
#--------------------------------------------------
~CURVE INFORMATION
#MNEM           .UNIT                  API CODE            :DESCRIPTION
#----            ------          --------------            -----------------------------
TIME_1900       .d                                         :                                                        Time Index(OLE Automation date)
TIME            .s                                         :                                (10s)                   Time(hh mm ss/dd-MMM-yyyy)
DEPTH           .m                                         :(RT)    (DnMWorkflow)                                   Depth Index
BLKP            .m                                         :(RT)    (DRILLING_SURFACE)                              Height of block above rig floor
GR_CAL          .gAPI                                      :(RT)    (ARC9)                                          Calibrated Gamma Ray
STICK           .c/min                                     :(RT)    (TELE900)                                       Stick Slip Indicator
CRPM            .c/min                                     :(RT)    (TELE900)                                       Collar Rotational Speed
SHKRSK          .                                          :(RT)    (TELE900)                                       Shock Risk
SHKPK           .gn                                        :(RT)    (TELE900)                                       Shock Peak
DHAT            .degC                                      :(RM)    (ARC9)                                          Downhole Annulus Temperature
DHAP            .bar                                       :(RM)    (ARC9)                                          Downhole Annulus Pressure
ECD             .g/cm3                                     :(RM)    (ARC9)                                          Equivalent Circulating Density
#-------------------------------------------------------------
#       TIME_1900                 TIME        DEPTH         BLKP       GR_CAL        STICK         CRPM       SHKRSK        SHKPK         DHAT         DHAP          ECD 
#                                       (DnMWorkfl)  (DRILLING_)       (ARC9)    (TELE900)    (TELE900)    (TELE900)    (TELE900)       (ARC9)       (ARC9)       (ARC9) 
#                                              (RT)         (RT)         (RT)         (RT)         (RT)         (RT)         (RT)         (RM)         (RM)         (RM) 
#                                (10s)                                                                                                                                   
~ASCII
# ...
 43818.7944444444 19:04:00/19-Dec-2019   1325.83997     17.80000    145.42590    381.00000      -999.25      -999.25      -999.25     28.00000    168.23210      1.30734
 43818.7945601852 19:04:10/19-Dec-2019   1326.07007     17.56000    151.10560      -999.25      -999.25      -999.25      -999.25     28.00000    168.16310      1.30657
 43818.7946759259 19:04:20/19-Dec-2019   1325.97998     17.74000    161.75030      -999.25      -999.25      -999.25      -999.25     28.00000    167.74950      1.30348
 43818.7947916667 19:04:30/19-Dec-2019   1325.94995     17.69000    167.77110      -999.25    233.00000      -999.25      -999.25     28.00000    167.74950      1.30348
 43818.7949074074 19:04:40/19-Dec-2019   1326.08997     17.64000    168.80950    381.00000      -999.25      0.00000      0.00000     28.00000    167.88730      1.30444
 43818.7950231481 19:04:50/19-Dec-2019   1326.18005     17.46000    160.49880      -999.25      -999.25      -999.25      -999.25     28.00000    168.16310      1.30646
 43818.7951388889 19:05:00/19-Dec-2019   1326.35999     17.28000    153.14040      -999.25      -999.25      -999.25      -999.25     28.00000    168.16310      1.30629
 43818.7952546296 19:05:10/19-Dec-2019   1326.55994     17.08000    149.02400      -999.25      -999.25      -999.25      -999.25     28.00000    168.23210      1.30662
 43818.7953703704 19:05:20/19-Dec-2019   1326.77002     16.88000    144.86860      -999.25    243.00000      0.00000      0.00000     28.00000    168.30100      1.30695
 43818.7954861111 19:05:30/19-Dec-2019   1326.97998     16.66000    145.38780    381.00000      -999.25      -999.25      -999.25     28.00000    168.30100      1.30674
 43818.7956018519 19:05:40/19-Dec-2019   1327.09998     16.54000    147.56940      -999.25      -999.25      -999.25      -999.25     28.00000    168.09420      1.30501
 43818.7957175926 19:05:50/19-Dec-2019   1327.04993     16.60000    148.27720      -999.25      -999.25      -999.25      -999.25     28.00000    168.30100      1.30667
 43818.7958333333 19:06:00/19-Dec-2019   1327.35999     16.28000    149.75930      -999.25    186.00000      0.00000      0.00000     28.00000    168.57680      1.30850
 43818.7959490741 19:06:10/19-Dec-2019   1327.58008     16.05000    151.69400    381.00000      -999.25      -999.25      -999.25     28.00000    168.50790      1.30774
 43818.7960648148 19:06:20/19-Dec-2019   1327.70996     15.93000    153.17610      -999.25      -999.25      -999.25      -999.25     28.00000    168.50790      1.30762
 43818.7961805556 19:06:30/19-Dec-2019   1327.95007     15.69000    153.91460      -999.25      -999.25      -999.25      -999.25     28.00000    168.64580      1.30845
 43818.7962962963 19:06:40/19-Dec-2019   1328.27002     15.38000    156.09620      -999.25      -999.25      -999.25      -999.25     28.00000    168.43890      1.30653
 43818.7964120370 19:06:50/19-Dec-2019   1328.70996     14.92000    156.61540      -999.25    240.00000      0.00000      0.00000     28.00000    168.57680      1.30716
 43818.7965277778 19:07:00/19-Dec-2019   1328.65002     14.99000    152.46010    381.00000      -999.25      -999.25      -999.25     28.00000    168.50790      1.30668
 43818.7966435185 19:07:10/19-Dec-2019   1329.13000     14.51000    148.34370      -999.25      -999.25      -999.25      -999.25     28.00000    168.64580      1.30728
 43818.7967592593 19:07:20/19-Dec-2019   1329.62000     14.03000    148.27720      -999.25      -999.25      -999.25      -999.25     28.00000    168.57680      1.30626
 43818.7968750000 19:07:30/19-Dec-2019   1329.91992     13.72000    149.75930      -999.25    248.00000      0.00000      0.00000     28.00000    168.50790      1.30542
 43818.7969907407 19:07:40/19-Dec-2019   1330.03003     13.70000    151.69400    381.00000      -999.25      -999.25      -999.25     28.00000    168.64580      1.30642
 43818.7971064815 19:07:50/19-Dec-2019   1329.94995     13.77000    153.17610      -999.25      -999.25      -999.25      -999.25     28.00000    168.64580      1.30649
 43818.7972222222 19:08:00/19-Dec-2019   1330.27002     13.37000    153.05460      -999.25      -999.25      -999.25      -999.25     28.00000    168.64580      1.30614
 43818.7973379630 19:08:10/19-Dec-2019   1330.42993     13.21000    150.15240      -999.25    232.00000      -999.25      -999.25     28.00000    168.85260      1.30759
 43818.7974537037 19:08:20/19-Dec-2019   1330.78003     12.69000    144.69820    381.00000      -999.25      0.00000      0.00000     28.00000    168.99050      1.30824
 43818.7975694444 19:08:30/19-Dec-2019   1331.03003     12.52000    139.24400      -999.25      -999.25      -999.25      -999.25     28.00000    168.99050      1.30802
 43818.7976851852 19:08:40/19-Dec-2019   1331.19006     12.45000    139.38250      -999.25      -999.25      -999.25      -999.25     28.00000    168.92160      1.30737
 43818.7978009259 19:08:50/19-Dec-2019   1331.34998     12.29000    145.68050      -999.25      -999.25      -999.25      -999.25     28.00000    168.92160      1.30721
 43818.7979166667 19:09:00/19-Dec-2019   1331.45007     12.19000    150.35500      -999.25    176.00000      0.00000      0.00000     28.00000    168.85260      1.30658
 43818.7980324074 19:09:10/19-Dec-2019   1331.62000     12.02000    145.68050    381.00000      -999.25      -999.25      -999.25     28.00000    169.05950      1.30801
 43818.7981481481 19:09:20/19-Dec-2019   1331.84998     11.71000    139.38250      -999.25      -999.25      -999.25      -999.25     28.00000    168.92160      1.30668
 43818.7982638889 19:09:30/19-Dec-2019   1332.10999     11.53000    140.54970      -999.25      -999.25      -999.25      -999.25     28.00000    169.05950      1.30752
 43818.7983796296 19:09:40/19-Dec-2019   1332.19006     11.36000    152.15790      -999.25    224.00000      0.00000      0.00000     28.00000    169.26630      1.30901
 43818.7984953704 19:09:50/19-Dec-2019   1332.63000     10.92000    157.96220    381.00000      -999.25      -999.25      -999.25     28.00000    169.26630      1.30857
 43818.7986111111 19:10:00/19-Dec-2019   1333.06006     10.58000    155.24670      -999.25      -999.25      -999.25      -999.25     28.00000    169.19730      1.30765
 43818.7987268518 19:10:10/19-Dec-2019   1333.22998     10.41000    153.05460      -999.25      -999.25      -999.25      -999.25     28.00000    169.05950      1.30641
 43818.7988425926 19:10:20/19-Dec-2019   1333.59009     10.05000    150.15240      -999.25      -999.25      -999.25      -999.25     28.00000    169.05950      1.30606
 43818.7989583333 19:10:30/19-Dec-2019   1333.59009     10.05000    144.69820      -999.25    255.00000      0.00000      0.00000     28.00000    169.19730      1.30712
 43818.7990740741 19:10:40/19-Dec-2019   1334.03992      9.69000    139.24400    381.00000      -999.25      -999.25      -999.25     28.00000    169.19730      1.30672
 43818.7991898148 19:10:50/19-Dec-2019   1334.21008      9.53000    136.34180      -999.25      -999.25      -999.25      -999.25     28.00000    169.26630      1.30709
 43818.7993055556 19:11:00/19-Dec-2019   1334.47009      9.26000    136.83110      -999.25      -999.25      -999.25      -999.25     28.00000    169.12840      1.30576
 43818.7994212963 19:11:10/19-Dec-2019   1334.65002      9.09000    139.79530      -999.25    244.00000      0.00000      0.00000     28.00000    169.54210      1.30878
 43818.7995370370 19:11:20/19-Dec-2019   1334.71997      9.01000    143.66490    381.00000      -999.25      -999.25      -999.25     28.00000    169.33520      1.30711
 43818.7996527778 19:11:30/19-Dec-2019   1335.21997      8.51000    146.62910      -999.25      -999.25      -999.25      -999.25     28.00000    169.47310      1.30768
 43818.7997685185 19:11:40/19-Dec-2019   1334.99011      8.64000    147.22840      -999.25      -999.25      -999.25      -999.25     28.00000    169.40420      1.30733
 43818.7998842593 19:11:50/19-Dec-2019   1335.13989      8.51000    141.89780      -999.25    178.00000      -999.25      -999.25     28.00000    169.54210      1.30825
