~VERSION INFORMATION 
VERS  .    2.0                                     :CWLS Log ASCII Standard - VERSION 2.0
WRAP  .    NO                                      :One Line per Time step
PROD  .    Schlumberger Technology Corp.           :LAS Producer
PROG  .    Horizon LASWriter 9.2.113335.3100       :LAS Program name and version
SOURCE.    Run 9-TimeLogicalAcq                    :Run&Pass Information
CREA  .    01/21/2020                              :LAS Creation date {MM/DD/YYYY}
#--------------------------------------------------
~WELL INFORMATION 
#MNEM           .UNIT                      DATA            :DESCRIPTION
#----            ------          --------------            -----------------------------
STRT            .d               43828.3333333334          :START TIME(OLE Automation date)
STOP            .d               43829.1041666667          :STOP TIME(OLE Automation date)
STEP            .d                            0            :STEP TIME(10s in time)
NULL            .                       -999.25            :NULL VALUE
COMP            .                       Equinor            :COMPANY
WELL            .                        31/5-7            :WELL NAME
FLD             .                           Eos            :FIELD NAME
RIGN            .                 West Hercules            :Rig Name
RIGTYP          .                Semi-Submersible          :Rig Type
SON             .                     19SCA0085            :Service Order Number
SRVC            .                  Schlumberger            :SERVICE COMPANY
DATE            .                    12/29/2019            :LOG DATE(Composite Date for Composite LAP) (MM/DD/YYYY)
CLAB            .                       County:            :County Label
CNTY            .                                          :COUNTY
SLAB            .                                          :State/Province Label
STAT            .                                          :STATE or PROVINCE
PROV            .                                          :STATE or PROVINCE
CTRY            .                        Norway            :COUNTRY
CONT_REGION     .                        Europe            :Continent Region
SECT            .                                          :Section
TOWN            .                                          :Township
RANG            .                                          :Range
API             .                                          :API NUMBER
UWI             .                                          :UNIQUE WELL ID
LUL             .                Service Office            :Logging Unit Location
LUN             .                          A615            :Logging Unit Number
LOC             .                Norwegian North Sea       :FIELD LOCATION
FL1             .                Section: 8 1/2 in.        :Field Location Line 1
FL2             .                Job no.: 19SCA0085        :Field Location Line 2
LATI            .deg             60° 34' 35.14" N          :LATITUDE
LONG            .deg             3° 26' 36.13" E           :LONGITUDE
PDAT            .                           MSL            :Local Permanent Datum
LMF             .                            DF            :Logging Measured From
APD             .m                        31.00            :Elevation of Depth Reference (LMF) Above Permanent Datum
EPD             .m                         0.00            :Elevation of Permanent Datum (PDAT) above Mean Sea Level
EKB             .m                      -999.25            :Elevation of Kelly Bushing Above Permanent Datum
EDF             .m                        31.00            :Elevation of Drill Floor Above Permanent Datum
EGL             .m                      -307.00            :Elevation of Ground Level Above Permanent Datum
ECF             .m                      -999.25            :Elevation of Casing Flange above Permanent Datum
#--------------------------------------------------
~CURVE INFORMATION
#MNEM           .UNIT                  API CODE            :DESCRIPTION
#----            ------          --------------            -----------------------------
TIME_1900       .d                                         :                                                        Time Index(OLE Automation date)
TIME            .s                                         :                                (10s)                   Time(hh mm ss/dd-MMM-yyyy)
DEPTH           .m                                         :(RT)    (DnMWorkflow)                                   Depth Index
BLKP            .m                                         :(RT)    (DRILLING_SURFACE)                              Height of block above rig floor
GR              .gAPI                                      :(RT)    (ARC6)                                          Gamma Ray
CRPM            .c/min                                     :(RT)    (TELE675)                                       Collar Rotational Speed
STICK           .c/min                                     :(RT)    (TELE675)                                       Stick Slip Indicator
SHKRSK          .                                          :(RT)    (TELE675)                                       Shock Risk
SHKPK           .gn                                        :(RT)    (TELE675)                                       Shock Peak
DHAT            .degC                                      :(RM)    (ARC6)                                          Downhole Annulus Temperature
DHAP            .bar                                       :(RM)    (ARC6)                                          Downhole Annulus Pressure
ECD             .g/cm3                                     :(RM)    (ARC6)                                          Equivalent Circulating Density
#-------------------------------------------------------------
#       TIME_1900                 TIME        DEPTH         BLKP           GR         CRPM        STICK       SHKRSK        SHKPK         DHAT         DHAP          ECD 
#                                       (DnMWorkfl)  (DRILLING_)       (ARC6)    (TELE675)    (TELE675)    (TELE675)    (TELE675)       (ARC6)       (ARC6)       (ARC6) 
#                                              (RT)         (RT)         (RT)         (RT)         (RT)         (RT)         (RT)         (RM)         (RM)         (RM) 
#                                (10s)                                                                                                                                   
~ASCII
# ...
 43828.7833333333 18:48:00/29-Dec-2019   2569.22998     32.86000      -999.25      -999.25      -999.25      -999.25      -999.25     37.00000    307.85090      1.22606
 43828.7834490741 18:48:10/29-Dec-2019   2569.60986     32.39000      -999.25      -999.25      -999.25      -999.25      -999.25     37.00000    307.09250      1.22297
 43828.7835648148 18:48:20/29-Dec-2019   2569.69995     32.39000      -999.25      -999.25      -999.25      -999.25      -999.25     37.00000    306.74780      1.22139
 43828.7836805556 18:48:30/29-Dec-2019   2569.22998     32.86000      -999.25      -999.25      -999.25      -999.25      -999.25     37.00000    306.12720      1.21919
 43828.7837962963 18:48:40/29-Dec-2019   2569.22998     32.86000      -999.25      -999.25      -999.25      -999.25      -999.25     37.00000    305.50670      1.21672
 43828.7839120370 18:48:50/29-Dec-2019   2569.51025     32.58000      -999.25      -999.25      -999.25      -999.25      -999.25     37.00000    305.16200      1.21526
 43828.7840277778 18:49:00/29-Dec-2019   2569.51025     32.67000      -999.25      -999.25      -999.25      -999.25      -999.25     37.00000    304.47250      1.21240
 43828.7841435185 18:49:10/29-Dec-2019   2569.60986     32.58000      -999.25      -999.25      -999.25      -999.25      -999.25     37.00000    304.12780      1.21114
 43828.7842592593 18:49:20/29-Dec-2019   2569.51025     32.67000      -999.25      -999.25      -999.25      -999.25      -999.25     37.00000    303.71410      1.20955
 43828.7843750000 18:49:30/29-Dec-2019   2569.51025     32.67000      -999.25      -999.25      -999.25      -999.25      -999.25     37.00000    303.09350      1.20698
 43828.7844907407 18:49:40/29-Dec-2019   2569.69995     32.39000      -999.25      -999.25      -999.25      -999.25      -999.25     37.00000    302.74880      1.20558
 43828.7846064815 18:49:50/29-Dec-2019   2569.41992     32.86000      -999.25      -999.25      -999.25      -999.25      -999.25     37.00000    302.33510      1.20395
 43828.7847222222 18:50:00/29-Dec-2019   2569.41992     32.67000      -999.25      -999.25      -999.25      -999.25      -999.25     37.00000    301.92140      1.20239
 43828.7848379630 18:50:10/29-Dec-2019   2569.41992     32.76000      -999.25      -999.25      -999.25      -999.25      -999.25     37.00000    301.50770      1.20081
 43828.7849537037 18:50:20/29-Dec-2019   2568.94995     33.14000      -999.25      -999.25      -999.25      -999.25      -999.25     37.00000    301.02510      1.19900
 43828.7850694444 18:50:30/29-Dec-2019   2569.60986     32.39000      -999.25      -999.25      -999.25      -999.25      -999.25     37.00000    300.74930      1.19751
 43828.7851851852 18:50:40/29-Dec-2019   2569.88013     32.39000      -999.25      -999.25      -999.25      -999.25      -999.25     37.00000    300.26670      1.19548
 43828.7853009259 18:50:50/29-Dec-2019   2569.33008     32.86000      -999.25      -999.25      -999.25      -999.25      -999.25     37.00000    299.99090      1.19466
 43828.7854166667 18:51:00/29-Dec-2019   2569.51025     32.58000      -999.25      -999.25      -999.25      -999.25      -999.25     37.00000    299.71510      1.19352
 43828.7855324074 18:51:10/29-Dec-2019   2569.33008     32.76000      -999.25      -999.25      -999.25      -999.25      -999.25     37.00000    299.23250      1.19168
 43828.7856481481 18:51:20/29-Dec-2019   2569.41992     32.67000      -999.25      -999.25      -999.25      -999.25      -999.25     37.00000    299.02560      1.19078
 43828.7857638889 18:51:30/29-Dec-2019   2569.41992     32.67000      -999.25      -999.25      -999.25      -999.25      -999.25     37.00000    298.74980      1.18972
 43828.7858796296 18:51:40/29-Dec-2019   2569.13989     32.95000      -999.25      -999.25      -999.25      -999.25      -999.25     37.00000    298.68090      1.18953
 43828.7859953704 18:51:50/29-Dec-2019   2569.60986     32.48000      -999.25      -999.25      -999.25      -999.25      -999.25     37.00000    298.81880      1.18991
 43828.7861111111 18:52:00/29-Dec-2019   2569.04004     33.05000      -999.25      -999.25      -999.25      -999.25      -999.25     37.00000    298.95670      1.19063
 43828.7862268519 18:52:10/29-Dec-2019   2568.94995     32.95000      -999.25      -999.25      -999.25      -999.25      -999.25     37.00000    299.09460      1.19121
 43828.7863425926 18:52:20/29-Dec-2019   2569.60986     32.48000      -999.25      -999.25      -999.25      -999.25      -999.25     37.00000    299.30140      1.19185
 43828.7864583333 18:52:30/29-Dec-2019   2569.41992     32.67000      -999.25      -999.25      -999.25      -999.25      -999.25     37.00000    299.50830      1.19274
 43828.7865740741 18:52:40/29-Dec-2019   2569.79004     32.39000      -999.25      -999.25      -999.25      -999.25      -999.25     37.00000    299.64620      1.19318
 43828.7866898148 18:52:50/29-Dec-2019   2569.51025     32.67000      -999.25      -999.25      -999.25      -999.25      -999.25     37.00000    299.78400      1.19373
 43828.7868055556 18:53:00/29-Dec-2019   2569.04004     33.05000      -999.25      -999.25      -999.25      -999.25      -999.25     37.00000    299.85300      1.19429
 43828.7869212963 18:53:10/29-Dec-2019   2569.04004     33.05000      -999.25      -999.25      -999.25      -999.25      -999.25     37.00000    300.05980      1.19516
 43828.7870370370 18:53:20/29-Dec-2019   2569.41992     32.39000      -999.25      -999.25      -999.25      -999.25      -999.25     37.00000    300.12880      1.19502
 43828.7871527778 18:53:30/29-Dec-2019   2569.69995     32.39000      -999.25      -999.25      -999.25      -999.25      -999.25     37.00000    300.40460      1.19618
 43828.7872685185 18:53:40/29-Dec-2019   2569.41992     32.67000      -999.25      -999.25      -999.25      -999.25      -999.25     37.00000    300.47350      1.19659
 43828.7873842593 18:53:50/29-Dec-2019   2569.51025     32.48000      -999.25      -999.25      -999.25      -999.25      -999.25     37.00000    300.54250      1.19673
 43828.7875000000 18:54:00/29-Dec-2019   2569.60986     32.48000      -999.25      -999.25      -999.25      -999.25      -999.25     37.00000    300.74930      1.19759
 43828.7876157407 18:54:10/29-Dec-2019   2569.51025     32.48000      -999.25      -999.25      -999.25      -999.25      -999.25     37.00000    300.81830      1.19787
 43828.7877314815 18:54:20/29-Dec-2019   2569.88013     32.21000      -999.25      -999.25      -999.25      -999.25      -999.25     37.00000    301.02510      1.19857
 43828.7878472222 18:54:30/29-Dec-2019   2569.41992     32.67000      -999.25      -999.25      -999.25      -999.25      -999.25     37.00000    301.23200      1.19958
 43828.7879629630 18:54:40/29-Dec-2019   2568.94995     32.95000      -999.25      -999.25      -999.25      -999.25      -999.25     37.00000    301.30090      1.19993
 43828.7880787037 18:54:50/29-Dec-2019   2569.88013     32.21000      -999.25      -999.25      -999.25      -999.25      -999.25     37.00000    301.50770      1.20057
 43828.7881944444 18:55:00/29-Dec-2019   2569.51025     32.58000      -999.25      -999.25      -999.25      -999.25      -999.25     37.00000    301.50770      1.20061
 43828.7883101852 18:55:10/29-Dec-2019   2569.22998     32.86000      -999.25      -999.25      -999.25      -999.25      -999.25     37.00000    301.64560      1.20134
 43828.7884259259 18:55:20/29-Dec-2019   2569.51025     32.58000      -999.25      -999.25      -999.25      -999.25      -999.25     37.00000    301.78350      1.20178
 43828.7885416667 18:55:30/29-Dec-2019   2569.41992     32.76000      -999.25      -999.25      -999.25      -999.25      -999.25     37.00000    301.92140      1.20239
 43828.7886574074 18:55:40/29-Dec-2019   2569.33008     32.76000      -999.25      -999.25      -999.25      -999.25      -999.25     37.00000    302.05930      1.20290
 43828.7887731481 18:55:50/29-Dec-2019   2569.41992     32.67000      -999.25      -999.25      -999.25      -999.25      -999.25     37.00000    302.19720      1.20345
