~VERSION INFORMATION 
VERS  .    2.0                                     :CWLS Log ASCII Standard - VERSION 2.0
WRAP  .    NO                                      :One Line per Time step
PROD  .    Schlumberger Technology Corp.           :LAS Producer
PROG  .    Horizon LASWriter 9.0.106845.3100       :LAS Program name and version
SOURCE.    Run 1-TimeLogicalAcq                    :Run&Pass Information
CREA  .    12/03/2019                              :LAS Creation date {MM/DD/YYYY}
#--------------------------------------------------
~WELL INFORMATION 
#MNEM           .UNIT                      DATA            :DESCRIPTION
#----            ------          --------------            -----------------------------
STRT            .d               43801.7395833334          :START TIME(OLE Automation date)
STOP            .d               43802.2048611111          :STOP TIME(OLE Automation date)
STEP            .d                            0            :STEP TIME(10s in time)
NULL            .                       -999.25            :NULL VALUE
COMP            .                       Equinor            :COMPANY
WELL            .                        31/5-7            :WELL NAME
FLD             .                           Eos            :FIELD NAME
RIGN            .                 West Hercules            :Rig Name
RIGTYP          .                Semi-Submersible          :Rig Type
SON             .                     19SCA0085            :Service Order Number
SRVC            .                  Schlumberger            :SERVICE COMPANY
DATE            .                    12/02/2019            :LOG DATE(Composite Date for Composite LAP) (MM/DD/YYYY)
CLAB            .                       County:            :County Label
CNTY            .                                          :COUNTY
SLAB            .                                          :State/Province Label
STAT            .                                          :STATE or PROVINCE
PROV            .                                          :STATE or PROVINCE
CTRY            .                        Norway            :COUNTRY
CONT_REGION     .                        Europe            :Continent Region
SECT            .                                          :Section
TOWN            .                                          :Township
RANG            .                                          :Range
API             .                                          :API NUMBER
UWI             .                                          :UNIQUE WELL ID
LUL             .                Service Office            :Logging Unit Location
LUN             .                          A615            :Logging Unit Number
LOC             .                Norwegian North Sea       :FIELD LOCATION
FL1             .                Section: 36 in.           :Field Location Line 1
FL2             .                Job no.: 19SCA0085        :Field Location Line 2
LATI            .deg             60° 34' 35.14" N          :LATITUDE
LONG            .deg             3° 26' 36.13" E           :LONGITUDE
PDAT            .                           MSL            :Local Permanent Datum
LMF             .                            DF            :Logging Measured From
APD             .m                        31.00            :Elevation of Depth Reference (LMF) Above Permanent Datum
EPD             .m                         0.00            :Elevation of Permanent Datum (PDAT) above Mean Sea Level
EKB             .m                      -999.25            :Elevation of Kelly Bushing Above Permanent Datum
EDF             .m                        31.00            :Elevation of Drill Floor Above Permanent Datum
EGL             .m                      -307.00            :Elevation of Ground Level Above Permanent Datum
ECF             .m                      -999.25            :Elevation of Casing Flange above Permanent Datum
#--------------------------------------------------
~CURVE INFORMATION
#MNEM           .UNIT                  API CODE            :DESCRIPTION
#----            ------          --------------            -----------------------------
TIME_1900       .d                                         :                                                        Time Index(OLE Automation date)
TIME            .s                                         :                                (10s)                   Time(hh mm ss/dd-MMM-yyyy)
DEPTH           .m                                         :(RT)    (DnMWorkflow)                                   Depth Index
GR              .gAPI                                      :(RT)    (TELE900)                                       Gamma Ray
BLKP            .m                                         :(RT)    (DRILLING_SURFACE)                              Height of block above rig floor
CRPM            .c/min                                     :(RT)    (TELE900)                                       Collar Rotational Speed
STICK           .c/min                                     :(RT)    (TELE900)                                       Stick Slip Indicator
SHKPK           .gn                                        :(RT)    (TELE900)                                       Shock Peak
SHKRSK          .                                          :(RT)    (TELE900)                                       Shock Risk
TEMP_DNI        .degC                                      :(RM)    (TELE900)                                       Direction and Inclination Sensor Temperature
#-------------------------------------------------------------
#       TIME_1900                 TIME        DEPTH           GR         BLKP         CRPM        STICK        SHKPK       SHKRSK     TEMP_DNI 
#                                       (DnMWorkfl)    (TELE900)  (DRILLING_)    (TELE900)    (TELE900)    (TELE900)    (TELE900)    (TELE900) 
#                                              (RT)         (RT)         (RT)         (RT)         (RT)         (RT)         (RT)         (RM) 
#                                (10s)                                                                                                         
~ASCII
# ...
 43801.9534722222 22:53:00/02-Dec-2019     369.2600      59.7627      32.8900      -999.25      -999.25      -999.25      -999.25      -999.25
 43801.9535879630 22:53:10/02-Dec-2019     369.3000      59.7627      32.8500      65.0000      -999.25       0.0000       0.0000      -999.25
 43801.9537037037 22:53:20/02-Dec-2019     369.3400      67.2275      32.8100      -999.25      75.0000      -999.25      -999.25      -999.25
 43801.9538194444 22:53:30/02-Dec-2019     369.3800      63.7476      32.7600      -999.25      -999.25      -999.25      -999.25      -999.25
 43801.9539351852 22:53:40/02-Dec-2019     369.4300      71.2124      32.7200      -999.25      -999.25      -999.25      -999.25      -999.25
 43801.9540509259 22:53:50/02-Dec-2019     369.4700      73.0561      32.6800      64.0000      -999.25      -999.25      -999.25      -999.25
 43801.9541666667 22:54:00/02-Dec-2019     369.5100      67.0698      32.6400      -999.25      45.0000       0.0000       0.0000      14.9023
 43801.9542824074 22:54:10/02-Dec-2019     369.5600      63.7476      32.5900      -999.25      -999.25      -999.25      -999.25      -999.25
 43801.9543981481 22:54:20/02-Dec-2019     369.6000      58.7797      32.5500      -999.25      -999.25      -999.25      -999.25      -999.25
 43801.9545138889 22:54:30/02-Dec-2019     369.6400      52.7934      32.5100      -999.25      -999.25      -999.25      -999.25      -999.25
 43801.9546296296 22:54:40/02-Dec-2019     369.6800      54.6371      32.4700      64.0000      -999.25       0.0000       0.0000      -999.25
 43801.9547453704 22:54:50/02-Dec-2019     369.7300      62.1019      32.4200      -999.25      51.0000      -999.25      -999.25      -999.25
 43801.9548611111 22:55:00/02-Dec-2019     369.7700      58.4039      32.3800      -999.25      -999.25      -999.25      -999.25      -999.25
 43801.9549768518 22:55:10/02-Dec-2019     369.8100      65.8687      32.3400      -999.25      -999.25      -999.25      -999.25      -999.25
 43801.9550925926 22:55:20/02-Dec-2019     369.8500      65.8687      32.3000      65.0000      -999.25      -999.25      -999.25      -999.25
 43801.9552083333 22:55:30/02-Dec-2019     369.9000      61.7261      32.2500      -999.25      33.0000       0.0000       0.0000      -999.25
 43801.9553240741 22:55:40/02-Dec-2019     370.1300      52.8035      32.0200      -999.25      -999.25      -999.25      -999.25      -999.25
 43801.9554398148 22:55:50/02-Dec-2019     370.1700      51.6930      31.9800      -999.25      -999.25      -999.25      -999.25      -999.25
 43801.9555555556 22:56:00/02-Dec-2019     370.0100      57.6793      32.1400      -999.25      -999.25      -999.25      -999.25      14.9023
 43801.9556712963 22:56:10/02-Dec-2019     369.8900      51.6930      32.2600      62.0000      -999.25       0.0000       0.0000      -999.25
 43801.9557870370 22:56:20/02-Dec-2019     369.7500      54.5301      32.4000      -999.25     126.0000      -999.25      -999.25      -999.25
 43801.9559027778 22:56:30/02-Dec-2019     369.7500      59.8196      32.4000      -999.25      -999.25      -999.25      -999.25      -999.25
 43801.9560185185 22:56:40/02-Dec-2019     369.7500      71.2124      32.4000      -999.25      -999.25      -999.25      -999.25      -999.25
 43801.9561342593 22:56:50/02-Dec-2019     369.7500      71.2124      32.4000       0.0000      -999.25      -999.25      -999.25      -999.25
 43801.9562500000 22:57:00/02-Dec-2019     369.7500      67.0698      32.4000      -999.25      78.0000      -999.25      -999.25      -999.25
 43801.9563657407 22:57:10/02-Dec-2019     369.7500      -999.25      32.4000      -999.25      -999.25      -999.25      -999.25      -999.25
 43801.9564814815 22:57:20/02-Dec-2019     369.7500      -999.25      32.4000      -999.25      -999.25      -999.25      -999.25      -999.25
 43801.9565972222 22:57:30/02-Dec-2019     369.7500      -999.25      32.4000      -999.25      -999.25      -999.25      -999.25      -999.25
 43801.9567129630 22:57:40/02-Dec-2019     369.7500      -999.25      32.4000      -999.25      -999.25      -999.25      -999.25      -999.25
 43801.9568287037 22:57:50/02-Dec-2019     369.7500      59.5325      32.4000      -999.25      -999.25      -999.25      -999.25      -999.25
 43801.9569444444 22:58:00/02-Dec-2019     369.7500      56.4833      32.4000      -999.25      -999.25      -999.25      -999.25      14.9023
 43801.9570601852 22:58:10/02-Dec-2019     369.7500      54.1622      32.4000      -999.25      -999.25      -999.25      -999.25      -999.25
 43801.9571759259 22:58:20/02-Dec-2019     369.7500      52.7826      32.4000      -999.25      -999.25      -999.25      -999.25      -999.25
 43801.9572916667 22:58:30/02-Dec-2019     369.7500      50.1353      32.4000      -999.25      -999.25      -999.25      -999.25      -999.25
 43801.9574074074 22:58:40/02-Dec-2019     369.7500      48.3284      32.4000      -999.25      -999.25      -999.25      -999.25      -999.25
 43801.9575231481 22:58:50/02-Dec-2019     369.8500      47.9358      32.3000      -999.25      -999.25      -999.25      -999.25      -999.25
 43801.9576388889 22:59:00/02-Dec-2019     369.8500      48.3284      32.3000      -999.25      -999.25       0.0000       0.0000      -999.25
 43801.9577546296 22:59:10/02-Dec-2019     369.8500      50.1353      32.3000      -999.25      -999.25      -999.25      -999.25      -999.25
 43801.9578703704 22:59:20/02-Dec-2019     369.8500      51.4031      32.3000      -999.25      -999.25      -999.25      -999.25      -999.25
 43801.9579861111 22:59:30/02-Dec-2019     369.8500      54.1622      32.3000      -999.25      -999.25      -999.25      -999.25      -999.25
 43801.9581018519 22:59:40/02-Dec-2019     369.8500      56.4833      32.3000      -999.25      -999.25      -999.25      -999.25      -999.25
 43801.9582175926 22:59:50/02-Dec-2019     369.8500      57.2368      32.3000      -999.25      -999.25       0.0000       0.0000      -999.25
 43801.9583333333 23:00:00/02-Dec-2019     369.8500      62.8325      32.3000      -999.25      -999.25      -999.25      -999.25      14.9023
 43801.9584490741 23:00:10/02-Dec-2019     369.8500      54.5039      32.3000      -999.25      -999.25      -999.25      -999.25      -999.25
 43801.9585648148 23:00:20/02-Dec-2019     369.8500      39.8008      32.3000      -999.25      -999.25      -999.25      -999.25      -999.25
 43801.9586805556 23:00:30/02-Dec-2019     369.8600      32.7402      32.2900      -999.25      -999.25       0.0000       0.0000      -999.25
 43801.9587962963 23:00:40/02-Dec-2019     369.9100      28.8421      32.2400      -999.25      -999.25      -999.25      -999.25      -999.25
 43801.9589120370 23:00:50/02-Dec-2019     369.9600      37.4950      32.1900      -999.25      -999.25      -999.25      -999.25      -999.25
 43801.9590277778 23:01:00/02-Dec-2019     370.0100      41.2428      32.1400      -999.25      -999.25      -999.25      -999.25      -999.25
 43801.9591435185 23:01:10/02-Dec-2019     370.0600      43.8928      32.0900      -999.25      -999.25      -999.25      -999.25      -999.25
 43801.9592592593 23:01:20/02-Dec-2019     370.1100      37.4950      32.0400      62.0000      -999.25       0.0000       0.0000      -999.25
 43801.9593750000 23:01:30/02-Dec-2019     370.1600      40.0775      31.9800      -999.25      30.0000      -999.25      -999.25      -999.25
 43801.9594907407 23:01:40/02-Dec-2019     370.2100      44.7116      31.9300      -999.25      -999.25      -999.25      -999.25      -999.25
 43801.9596064815 23:01:50/02-Dec-2019     370.0700      40.5690      32.0700      -999.25      -999.25      -999.25      -999.25      -999.25
 43801.9597222222 23:02:00/02-Dec-2019     370.3100      40.5690      31.9300      66.0000      -999.25       0.0000       0.0000      14.9023
 43801.9598379630 23:02:10/02-Dec-2019     370.3700      45.5101      31.7800      -999.25      69.0000      -999.25      -999.25      -999.25
