~VERSION INFORMATION 
VERS  .    2.0                                     :CWLS Log ASCII Standard - VERSION 2.0
WRAP  .    NO                                      :One Line per Time step
PROD  .    Schlumberger Technology Corp.           :LAS Producer
PROG  .    Horizon LASWriter 9.2.113335.3100       :LAS Program name and version
SOURCE.    Run 5-TimeLogicalAcq                    :Run&Pass Information
CREA  .    12/20/2019                              :LAS Creation date {MM/DD/YYYY}
#--------------------------------------------------
~WELL INFORMATION 
#MNEM           .UNIT                      DATA            :DESCRIPTION
#----            ------          --------------            -----------------------------
STRT            .d               43815.4062500000          :START TIME(OLE Automation date)
STOP            .d               43816.7395833333          :STOP TIME(OLE Automation date)
STEP            .d                            0            :STEP TIME(10s in time)
NULL            .                       -999.25            :NULL VALUE
COMP            .                       Equinor            :COMPANY
WELL            .                        31/5-7            :WELL NAME
FLD             .                           Eos            :FIELD NAME
RIGN            .                 West Hercules            :Rig Name
RIGTYP          .                Semi-Submersible          :Rig Type
SON             .                     19SCA0085            :Service Order Number
SRVC            .                  Schlumberger            :SERVICE COMPANY
DATE            .                    12/16/2019            :LOG DATE(Composite Date for Composite LAP) (MM/DD/YYYY)
CLAB            .                       County:            :County Label
CNTY            .                                          :COUNTY
SLAB            .                                          :State/Province Label
STAT            .                                          :STATE or PROVINCE
PROV            .                                          :STATE or PROVINCE
CTRY            .                        Norway            :COUNTRY
CONT_REGION     .                        Europe            :Continent Region
SECT            .                                          :Section
TOWN            .                                          :Township
RANG            .                                          :Range
API             .                                          :API NUMBER
UWI             .                                          :UNIQUE WELL ID
LUL             .                Service Office            :Logging Unit Location
LUN             .                          A615            :Logging Unit Number
LOC             .                Norwegian North Sea       :FIELD LOCATION
FL1             .                Section: 12 1/4 in. pilot :Field Location Line 1
FL2             .                Job no.: 19SCA0085        :Field Location Line 2
LATI            .deg             60° 34' 35.14" N          :LATITUDE
LONG            .deg             3° 26' 36.13" E           :LONGITUDE
PDAT            .                           MSL            :Local Permanent Datum
LMF             .                            DF            :Logging Measured From
APD             .m                        31.00            :Elevation of Depth Reference (LMF) Above Permanent Datum
EPD             .m                         0.00            :Elevation of Permanent Datum (PDAT) above Mean Sea Level
EKB             .m                      -999.25            :Elevation of Kelly Bushing Above Permanent Datum
EDF             .m                        31.00            :Elevation of Drill Floor Above Permanent Datum
EGL             .m                      -307.00            :Elevation of Ground Level Above Permanent Datum
ECF             .m                      -999.25            :Elevation of Casing Flange above Permanent Datum
#--------------------------------------------------
~CURVE INFORMATION
#MNEM           .UNIT                  API CODE            :DESCRIPTION
#----            ------          --------------            -----------------------------
TIME_1900       .d                                         :                                                        Time Index(OLE Automation date)
TIME            .s                                         :                                (10s)                   Time(hh mm ss/dd-MMM-yyyy)
DEPTH           .m                                         :(RT)    (DnMWorkflow)                                   Depth Index
GR              .gAPI                                      :(RT)    (ARC9)                                          Gamma Ray
BLKP            .m                                         :(RT)    (DRILLING_SURFACE)                              Height of block above rig floor
STICK           .c/min                                     :(RT)    (TELE900)                                       Stick Slip Indicator
CRPM            .c/min                                     :(RT)    (TELE900)                                       Collar Rotational Speed
SHKRSK          .                                          :(RT)    (TELE900)                                       Shock Risk
SHKPK           .gn                                        :(RT)    (TELE900)                                       Shock Peak
ECD             .g/cm3                                     :(RM)    (ARC9)                                          Equivalent Circulating Density
DHAP            .bar                                       :(RM)    (ARC9)                                          Downhole Annulus Pressure
DHAT            .degC                                      :(RM)    (ARC9)                                          Downhole Annulus Temperature
#-------------------------------------------------------------
#       TIME_1900                 TIME        DEPTH           GR         BLKP        STICK         CRPM       SHKRSK        SHKPK          ECD         DHAP         DHAT 
#                                       (DnMWorkfl)       (ARC9)  (DRILLING_)    (TELE900)    (TELE900)    (TELE900)    (TELE900)       (ARC9)       (ARC9)       (ARC9) 
#                                              (RT)         (RT)         (RT)         (RT)         (RT)         (RT)         (RT)         (RM)         (RM)         (RM) 
#                                (10s)                                                                                                                                   
~ASCII
# ...
 43815.4618055556 11:05:00/16-Dec-2019     913.4800      28.3951      41.6900      -999.25      -999.25      -999.25      -999.25       1.2916     114.2461      21.0000
 43815.4619212963 11:05:10/16-Dec-2019     913.4800      21.9896      41.6900      -999.25      -999.25      -999.25      -999.25       1.2932     114.3840      21.0000
 43815.4620370370 11:05:20/16-Dec-2019     913.4800      17.8998      41.6900      -999.25      -999.25      -999.25      -999.25       1.2963     114.6598      21.0000
 43815.4621527778 11:05:30/16-Dec-2019     914.2200      16.2828      40.9200      -999.25      -999.25      -999.25      -999.25       1.2946     114.5909      21.0000
 43815.4622685185 11:05:40/16-Dec-2019     913.9800      16.6807      41.1200      -999.25      -999.25      -999.25      -999.25       1.2954     114.6598      21.0000
 43815.4623842593 11:05:50/16-Dec-2019     914.9600      18.2047      40.2100      -999.25      -999.25      -999.25      -999.25       1.2926     114.5219      21.0000
 43815.4625000000 11:06:00/16-Dec-2019     914.9800      16.9720      40.1900      -999.25      -999.25       0.0000       0.0000       1.2934     114.5909      21.0000
 43815.4626157407 11:06:10/16-Dec-2019     914.9800       6.1970      40.1900      -999.25      -999.25      -999.25      -999.25       1.2934     114.5909      21.0000
 43815.4627314815 11:06:20/16-Dec-2019     914.9800       0.0000      40.1900      -999.25      -999.25      -999.25      -999.25       1.2934     114.5909      21.0000
 43815.4628472222 11:06:30/16-Dec-2019     914.9800       0.0000      40.1900      -999.25      -999.25      -999.25      -999.25       1.2918     114.4530      21.0000
 43815.4629629630 11:06:40/16-Dec-2019     914.9800       0.0000      40.1900      -999.25      -999.25      -999.25      -999.25       1.2949     114.7288      21.0000
 43815.4630787037 11:06:50/16-Dec-2019     914.9800       7.2434      40.1900      -999.25      -999.25      -999.25      -999.25       1.2911     114.3840      21.0000
 43815.4631944444 11:07:00/16-Dec-2019     914.9800      37.1873      40.1900      -999.25      -999.25      -999.25      -999.25       1.2911     114.3840      21.0000
 43815.4633101852 11:07:10/16-Dec-2019     914.9800      54.9444      40.1900      -999.25      -999.25      -999.25      -999.25       1.2918     114.4530      21.0000
 43815.4634259259 11:07:20/16-Dec-2019     914.9800      48.7745      40.1900      -999.25      -999.25      -999.25      -999.25       1.2918     114.4530      21.0000
 43815.4635416667 11:07:30/16-Dec-2019     914.9800      21.2094      40.1900      -999.25      -999.25       0.0000       0.0000       1.2903     114.3151      21.0000
 43815.4636574074 11:07:40/16-Dec-2019     914.9800      11.7096      40.1900      -999.25      -999.25      -999.25      -999.25       1.2918     114.4530      21.0000
 43815.4637731481 11:07:50/16-Dec-2019     914.9800      37.9636      40.1900      -999.25      -999.25      -999.25      -999.25       1.2918     114.4530      21.0000
 43815.4638888889 11:08:00/16-Dec-2019     915.0000      64.4661      40.1400      -999.25      -999.25      -999.25      -999.25       1.2911     114.3840      21.0000
 43815.4640046296 11:08:10/16-Dec-2019     916.0500      61.1547      39.0500      -999.25      -999.25      -999.25      -999.25       1.2917     114.5909      21.0000
 43815.4641203704 11:08:20/16-Dec-2019     917.1100      45.8241      38.0600      -999.25      -999.25      -999.25      -999.25       1.2911     114.6598      21.0000
 43815.4642361111 11:08:30/16-Dec-2019     917.1100      32.9200      38.0600      -999.25      -999.25      -999.25      -999.25       1.2896     114.5219      21.0000
 43815.4643518519 11:08:40/16-Dec-2019     917.1100      23.5386      38.0600      -999.25      -999.25      -999.25      -999.25       1.2896     114.5219      21.0000
 43815.4644675926 11:08:50/16-Dec-2019     917.1100      33.5030      38.0600      -999.25      -999.25      -999.25      -999.25       1.2911     114.6598      21.0000
 43815.4645833333 11:09:00/16-Dec-2019     917.1100      65.5604      38.0600      -999.25      -999.25       0.0000       0.0000       1.2896     114.5219      21.0000
 43815.4646990741 11:09:10/16-Dec-2019     917.3900      90.3093      37.6700      -999.25      -999.25      -999.25      -999.25       1.2886     114.4530      21.0000
 43815.4648148148 11:09:20/16-Dec-2019     918.2800      83.1251      36.8600      -999.25      -999.25      -999.25      -999.25       1.2888     114.5909      21.0000
 43815.4649305556 11:09:30/16-Dec-2019     919.1700      65.6002      35.9500      -999.25      59.0000      -999.25      -999.25       1.2881     114.6598      21.0000
 43815.4650462963 11:09:40/16-Dec-2019     920.1400      63.7109      35.0000      -999.25      -999.25      -999.25      -999.25       1.2855     114.5219      21.0000
 43815.4651620370 11:09:50/16-Dec-2019     921.1300      75.7894      33.9400      -999.25      -999.25      -999.25      -999.25       1.2860     114.7288      21.0000
 43815.4652777778 11:10:00/16-Dec-2019     922.3800      84.4949      32.7700      -999.25      -999.25      -999.25      -999.25       1.2877     115.0046      21.0000
 43815.4653935185 11:10:10/16-Dec-2019     923.5100      68.3491      31.6600     339.0000      -999.25      -999.25      -999.25       1.2860     115.0046      21.0000
 43815.4655092593 11:10:20/16-Dec-2019     923.5400      62.1792      31.6300      -999.25      -999.25       0.0000       0.0000       1.2882     115.2114      21.0000
 43815.4656250000 11:10:30/16-Dec-2019     924.0100      68.8723      31.1100      -999.25      -999.25      -999.25      -999.25       1.2861     115.0735      21.0000
 43815.4657407407 11:10:40/16-Dec-2019     924.8700      86.0558      30.2900      -999.25      -999.25      -999.25      -999.25       1.2855     115.1425      21.0000
 43815.4658564815 11:10:50/16-Dec-2019     925.6800      98.2917      29.4400      -999.25      -999.25      -999.25      -999.25       1.2845     115.1425      21.0000
 43815.4659722222 11:11:00/16-Dec-2019     926.4800      96.4024      28.6800      -999.25      59.0000      -999.25      -999.25       1.2864     115.4182      21.0000
 43815.4660879630 11:11:10/16-Dec-2019     926.9200      78.8775      28.3000      -999.25      -999.25      -999.25      -999.25       1.2896     115.7630      21.0000
 43815.4662037037 11:11:20/16-Dec-2019     927.3500      65.2069      27.8100      -999.25      -999.25      -999.25      -999.25       1.2860     115.4872      21.0000
 43815.4663194444 11:11:30/16-Dec-2019     927.7501      56.1292      27.3900      -999.25      -999.25      -999.25      -999.25       1.2860     115.5561      21.0000
 43815.4664351852 11:11:40/16-Dec-2019     928.2500      54.4735      26.9200     114.0000      -999.25      -999.25      -999.25       1.2885     115.8319      21.0000
 43815.4665509259 11:11:50/16-Dec-2019     928.7400      67.7248      26.4300      -999.25      -999.25       0.0000       0.0000       1.2886     115.9009      21.0000
 43815.4666666667 11:12:00/16-Dec-2019     929.2200      73.9200      25.9400      -999.25      -999.25      -999.25      -999.25       1.2894     116.0388      21.0000
 43815.4667824074 11:12:10/16-Dec-2019     929.6600      62.4106      25.4500      -999.25      -999.25      -999.25      -999.25       1.2889     116.0388      21.0000
 43815.4668981481 11:12:20/16-Dec-2019     930.4500      56.6706      24.7000      -999.25      59.0000      -999.25      -999.25       1.2892     116.1767      21.0000
 43815.4670138889 11:12:30/16-Dec-2019     930.7900      49.8998      24.3800      -999.25      -999.25      -999.25      -999.25       1.2880     116.1077      21.0000
 43815.4671296296 11:12:40/16-Dec-2019     931.1200      43.4979      24.0400      -999.25      -999.25      -999.25      -999.25       1.2891     116.2456      21.0000
 43815.4672453704 11:12:50/16-Dec-2019     931.3300      35.9868      23.8400      -999.25      -999.25      -999.25      -999.25       1.2887     116.2456      21.0000
