~VERSION INFORMATION 
VERS  .    2.0                                     :CWLS Log ASCII Standard - VERSION 2.0
WRAP  .    NO                                      :One Line per Time step
PROD  .    Schlumberger Technology Corp.           :LAS Producer
PROG  .    Horizon LASWriter 9.2.113335.3100       :LAS Program name and version
SOURCE.    Run 5-TimeLogicalAcq                    :Run&Pass Information
CREA  .    12/20/2019                              :LAS Creation date {MM/DD/YYYY}
#--------------------------------------------------
~WELL INFORMATION 
#MNEM           .UNIT                      DATA            :DESCRIPTION
#----            ------          --------------            -----------------------------
STRT            .d               43815.4062500000          :START TIME(OLE Automation date)
STOP            .d               43816.7395833333          :STOP TIME(OLE Automation date)
STEP            .d                            0            :STEP TIME(10s in time)
NULL            .                       -999.25            :NULL VALUE
COMP            .                       Equinor            :COMPANY
WELL            .                        31/5-7            :WELL NAME
FLD             .                           Eos            :FIELD NAME
RIGN            .                 West Hercules            :Rig Name
RIGTYP          .                Semi-Submersible          :Rig Type
SON             .                     19SCA0085            :Service Order Number
SRVC            .                  Schlumberger            :SERVICE COMPANY
DATE            .                    12/16/2019            :LOG DATE(Composite Date for Composite LAP) (MM/DD/YYYY)
CLAB            .                       County:            :County Label
CNTY            .                                          :COUNTY
SLAB            .                                          :State/Province Label
STAT            .                                          :STATE or PROVINCE
PROV            .                                          :STATE or PROVINCE
CTRY            .                        Norway            :COUNTRY
CONT_REGION     .                        Europe            :Continent Region
SECT            .                                          :Section
TOWN            .                                          :Township
RANG            .                                          :Range
API             .                                          :API NUMBER
UWI             .                                          :UNIQUE WELL ID
LUL             .                Service Office            :Logging Unit Location
LUN             .                          A615            :Logging Unit Number
LOC             .                Norwegian North Sea       :FIELD LOCATION
FL1             .                Section: 12 1/4 in. pilot :Field Location Line 1
FL2             .                Job no.: 19SCA0085        :Field Location Line 2
LATI            .deg             60° 34' 35.14" N          :LATITUDE
LONG            .deg             3° 26' 36.13" E           :LONGITUDE
PDAT            .                           MSL            :Local Permanent Datum
LMF             .                            DF            :Logging Measured From
APD             .m                        31.00            :Elevation of Depth Reference (LMF) Above Permanent Datum
EPD             .m                         0.00            :Elevation of Permanent Datum (PDAT) above Mean Sea Level
EKB             .m                      -999.25            :Elevation of Kelly Bushing Above Permanent Datum
EDF             .m                        31.00            :Elevation of Drill Floor Above Permanent Datum
EGL             .m                      -307.00            :Elevation of Ground Level Above Permanent Datum
ECF             .m                      -999.25            :Elevation of Casing Flange above Permanent Datum
#--------------------------------------------------
~CURVE INFORMATION
#MNEM           .UNIT                  API CODE            :DESCRIPTION
#----            ------          --------------            -----------------------------
TIME_1900       .d                                         :                                                        Time Index(OLE Automation date)
TIME            .s                                         :                                (10s)                   Time(hh mm ss/dd-MMM-yyyy)
DEPTH           .m                                         :(RT)    (DnMWorkflow)                                   Depth Index
GR              .gAPI                                      :(RT)    (ARC9)                                          Gamma Ray
BLKP            .m                                         :(RT)    (DRILLING_SURFACE)                              Height of block above rig floor
STICK           .c/min                                     :(RT)    (TELE900)                                       Stick Slip Indicator
CRPM            .c/min                                     :(RT)    (TELE900)                                       Collar Rotational Speed
SHKRSK          .                                          :(RT)    (TELE900)                                       Shock Risk
SHKPK           .gn                                        :(RT)    (TELE900)                                       Shock Peak
ECD             .g/cm3                                     :(RM)    (ARC9)                                          Equivalent Circulating Density
DHAP            .bar                                       :(RM)    (ARC9)                                          Downhole Annulus Pressure
DHAT            .degC                                      :(RM)    (ARC9)                                          Downhole Annulus Temperature
#-------------------------------------------------------------
#       TIME_1900                 TIME        DEPTH           GR         BLKP        STICK         CRPM       SHKRSK        SHKPK          ECD         DHAP         DHAT 
#                                       (DnMWorkfl)       (ARC9)  (DRILLING_)    (TELE900)    (TELE900)    (TELE900)    (TELE900)       (ARC9)       (ARC9)       (ARC9) 
#                                              (RT)         (RT)         (RT)         (RT)         (RT)         (RT)         (RT)         (RM)         (RM)         (RM) 
#                                (10s)                                                                                                                                   
~ASCII
# ...
 43816.7340277778 17:37:00/17-Dec-2019     352.9600      -999.25      40.7800      -999.25      -999.25      -999.25      -999.25       1.3871      46.4017      25.0000
 43816.7341435185 17:37:10/17-Dec-2019     351.6200      -999.25      42.2600      -999.25      -999.25      -999.25      -999.25       1.3890      46.3328      25.0000
 43816.7342592593 17:37:20/17-Dec-2019     351.6700      -999.25      42.2200      -999.25      -999.25      -999.25      -999.25       1.3908      46.4017      25.0000
 43816.7343750000 17:37:30/17-Dec-2019     351.6800      -999.25      42.0900      -999.25      -999.25      -999.25      -999.25       1.3888      46.3328      25.0000
 43816.7344907407 17:37:40/17-Dec-2019     351.6800      -999.25      38.9000      -999.25      -999.25      -999.25      -999.25       1.3888      46.3328      25.0000
 43816.7346064815 17:37:50/17-Dec-2019     351.6800      -999.25      22.3800      -999.25      -999.25      -999.25      -999.25       1.3847      46.1949      25.0000
 43816.7347222222 17:38:00/17-Dec-2019     351.6800      -999.25      10.7500      -999.25      -999.25      -999.25      -999.25       1.3909      46.4017      25.0000
 43816.7348379630 17:38:10/17-Dec-2019     351.6800      -999.25      10.4800      -999.25      -999.25      -999.25      -999.25       1.3847      46.1949      25.0000
 43816.7349537037 17:38:20/17-Dec-2019     351.6800      -999.25      10.4800      -999.25      -999.25      -999.25      -999.25       1.3867      46.2638      25.0000
 43816.7350694444 17:38:30/17-Dec-2019     351.6800      -999.25       3.9300      -999.25      -999.25      -999.25      -999.25       1.3826      46.1259      25.0000
 43816.7351851852 17:38:40/17-Dec-2019     351.6800      -999.25       3.2800      -999.25      -999.25      -999.25      -999.25       1.3826      46.1259      25.0000
 43816.7353009259 17:38:50/17-Dec-2019     349.1000      -999.25       5.7800      -999.25      -999.25      -999.25      -999.25       1.3729      45.5744      25.0000
 43816.7354166667 17:39:00/17-Dec-2019     334.7900      -999.25      20.0900      -999.25      -999.25      -999.25      -999.25       1.3773      43.4370      25.0000
 43816.7355324074 17:39:10/17-Dec-2019     317.7300      -999.25      37.1500      -999.25      -999.25      -999.25      -999.25       1.3865      41.8512      25.0000
 43816.7356481481 17:39:20/17-Dec-2019     312.7800      -999.25      42.1000      -999.25      -999.25      -999.25      -999.25       1.4017      41.4375      25.0000
 43816.7357638889 17:39:30/17-Dec-2019     312.6200      -999.25      42.2600      -999.25      -999.25      -999.25      -999.25       1.4078      41.5754      25.0000
 43816.7358796296 17:39:40/17-Dec-2019     312.6900      -999.25      42.0800      -999.25      -999.25      -999.25      -999.25       1.4075      41.5754      25.0000
 43816.7359953704 17:39:50/17-Dec-2019     312.6900      -999.25      41.8400      -999.25      -999.25      -999.25      -999.25       1.4028      41.4375      25.0000
 43816.7361111111 17:40:00/17-Dec-2019     312.6900      -999.25      30.1200      -999.25      -999.25      -999.25      -999.25       1.4028      41.4375      25.0000
 43816.7362268518 17:40:10/17-Dec-2019     312.6900      -999.25      13.2600      -999.25      -999.25      -999.25      -999.25       1.4005      41.3685      25.0000
 43816.7363425926 17:40:20/17-Dec-2019     312.6900      -999.25      10.6400      -999.25      -999.25      -999.25      -999.25       1.4005      41.3685      24.0000
 43816.7364583333 17:40:30/17-Dec-2019     312.6900      -999.25      10.6400      -999.25      -999.25      -999.25      -999.25       1.3958      41.2307      24.0000
 43816.7365740741 17:40:40/17-Dec-2019     312.6900      -999.25       4.3400      -999.25      -999.25      -999.25      -999.25       1.3935      41.1617      24.0000
 43816.7366898148 17:40:50/17-Dec-2019     312.6900      -999.25       3.2600      -999.25      -999.25      -999.25      -999.25       1.3958      41.2307      24.0000
 43816.7368055556 17:41:00/17-Dec-2019     312.1000      -999.25       3.8200      -999.25      -999.25      -999.25      -999.25       1.3958      41.2307      24.0000
 43816.7369212963 17:41:10/17-Dec-2019     310.7600      -999.25       5.1600      -999.25      -999.25      -999.25      -999.25       1.3894      40.7480      24.0000
 43816.7370370370 17:41:20/17-Dec-2019     307.9100      -999.25       7.8400      -999.25      -999.25      -999.25      -999.25       1.3903      40.4722      24.0000
 43816.7371527778 17:41:30/17-Dec-2019     304.8700      -999.25      10.9700      -999.25      -999.25      -999.25      -999.25       1.3945      40.0585      24.0000
 43816.7372685185 17:41:40/17-Dec-2019     301.0300      -999.25      14.6800      -999.25      -999.25      -999.25      -999.25       1.3991      39.7828      24.0000
 43816.7373842593 17:41:50/17-Dec-2019     297.5300      -999.25      18.2800      -999.25      -999.25      -999.25      -999.25       1.3965      39.2312      24.0000
 43816.7375000000 17:42:00/17-Dec-2019     293.4200      -999.25      22.2800      -999.25      -999.25      -999.25      -999.25       1.3986      38.6106      24.0000
 43816.7376157407 17:42:10/17-Dec-2019     289.3300      -999.25      26.4800      -999.25      -999.25      -999.25      -999.25       1.4024      38.2659      24.0000
 43816.7377314815 17:42:20/17-Dec-2019     285.0100      -999.25      30.6700      -999.25      -999.25      -999.25      -999.25       1.4050      37.6454      24.0000
 43816.7378472222 17:42:30/17-Dec-2019     281.2100      -999.25      34.7100      -999.25      -999.25      -999.25      -999.25       1.4031      37.1627      24.0000
 43816.7379629630 17:42:40/17-Dec-2019     277.7900      -999.25      38.1300      -999.25      -999.25      -999.25      -999.25       1.4047      36.7491      24.0000
 43816.7380787037 17:42:50/17-Dec-2019     274.0200      -999.25      41.9000      -999.25      -999.25      -999.25      -999.25       1.4067      36.1975      24.0000
 43816.7381944444 17:43:00/17-Dec-2019     273.6400      -999.25      42.2800      -999.25      -999.25      -999.25      -999.25       1.4133      36.3354      24.0000
 43816.7383101852 17:43:10/17-Dec-2019     273.6400      -999.25      42.2800      -999.25      -999.25      -999.25      -999.25       1.4133      36.3354      24.0000
 43816.7384259259 17:43:20/17-Dec-2019     273.6400      -999.25      42.2800      -999.25      -999.25      -999.25      -999.25       1.4107      36.2664      24.0000
 43816.7385416667 17:43:30/17-Dec-2019     273.6500      -999.25      42.2700      -999.25      -999.25      -999.25      -999.25       1.4160      36.4043      24.0000
 43816.7386574074 17:43:40/17-Dec-2019     273.6900      -999.25      42.1000      -999.25      -999.25      -999.25      -999.25       1.4104      36.2664      24.0000
 43816.7387731481 17:43:50/17-Dec-2019     273.6900      -999.25      42.1000      -999.25      -999.25      -999.25      -999.25       1.4077      36.1975      24.0000
 43816.7388888889 17:44:00/17-Dec-2019     273.6900      -999.25      42.1000      -999.25      -999.25      -999.25      -999.25       1.4077      36.1975      24.0000
 43816.7390046296 17:44:10/17-Dec-2019     273.6900      -999.25      42.1000      -999.25      -999.25      -999.25      -999.25       1.4077      36.1975      24.0000
 43816.7391203704 17:44:20/17-Dec-2019     273.6900      -999.25      30.8300      -999.25      -999.25      -999.25      -999.25       1.4104      36.2664      24.0000
 43816.7392361111 17:44:30/17-Dec-2019     273.6900      -999.25      15.2500      -999.25      -999.25      -999.25      -999.25       1.4104      36.2664      24.0000
 43816.7393518519 17:44:40/17-Dec-2019     273.6900      -999.25      12.8000      -999.25      -999.25      -999.25      -999.25       1.4077      36.1975      24.0000
 43816.7394675926 17:44:50/17-Dec-2019     273.6900      -999.25       6.6800      -999.25      -999.25      -999.25      -999.25       1.4104      36.2664      23.0000
