~VERSION INFORMATION 
VERS  .    2.0                                     :CWLS Log ASCII Standard - VERSION 2.0
WRAP  .    NO                                      :One Line per Time step
PROD  .    Schlumberger Technology Corp.           :LAS Producer
PROG  .    Horizon LASWriter 9.2.113335.3100       :LAS Program name and version
SOURCE.    Run 12-TimeLogicalAcq                   :Run&Pass Information
CREA  .    01/21/2020                              :LAS Creation date {MM/DD/YYYY}
#--------------------------------------------------
~WELL INFORMATION 
#MNEM           .UNIT                      DATA            :DESCRIPTION
#----            ------          --------------            -----------------------------
STRT            .d               43837.2295138889          :START TIME(OLE Automation date)
STOP            .d               43837.6875000000          :STOP TIME(OLE Automation date)
STEP            .d                            0            :STEP TIME(10s in time)
NULL            .                       -999.25            :NULL VALUE
COMP            .                       Equinor            :COMPANY
WELL            .                        31/5-7            :WELL NAME
FLD             .                           Eos            :FIELD NAME
RIGN            .                 West Hercules            :Rig Name
RIGTYP          .                Semi-Submersible          :Rig Type
SON             .                     19SCA0085            :Service Order Number
SRVC            .                  Schlumberger            :SERVICE COMPANY
DATE            .                    01/07/2020            :LOG DATE(Composite Date for Composite LAP) (MM/DD/YYYY)
CLAB            .                       County:            :County Label
CNTY            .                                          :COUNTY
SLAB            .                                          :State/Province Label
STAT            .                                          :STATE or PROVINCE
PROV            .                                          :STATE or PROVINCE
CTRY            .                        Norway            :COUNTRY
CONT_REGION     .                        Europe            :Continent Region
SECT            .                                          :Section
TOWN            .                                          :Township
RANG            .                                          :Range
API             .                                          :API NUMBER
UWI             .                                          :UNIQUE WELL ID
LUL             .                Service Office            :Logging Unit Location
LUN             .                          A615            :Logging Unit Number
LOC             .                Norwegian North Sea       :FIELD LOCATION
FL1             .                Section: 8 1/2 in.        :Field Location Line 1
FL2             .                Job no.: 19SCA0085        :Field Location Line 2
LATI            .deg             60° 34' 35.14" N          :LATITUDE
LONG            .deg             3° 26' 36.13" E           :LONGITUDE
PDAT            .                           MSL            :Local Permanent Datum
LMF             .                            DF            :Logging Measured From
APD             .m                        31.00            :Elevation of Depth Reference (LMF) Above Permanent Datum
EPD             .m                         0.00            :Elevation of Permanent Datum (PDAT) above Mean Sea Level
EKB             .m                      -999.25            :Elevation of Kelly Bushing Above Permanent Datum
EDF             .m                        31.00            :Elevation of Drill Floor Above Permanent Datum
EGL             .m                      -307.00            :Elevation of Ground Level Above Permanent Datum
ECF             .m                      -999.25            :Elevation of Casing Flange above Permanent Datum
#--------------------------------------------------
~CURVE INFORMATION
#MNEM           .UNIT                  API CODE            :DESCRIPTION
#----            ------          --------------            -----------------------------
TIME_1900       .d                                         :                                                        Time Index(OLE Automation date)
TIME            .s                                         :                                (10s)                   Time(hh mm ss/dd-MMM-yyyy)
DEPTH           .m                                         :(RT)    (DnMWorkflow)                                   Depth Index
BLKP            .m                                         :(RT)    (DRILLING_SURFACE)                              Height of block above rig floor
GR              .gAPI                                      :(RT)    (ARC6)                                          Gamma Ray
CRPM            .c/min                                     :(RT)    (TELE675)                                       Collar Rotational Speed
STICK           .c/min                                     :(RT)    (TELE675)                                       Stick Slip Indicator
SHKRSK          .                                          :(RT)    (TELE675)                                       Shock Risk
SHKPK           .gn                                        :(RT)    (TELE675)                                       Shock Peak
DHAT            .degC                                      :(RM)    (ARC6)                                          Downhole Annulus Temperature
DHAP            .bar                                       :(RM)    (ARC6)                                          Downhole Annulus Pressure
ECD             .g/cm3                                     :(RM)    (ARC6)                                          Equivalent Circulating Density
#-------------------------------------------------------------
#       TIME_1900                 TIME        DEPTH         BLKP           GR         CRPM        STICK       SHKRSK        SHKPK         DHAT         DHAP          ECD 
#                                       (DnMWorkfl)  (DRILLING_)       (ARC6)    (TELE675)    (TELE675)    (TELE675)    (TELE675)       (ARC6)       (ARC6)       (ARC6) 
#                                              (RT)         (RT)         (RT)         (RT)         (RT)         (RT)         (RT)         (RM)         (RM)         (RM) 
#                                (10s)                                                                                                                                   
~ASCII
# ...
 43837.4350694444 10:26:30/07-Jan-2020   2702.24023     15.60000     98.28504      -999.25      -999.25      0.00000      0.00000     41.00000    320.19250      1.21225
 43837.4351851852 10:26:40/07-Jan-2020   2702.77002     14.97000     94.13898      -999.25      -999.25      -999.25      -999.25     41.00000    320.60620      1.21357
 43837.4353009259 10:26:50/07-Jan-2020   2703.10010     14.75000     94.18899      -999.25      -999.25      -999.25      -999.25     41.00000    320.19250      1.21186
 43837.4354166667 10:27:00/07-Jan-2020   2702.81006     14.94000     98.81773      -999.25      -999.25      -999.25      -999.25     41.00000    321.01990      1.21512
 43837.4355324074 10:27:10/07-Jan-2020   2703.32007     14.52000     99.78654    152.00000      -999.25      -999.25      -999.25     41.00000    319.98570      1.21098
 43837.4356481481 10:27:20/07-Jan-2020   2702.89990     14.94000     98.33840      -999.25    294.00000      0.00000      0.00000     41.00000    320.74410      1.21404
 43837.4357638889 10:27:30/07-Jan-2020   2703.15015     14.69000     93.48148      -999.25      -999.25      -999.25      -999.25     41.00000    319.70990      1.21001
 43837.4358796296 10:27:40/07-Jan-2020   2703.00000     14.84000     88.20940      -999.25      -999.25      -999.25      -999.25     42.00000    320.53730      1.21322
 43837.4359953704 10:27:50/07-Jan-2020   2703.07007     14.77000     90.81045      -999.25      -999.25      -999.25      -999.25     42.00000    320.12360      1.21162
 43837.4361111111 10:28:00/07-Jan-2020   2703.30005     14.55000     93.66335    152.00000      -999.25      -999.25      -999.25     42.00000    319.57200      1.20942
 43837.4362268519 10:28:10/07-Jan-2020   2702.68018     15.16000     96.42739      -999.25    318.00000      -999.25      -999.25     42.00000    320.81310      1.21440
 43837.4363425926 10:28:20/07-Jan-2020   2703.13013     14.71000     99.71301      -999.25      -999.25      0.00000      0.00000     42.00000    319.91670      1.21080
 43837.4364583333 10:28:30/07-Jan-2020   2703.71997     14.12000    102.47710      -999.25      -999.25      -999.25      -999.25     42.00000    320.81310      1.21393
 43837.4365740741 10:28:40/07-Jan-2020   2703.02002     14.82000    103.84200      -999.25      -999.25      -999.25      -999.25     42.00000    319.70990      1.21007
 43837.4366898148 10:28:50/07-Jan-2020   2703.29004     14.46000    103.40130      -999.25      -999.25      -999.25      -999.25     42.00000    320.88200      1.21438
 43837.4368055556 10:29:00/07-Jan-2020   2703.87988     13.96000    102.32550    187.00000      -999.25      -999.25      -999.25     42.00000    320.19250      1.21151
 43837.4369212963 10:29:10/07-Jan-2020   2703.45996     14.38000    100.74930      -999.25    324.00000      0.00000      0.00000     42.00000    320.60620      1.21327
 43837.4370370370 10:29:20/07-Jan-2020   2703.70996     14.13000     99.17300      -999.25      -999.25      -999.25      -999.25     42.00000    320.33040      1.21211
 43837.4371527778 10:29:30/07-Jan-2020   2703.65015     14.19000     98.09718      -999.25      -999.25      -999.25      -999.25     42.00000    320.26150      1.21188
 43837.4372685185 10:29:40/07-Jan-2020   2703.60010     14.24000    100.09380      -999.25      -999.25      -999.25      -999.25     42.00000    320.88200      1.21425
 43837.4373842593 10:29:50/07-Jan-2020   2703.84009     14.01000    102.53780    168.00000      -999.25      -999.25      -999.25     42.00000    320.19250      1.21153
 43837.4375000000 10:30:00/07-Jan-2020   2703.70020     14.14000    104.02340      -999.25    315.00000      -999.25      -999.25     42.00000    320.67520      1.21342
 43837.4376157407 10:30:10/07-Jan-2020   2703.92017     13.92000    102.38060      -999.25      -999.25      0.00000      0.00000     42.00000    320.26150      1.21175
 43837.4377314815 10:30:20/07-Jan-2020   2703.77979     14.06000     98.13091      -999.25      -999.25      -999.25      -999.25     42.00000    320.74410      1.21364
 43837.4378472222 10:30:30/07-Jan-2020   2704.04980     13.80000     94.61436      -999.25      -999.25      -999.25      -999.25     42.00000    320.33040      1.21196
 43837.4379629630 10:30:40/07-Jan-2020   2704.09009     13.94000     92.77077      -999.25      -999.25      -999.25      -999.25     42.00000    320.46830      1.21248
 43837.4380787037 10:30:50/07-Jan-2020   2703.57007     14.27000     93.84658    175.00000      -999.25      -999.25      -999.25     42.00000    320.46830      1.21270
 43837.4381944444 10:31:00/07-Jan-2020   2704.02002     13.64000     95.42285      -999.25     81.00000      0.00000      0.00000     42.00000    320.95100      1.21430
 43837.4383101852 10:31:10/07-Jan-2020   2704.51978     13.33000     96.99911      -999.25      -999.25      -999.25      -999.25     42.00000    320.46830      1.21227
 43837.4384259259 10:31:20/07-Jan-2020   2704.28003     13.66000     98.07493      -999.25      -999.25      -999.25      -999.25     42.00000    320.74410      1.21343
 43837.4385416667 10:31:30/07-Jan-2020   2704.15991     13.68000     92.39722      -999.25      -999.25      -999.25      -999.25     42.00000    320.46830      1.21243
 43837.4386574074 10:31:40/07-Jan-2020   2704.19995     13.65000     92.80449    189.00000      -999.25      -999.25      -999.25     42.00000    320.88200      1.21398
 43837.4387731481 10:31:50/07-Jan-2020   2704.53003     13.22000     97.05417      -999.25    147.00000      -999.25      -999.25     42.00000    320.74410      1.21330
 43837.4388888889 10:32:00/07-Jan-2020   2704.27002     13.57000     98.69698      -999.25      -999.25      0.00000      0.00000     42.00000    320.46830      1.21238
 43837.4390046296 10:32:10/07-Jan-2020   2704.55005     13.30000     97.21135      -999.25      -999.25      -999.25      -999.25     42.00000    320.67520      1.21304
 43837.4391203704 10:32:20/07-Jan-2020   2704.86987     13.07000     97.51510      -999.25      -999.25      -999.25      -999.25     42.00000    320.46830      1.21212
 43837.4392361111 10:32:30/07-Jan-2020   2704.36011     13.48000     99.85871      -999.25      -999.25      -999.25      -999.25     42.00000    320.81310      1.21364
 43837.4393518518 10:32:40/07-Jan-2020   2704.89990     12.94000    101.34430    181.00000      -999.25      -999.25      -999.25     42.00000    320.67520      1.21288
 43837.4394675926 10:32:50/07-Jan-2020   2704.75000     13.09000     99.70152      -999.25    141.00000      0.00000      0.00000     42.00000    320.33040      1.21166
 43837.4395833333 10:33:00/07-Jan-2020   2704.62988     13.21000     95.45185      -999.25      -999.25      -999.25      -999.25     42.00000    321.08880      1.21457
 43837.4396990741 10:33:10/07-Jan-2020   2704.66992     13.17000     93.77690      -999.25      -999.25      -999.25      -999.25     42.00000    320.05460      1.21064
 43837.4398148148 10:33:20/07-Jan-2020   2704.86987     12.97000     96.16565      -999.25      -999.25      -999.25      -999.25     42.00000    321.29570      1.21524
 43837.4399305556 10:33:30/07-Jan-2020   2705.00000     12.84000     98.21028    185.00000      -999.25      -999.25      -999.25     42.00000    320.26150      1.21127
 43837.4400462963 10:33:40/07-Jan-2020   2705.03979     12.80000     98.33840      -999.25    366.00000      -999.25      -999.25     42.00000    321.15780      1.21466
 43837.4401620370 10:33:50/07-Jan-2020   2704.92993     12.91000     95.05775      -999.25      -999.25      0.00000      0.00000     42.00000    320.19250      1.21104
 43837.4402777778 10:34:00/07-Jan-2020   2705.16992     12.67000     90.86149      -999.25      -999.25      -999.25      -999.25     42.00000    321.29570      1.21510
 43837.4403935185 10:34:10/07-Jan-2020   2704.96021     12.88000     91.40681      -999.25      -999.25      -999.25      -999.25     42.00000    320.39940      1.21181
 43837.4405092593 10:34:20/07-Jan-2020   2705.28979     12.55000     92.70347      -999.25      -999.25      -999.25      -999.25     43.00000    321.08880      1.21427
