~VERSION INFORMATION 
VERS  .    2.0                                     :CWLS Log ASCII Standard - VERSION 2.0
WRAP  .    NO                                      :One Line per Time step
PROD  .    Schlumberger Technology Corp.           :LAS Producer
PROG  .    Horizon LASWriter 9.2.113335.3100       :LAS Program name and version
SOURCE.    Run 7-TimeLogicalAcq                    :Run&Pass Information
CREA  .    12/27/2019                              :LAS Creation date {MM/DD/YYYY}
#--------------------------------------------------
~WELL INFORMATION 
#MNEM           .UNIT                      DATA            :DESCRIPTION
#----            ------          --------------            -----------------------------
STRT            .d               43818.4166666667          :START TIME(OLE Automation date)
STOP            .d               43819.7083333333          :STOP TIME(OLE Automation date)
STEP            .d                            0            :STEP TIME(10s in time)
NULL            .                       -999.25            :NULL VALUE
COMP            .                       Equinor            :COMPANY
WELL            .                        31/5-7            :WELL NAME
FLD             .                           Eos            :FIELD NAME
RIGN            .                 West Hercules            :Rig Name
RIGTYP          .                Semi-Submersible          :Rig Type
SON             .                     19SCA0085            :Service Order Number
SRVC            .                  Schlumberger            :SERVICE COMPANY
DATE            .                    12/19/2019            :LOG DATE(Composite Date for Composite LAP) (MM/DD/YYYY)
CLAB            .                       County:            :County Label
CNTY            .                                          :COUNTY
SLAB            .                                          :State/Province Label
STAT            .                                          :STATE or PROVINCE
PROV            .                                          :STATE or PROVINCE
CTRY            .                        Norway            :COUNTRY
CONT_REGION     .                        Europe            :Continent Region
SECT            .                                          :Section
TOWN            .                                          :Township
RANG            .                                          :Range
API             .                                          :API NUMBER
UWI             .                                          :UNIQUE WELL ID
LUL             .                Service Office            :Logging Unit Location
LUN             .                          A615            :Logging Unit Number
LOC             .                Norwegian North Sea       :FIELD LOCATION
FL1             .                Section: 12 1/4 x 17 1/5 in.:Field Location Line 1
FL2             .                Job no.: 19SCA0085        :Field Location Line 2
LATI            .deg             60° 34' 35.14" N          :LATITUDE
LONG            .deg             3° 26' 36.13" E           :LONGITUDE
PDAT            .                           MSL            :Local Permanent Datum
LMF             .                            DF            :Logging Measured From
APD             .m                        31.00            :Elevation of Depth Reference (LMF) Above Permanent Datum
EPD             .m                         0.00            :Elevation of Permanent Datum (PDAT) above Mean Sea Level
EKB             .m                      -999.25            :Elevation of Kelly Bushing Above Permanent Datum
EDF             .m                        31.00            :Elevation of Drill Floor Above Permanent Datum
EGL             .m                      -307.00            :Elevation of Ground Level Above Permanent Datum
ECF             .m                      -999.25            :Elevation of Casing Flange above Permanent Datum
#--------------------------------------------------
~CURVE INFORMATION
#MNEM           .UNIT                  API CODE            :DESCRIPTION
#----            ------          --------------            -----------------------------
TIME_1900       .d                                         :                                                        Time Index(OLE Automation date)
TIME            .s                                         :                                (10s)                   Time(hh mm ss/dd-MMM-yyyy)
DEPTH           .m                                         :(RT)    (DnMWorkflow)                                   Depth Index
BLKP            .m                                         :(RT)    (DRILLING_SURFACE)                              Height of block above rig floor
GR_CAL          .gAPI                                      :(RT)    (ARC9)                                          Calibrated Gamma Ray
STICK           .c/min                                     :(RT)    (TELE900)                                       Stick Slip Indicator
CRPM            .c/min                                     :(RT)    (TELE900)                                       Collar Rotational Speed
SHKRSK          .                                          :(RT)    (TELE900)                                       Shock Risk
SHKPK           .gn                                        :(RT)    (TELE900)                                       Shock Peak
DHAT            .degC                                      :(RM)    (ARC9)                                          Downhole Annulus Temperature
DHAP            .bar                                       :(RM)    (ARC9)                                          Downhole Annulus Pressure
ECD             .g/cm3                                     :(RM)    (ARC9)                                          Equivalent Circulating Density
#-------------------------------------------------------------
#       TIME_1900                 TIME        DEPTH         BLKP       GR_CAL        STICK         CRPM       SHKRSK        SHKPK         DHAT         DHAP          ECD 
#                                       (DnMWorkfl)  (DRILLING_)       (ARC9)    (TELE900)    (TELE900)    (TELE900)    (TELE900)       (ARC9)       (ARC9)       (ARC9) 
#                                              (RT)         (RT)         (RT)         (RT)         (RT)         (RT)         (RT)         (RM)         (RM)         (RM) 
#                                (10s)                                                                                                                                   
~ASCII
# ...
 43818.6277777778 15:04:00/19-Dec-2019   1072.04993      2.35000      -999.25      -999.25    222.00000      -999.25      -999.25     24.00000    134.99930      1.30063
 43818.6278935185 15:04:10/19-Dec-2019   1071.26001      3.16000      -999.25    381.00000      -999.25      -999.25      -999.25     24.00000    134.72360      1.29895
 43818.6280092593 15:04:20/19-Dec-2019   1071.20007      3.22000      -999.25      -999.25      -999.25      -999.25      -999.25     24.00000    134.72360      1.29902
 43818.6281250000 15:04:30/19-Dec-2019   1070.98999      3.43000      -999.25      -999.25      -999.25      -999.25      -999.25     24.00000    134.58570      1.29795
 43818.6282407407 15:04:40/19-Dec-2019   1070.03003      4.39000      -999.25      -999.25      -999.25      -999.25      -999.25     24.00000    134.37880      1.29713
 43818.6283564815 15:04:50/19-Dec-2019   1069.91003      4.51000      -999.25      -999.25      -999.25      -999.25      -999.25     24.00000    132.03460      1.27465
 43818.6284722222 15:05:00/19-Dec-2019   1069.95996      4.46000      -999.25      -999.25      -999.25      -999.25      -999.25     24.00000    132.99990      1.28391
 43818.6285879630 15:05:10/19-Dec-2019   1069.95996      4.45000      -999.25      -999.25      -999.25      -999.25      -999.25     24.00000    133.06880      1.28457
 43818.6287037037 15:05:20/19-Dec-2019   1069.95996      4.45000      -999.25      -999.25      -999.25      -999.25      -999.25     24.00000    133.06880      1.28457
 43818.6288194444 15:05:30/19-Dec-2019   1069.95996      4.46000      -999.25      -999.25      -999.25      -999.25      -999.25     24.00000    133.68930      1.29056
 43818.6289351852 15:05:40/19-Dec-2019   1069.95996      4.69000      -999.25      -999.25      -999.25      -999.25      -999.25     24.00000    133.68930      1.29056
 43818.6290509259 15:05:50/19-Dec-2019   1069.95996      4.76000      -999.25      -999.25      -999.25      -999.25      -999.25     24.00000    134.03410      1.29389
 43818.6291666667 15:06:00/19-Dec-2019   1069.95996     15.80000      -999.25      -999.25      -999.25      -999.25      -999.25     24.00000    133.82720      1.29189
 43818.6292824074 15:06:10/19-Dec-2019   1069.95996     32.38000      -999.25      -999.25      -999.25      -999.25      -999.25     24.00000    133.75830      1.29123
 43818.6293981481 15:06:20/19-Dec-2019   1069.95996     43.12000      -999.25      -999.25      -999.25      -999.25      -999.25     24.00000    133.27570      1.28657
 43818.6295138889 15:06:30/19-Dec-2019   1069.95996     43.64000      -999.25      -999.25      -999.25      -999.25      -999.25     24.00000    133.13780      1.28524
 43818.6296296296 15:06:40/19-Dec-2019   1069.95996     43.69000      -999.25      -999.25      -999.25      -999.25      -999.25     24.00000    132.86200      1.28258
 43818.6297453704 15:06:50/19-Dec-2019   1069.95996     43.44000      -999.25      -999.25      -999.25      -999.25      -999.25     24.00000    133.20670      1.28590
 43818.6298611111 15:07:00/19-Dec-2019   1069.95996     43.32000      -999.25      -999.25      -999.25      -999.25      -999.25     24.00000    133.41360      1.28790
 43818.6299768519 15:07:10/19-Dec-2019   1069.95996     43.31000      -999.25      -999.25      -999.25      -999.25      -999.25     24.00000    133.20670      1.28590
 43818.6300925926 15:07:20/19-Dec-2019   1069.95996     43.30000      -999.25      -999.25      -999.25      -999.25      -999.25     24.00000    133.41360      1.28790
 43818.6302083333 15:07:30/19-Dec-2019   1069.95996     43.32000      -999.25      -999.25      -999.25      -999.25      -999.25     24.00000    133.48250      1.28857
 43818.6303240741 15:07:40/19-Dec-2019   1069.08997     43.89000      -999.25      -999.25      -999.25      -999.25      -999.25     24.00000    133.41360      1.28896
 43818.6304398148 15:07:50/19-Dec-2019   1071.44995     41.60000      -999.25      -999.25      -999.25      -999.25      -999.25     24.00000    133.96510      1.29143
 43818.6305555556 15:08:00/19-Dec-2019   1071.54004     41.43000      -999.25      -999.25      -999.25      -999.25      -999.25     24.00000    134.37880      1.29528
 43818.6306712963 15:08:10/19-Dec-2019   1072.46997     40.53000    153.67710      -999.25      -999.25      -999.25      -999.25     24.00000    134.10300      1.29150
 43818.6307870370 15:08:20/19-Dec-2019   1072.28992     40.69000    153.15000      -999.25      -999.25      -999.25      -999.25     24.00000    134.58570      1.29636
 43818.6309027778 15:08:30/19-Dec-2019   1072.09998     40.88000    152.27350      -999.25      -999.25      -999.25      -999.25     24.00000    134.30990      1.29393
 43818.6310185185 15:08:40/19-Dec-2019   1071.92004     41.06000    150.81340      -999.25      -999.25      -999.25      -999.25     24.00000    134.58570      1.29681
 43818.6311342593 15:08:50/19-Dec-2019   1072.38000     40.42000    148.95580      -999.25      -999.25      -999.25      -999.25     24.00000    134.51670      1.29551
 43818.6312500000 15:09:00/19-Dec-2019   1072.56006     40.15000    146.93770      -999.25      -999.25      -999.25      -999.25     24.00000    134.65460      1.29657
 43818.6313657407 15:09:10/19-Dec-2019   1072.65002     40.33000    145.01640      -999.25      -999.25      -999.25      -999.25     24.00000    134.44780      1.29459
 43818.6314814815 15:09:20/19-Dec-2019   1072.56006     40.42000    143.43700      -999.25      -999.25      -999.25      -999.25     24.00000    134.44780      1.29470
 43818.6315972222 15:09:30/19-Dec-2019   1072.56006     40.42000    142.40090      -999.25      -999.25      -999.25      -999.25     24.00000    134.37880      1.29403
 43818.6317129630 15:09:40/19-Dec-2019   1072.38000     40.59999    142.04020      -999.25      -999.25      -999.25      -999.25     24.00000    134.37880      1.29425
 43818.6318287037 15:09:50/19-Dec-2019   1072.56006     40.42000    142.40090      -999.25      -999.25      -999.25      -999.25     24.00000    134.30990      1.29337
 43818.6319444444 15:10:00/19-Dec-2019   1072.38000     40.59999    143.43700      -999.25      -999.25      -999.25      -999.25     24.00000    134.37880      1.29429
 43818.6320601852 15:10:10/19-Dec-2019   1072.28992     40.69000    145.01640      -999.25      -999.25      -999.25      -999.25     24.00000    134.51670      1.29569
 43818.6321759259 15:10:20/19-Dec-2019   1072.62000     40.36000    146.93770      -999.25      -999.25      -999.25      -999.25     24.00000    134.93040      1.29919
 43818.6322916667 15:10:30/19-Dec-2019   1072.95996     40.02000    148.95580      -999.25      -999.25      -999.25      -999.25     24.00000    134.99930      1.29952
 43818.6324074074 15:10:40/19-Dec-2019   1072.97998     40.00000    150.81340      -999.25      -999.25      0.00000      0.00000     24.00000    134.72360      1.29684
 43818.6325231481 15:10:50/19-Dec-2019   1073.21997     39.75999    152.27350      -999.25      -999.25      -999.25      -999.25     24.00000    134.72360      1.29655
 43818.6326388889 15:11:00/19-Dec-2019   1073.40002     39.58000    153.15000      -999.25      -999.25      -999.25      -999.25     24.00000    134.30990      1.29235
 43818.6327546296 15:11:10/19-Dec-2019   1073.43005     39.55000    146.46240      -999.25      -999.25      -999.25      -999.25     24.00000    134.72360      1.29629
 43818.6328703704 15:11:20/19-Dec-2019   1073.85999     39.12000    142.38900      -999.25    255.00000      -999.25      -999.25     24.00000    134.44780      1.29312
 43818.6329861111 15:11:30/19-Dec-2019   1074.09998     38.88000    141.86980    381.00000      -999.25      0.00000      0.00000     24.00000    134.58570      1.29415
 43818.6331018518 15:11:40/19-Dec-2019   1074.15002     38.83000    146.02510      -999.25      -999.25      -999.25      -999.25     24.00000    134.58570      1.29413
 43818.6332175926 15:11:50/19-Dec-2019   1074.47998     38.50000    150.81090      -999.25      -999.25      -999.25      -999.25     24.00000    134.58570      1.29373
