~VERSION INFORMATION 
VERS  .    2.0                                     :CWLS Log ASCII Standard - VERSION 2.0
WRAP  .    NO                                      :One Line per Time step
PROD  .    Schlumberger Technology Corp.           :LAS Producer
PROG  .    Horizon LASWriter 9.2.113335.3100       :LAS Program name and version
SOURCE.    Run 13-TimeLogicalAcq                   :Run&Pass Information
CREA  .    01/21/2020                              :LAS Creation date {MM/DD/YYYY}
#--------------------------------------------------
~WELL INFORMATION 
#MNEM           .UNIT                      DATA            :DESCRIPTION
#----            ------          --------------            -----------------------------
STRT            .d               43844.3958333334          :START TIME(OLE Automation date)
STOP            .d               43845.1666666667          :STOP TIME(OLE Automation date)
STEP            .d                            0            :STEP TIME(10s in time)
NULL            .                       -999.25            :NULL VALUE
COMP            .                       Equinor            :COMPANY
WELL            .                        31/5-7            :WELL NAME
FLD             .                           Eos            :FIELD NAME
RIGN            .                 West Hercules            :Rig Name
RIGTYP          .                Semi-Submersible          :Rig Type
SON             .                     19SCA0085            :Service Order Number
SRVC            .                  Schlumberger            :SERVICE COMPANY
DATE            .                    01/13/2020            :LOG DATE(Composite Date for Composite LAP) (MM/DD/YYYY)
CLAB            .                       County:            :County Label
CNTY            .                                          :COUNTY
SLAB            .                                          :State/Province Label
STAT            .                                          :STATE or PROVINCE
PROV            .                                          :STATE or PROVINCE
CTRY            .                        Norway            :COUNTRY
CONT_REGION     .                        Europe            :Continent Region
SECT            .                                          :Section
TOWN            .                                          :Township
RANG            .                                          :Range
API             .                                          :API NUMBER
UWI             .                                          :UNIQUE WELL ID
LUL             .                Service Office            :Logging Unit Location
LUN             .                          A615            :Logging Unit Number
LOC             .                Norwegian North Sea       :FIELD LOCATION
FL1             .                Section: 8 1/2 in.        :Field Location Line 1
FL2             .                Job no.: 19SCA0085        :Field Location Line 2
LATI            .deg             60° 34' 35.14" N          :LATITUDE
LONG            .deg             3° 26' 36.13" E           :LONGITUDE
PDAT            .                           MSL            :Local Permanent Datum
LMF             .                            DF            :Logging Measured From
APD             .m                        31.00            :Elevation of Depth Reference (LMF) Above Permanent Datum
EPD             .m                         0.00            :Elevation of Permanent Datum (PDAT) above Mean Sea Level
EKB             .m                      -999.25            :Elevation of Kelly Bushing Above Permanent Datum
EDF             .m                        31.00            :Elevation of Drill Floor Above Permanent Datum
EGL             .m                      -307.00            :Elevation of Ground Level Above Permanent Datum
ECF             .m                      -999.25            :Elevation of Casing Flange above Permanent Datum
#--------------------------------------------------
~CURVE INFORMATION
#MNEM           .UNIT                  API CODE            :DESCRIPTION
#----            ------          --------------            -----------------------------
TIME_1900       .d                                         :                                                        Time Index(OLE Automation date)
TIME            .s                                         :                                (10s)                   Time(hh mm ss/dd-MMM-yyyy)
DEPTH           .m                                         :(RT)    (DnMWorkflow)                                   Depth Index
BLKP            .m                                         :(RT)    (DRILLING_SURFACE)                              Height of block above rig floor
GR              .gAPI                                      :(RT)    (ARC6)                                          Gamma Ray
CRPM            .c/min                                     :(RT)    (TELE675)                                       Collar Rotational Speed
STICK           .c/min                                     :(RT)    (TELE675)                                       Stick Slip Indicator
SHKRSK          .                                          :(RT)    (TELE675)                                       Shock Risk
SHKPK           .gn                                        :(RT)    (TELE675)                                       Shock Peak
DHAT            .degC                                      :(RM)    (ARC6)                                          Downhole Annulus Temperature
DHAP            .bar                                       :(RM)    (ARC6)                                          Downhole Annulus Pressure
ECD             .g/cm3                                     :(RM)    (ARC6)                                          Equivalent Circulating Density
#-------------------------------------------------------------
#       TIME_1900                 TIME        DEPTH         BLKP           GR         CRPM        STICK       SHKRSK        SHKPK         DHAT         DHAP          ECD 
#                                       (DnMWorkfl)  (DRILLING_)       (ARC6)    (TELE675)    (TELE675)    (TELE675)    (TELE675)       (ARC6)       (ARC6)       (ARC6) 
#                                              (RT)         (RT)         (RT)         (RT)         (RT)         (RT)         (RT)         (RM)         (RM)         (RM) 
#                                (10s)                                                                                                                                   
~ASCII
# ...
 43844.6569444444 15:46:00/14-Jan-2020   2802.04980     31.23000     44.97330      -999.25      -999.25      -999.25      -999.25     46.00000    335.98150      1.22656
 43844.6570601852 15:46:10/14-Jan-2020   2801.64990     31.82000     44.72692      -999.25      -999.25      -999.25      -999.25     46.00000    336.94680      1.23028
 43844.6571759259 15:46:20/14-Jan-2020   2802.02026     31.46000     47.49097    120.00000      -999.25      -999.25      -999.25     46.00000    336.05050      1.22684
 43844.6572916667 15:46:30/14-Jan-2020   2802.28003     31.38000     50.77659      -999.25    291.00000      0.00000      0.00000     46.00000    336.25730      1.22749
 43844.6574074074 15:46:40/14-Jan-2020   2802.75000     30.83000     53.54063      -999.25      -999.25      -999.25      -999.25     46.00000    336.94680      1.22979
 43844.6575231481 15:46:50/14-Jan-2020   2802.82007     30.65000     56.55772      -999.25      -999.25      -999.25      -999.25     46.00000    336.25730      1.22724
 43844.6576388889 15:47:00/14-Jan-2020   2802.33008     31.15000     60.33006      -999.25      -999.25      -999.25      -999.25     46.00000    336.46410      1.22821
 43844.6577546296 15:47:10/14-Jan-2020   2802.96997     30.50000     62.97504    147.00000      -999.25      -999.25      -999.25     46.00000    337.15360      1.23045
 43844.6578703704 15:47:20/14-Jan-2020   2802.66992     30.81000     66.12758      -999.25    318.00000      0.00000      0.00000     46.00000    336.53310      1.22832
 43844.6579861111 15:47:30/14-Jan-2020   2803.03003     30.35000     69.28011      -999.25      -999.25      -999.25      -999.25     46.00000    335.56790      1.22463
 43844.6581018518 15:47:40/14-Jan-2020   2802.91992     30.56000     69.68403      -999.25      -999.25      -999.25      -999.25     46.00000    337.01570      1.22997
 43844.6582175926 15:47:50/14-Jan-2020   2803.00000     30.48000     66.26169      -999.25      -999.25      -999.25      -999.25     46.00000    336.18840      1.22691
 43844.6583333333 15:48:00/14-Jan-2020   2803.07007     30.41000     63.51504    153.00000      -999.25      -999.25      -999.25     46.00000    336.60210      1.22839
 43844.6584490741 15:48:10/14-Jan-2020   2803.33984     30.14000     63.35370      -999.25    309.00000      -999.25      -999.25     46.00000    336.87790      1.22928
 43844.6585648148 15:48:20/14-Jan-2020   2803.70020     29.78000     63.68227      -999.25      -999.25      0.00000      0.00000     46.00000    336.18840      1.22661
 43844.6586805556 15:48:30/14-Jan-2020   2802.72998     30.75000     64.39641      -999.25      -999.25      -999.25      -999.25     46.00000    336.39520      1.22778
 43844.6587962963 15:48:40/14-Jan-2020   2803.08984     30.39000     62.57006      -999.25      -999.25      -999.25      -999.25     46.00000    336.80890      1.22914
 43844.6589120370 15:48:50/14-Jan-2020   2803.65015     29.83000     59.04954      -999.25      -999.25      -999.25      -999.25     46.00000    335.56790      1.22436
 43844.6590277778 15:49:00/14-Jan-2020   2803.92017     29.37000     56.34453    148.00000      -999.25      -999.25      -999.25     46.00000    335.63680      1.22449
 43844.6591435185 15:49:10/14-Jan-2020   2804.09009     29.29000     53.19199      -999.25    321.00000      0.00000      0.00000     46.00000    336.94680      1.22920
 43844.6592592593 15:49:20/14-Jan-2020   2803.20996     30.27000     50.03946      -999.25      -999.25      -999.25      -999.25     46.00000    336.53310      1.22808
 43844.6593750000 15:49:30/14-Jan-2020   2804.14990     29.33000     47.88784      -999.25      -999.25      -999.25      -999.25     46.00000    335.98150      1.22565
 43844.6594907407 15:49:40/14-Jan-2020   2804.41992     29.06000     47.73181      -999.25      -999.25      -999.25      -999.25     46.00000    337.01570      1.22931
 43844.6596064815 15:49:50/14-Jan-2020   2804.20996     29.27000     47.40581    120.00000      -999.25      -999.25      -999.25     46.00000    336.53310      1.22764
 43844.6597222222 15:50:00/14-Jan-2020   2804.93994     28.53000     46.02378      -999.25    312.00000      -999.25      -999.25     46.00000    335.77470      1.22455
 43844.6598379630 15:50:10/14-Jan-2020   2804.45996     28.83000     44.38097      -999.25      -999.25      0.00000      0.00000     46.00000    337.01570      1.22928
 43844.6599537037 15:50:20/14-Jan-2020   2804.53003     28.85000     42.99895      -999.25      -999.25      -999.25      -999.25     46.00000    335.91260      1.22524
 43844.6600694444 15:50:30/14-Jan-2020   2804.04004     29.24000     44.33728      -999.25      -999.25      -999.25      -999.25     46.00000    336.46410      1.22745
 43844.6601851852 15:50:40/14-Jan-2020   2804.31006     29.17000     48.21220      -999.25      -999.25      -999.25      -999.25     46.00000    337.22260      1.23011
 43844.6603009259 15:50:50/14-Jan-2020   2804.59009     28.89000     53.32729    132.00000      -999.25      -999.25      -999.25     46.00000    336.74000      1.22823
 43844.6604166667 15:51:00/14-Jan-2020   2804.37988     29.09000     58.18422      -999.25    306.00000      0.00000      0.00000     46.00000    336.94680      1.22907
 43844.6605324074 15:51:10/14-Jan-2020   2804.93994     28.53000     59.63236      -999.25      -999.25      -999.25      -999.25     46.00000    337.29150      1.23009
 43844.6606481481 15:51:20/14-Jan-2020   2805.40015     28.26000     59.35072      -999.25      -999.25      -999.25      -999.25     46.00000    336.94680      1.22864
 43844.6607638889 15:51:30/14-Jan-2020   2805.48999     27.99000     60.19424      -999.25      -999.25      -999.25      -999.25     46.00000    336.87790      1.22834
 43844.6608796296 15:51:40/14-Jan-2020   2805.28979     28.19000     61.68895    153.00000      -999.25      -999.25      -999.25     46.00000    337.49840      1.23069
 43844.6609953704 15:51:50/14-Jan-2020   2805.93994     27.54000     63.07097      -999.25    333.00000      -999.25      -999.25     46.00000    336.74000      1.22764
 43844.6611111111 15:52:00/14-Jan-2020   2805.44995     28.03000     64.71378      -999.25      -999.25      0.00000      0.00000     46.00000    336.46410      1.22684
 43844.6612268519 15:52:10/14-Jan-2020   2805.44995     28.03000     66.09581      -999.25      -999.25      -999.25      -999.25     46.00000    337.29150      1.22986
 43844.6613425926 15:52:20/14-Jan-2020   2805.71997     27.76000     67.46427      -999.25      -999.25      -999.25      -999.25     46.00000    337.01570      1.22874
 43844.6614583333 15:52:30/14-Jan-2020   2806.17993     27.30000     67.18376      -999.25      -999.25      -999.25      -999.25     46.00000    335.91260      1.22452
 43844.6615740741 15:52:40/14-Jan-2020   2805.60986     27.87000     64.25748    153.00000      -999.25      -999.25      -999.25     46.00000    337.08470      1.22903
 43844.6616898148 15:52:50/14-Jan-2020   2805.50977     27.97000     60.97683      -999.25    300.00000      0.00000      0.00000     46.00000    336.87790      1.22833
 43844.6618055556 15:53:00/14-Jan-2020   2806.17017     27.31000     61.10495      -999.25      -999.25      -999.25      -999.25     46.00000    335.63680      1.22352
 43844.6619212963 15:53:10/14-Jan-2020   2806.45996     27.02000     63.50790      -999.25      -999.25      -999.25      -999.25     46.00000    336.53310      1.22665
 43844.6620370370 15:53:20/14-Jan-2020   2805.97998     27.49000     66.37549      -999.25      -999.25      -999.25      -999.25     46.00000    336.87790      1.22812
 43844.6621527778 15:53:30/14-Jan-2020   2806.17017     27.31000     68.48965    157.00000      -999.25      -999.25      -999.25     46.00000    336.05050      1.22502
 43844.6622685185 15:53:40/14-Jan-2020   2806.83008     26.65000     69.87167      -999.25    294.00000      -999.25      -999.25     46.00000    337.22260      1.22900
 43844.6623842593 15:53:50/14-Jan-2020   2806.83008     26.75000     71.51448      -999.25      -999.25      0.00000      0.00000     46.00000    336.67100      1.22699
