~VERSION INFORMATION 
VERS  .    2.0                                     :CWLS Log ASCII Standard - VERSION 2.0
WRAP  .    NO                                      :One Line per Time step
PROD  .    Schlumberger Technology Corp.           :LAS Producer
PROG  .    Horizon LASWriter 9.2.113335.3100       :LAS Program name and version
SOURCE.    Run 12-TimeLogicalAcq                   :Run&Pass Information
CREA  .    01/21/2020                              :LAS Creation date {MM/DD/YYYY}
#--------------------------------------------------
~WELL INFORMATION 
#MNEM           .UNIT                      DATA            :DESCRIPTION
#----            ------          --------------            -----------------------------
STRT            .d               43837.2295138889          :START TIME(OLE Automation date)
STOP            .d               43837.6875000000          :STOP TIME(OLE Automation date)
STEP            .d                            0            :STEP TIME(10s in time)
NULL            .                       -999.25            :NULL VALUE
COMP            .                       Equinor            :COMPANY
WELL            .                        31/5-7            :WELL NAME
FLD             .                           Eos            :FIELD NAME
RIGN            .                 West Hercules            :Rig Name
RIGTYP          .                Semi-Submersible          :Rig Type
SON             .                     19SCA0085            :Service Order Number
SRVC            .                  Schlumberger            :SERVICE COMPANY
DATE            .                    01/07/2020            :LOG DATE(Composite Date for Composite LAP) (MM/DD/YYYY)
CLAB            .                       County:            :County Label
CNTY            .                                          :COUNTY
SLAB            .                                          :State/Province Label
STAT            .                                          :STATE or PROVINCE
PROV            .                                          :STATE or PROVINCE
CTRY            .                        Norway            :COUNTRY
CONT_REGION     .                        Europe            :Continent Region
SECT            .                                          :Section
TOWN            .                                          :Township
RANG            .                                          :Range
API             .                                          :API NUMBER
UWI             .                                          :UNIQUE WELL ID
LUL             .                Service Office            :Logging Unit Location
LUN             .                          A615            :Logging Unit Number
LOC             .                Norwegian North Sea       :FIELD LOCATION
FL1             .                Section: 8 1/2 in.        :Field Location Line 1
FL2             .                Job no.: 19SCA0085        :Field Location Line 2
LATI            .deg             60° 34' 35.14" N          :LATITUDE
LONG            .deg             3° 26' 36.13" E           :LONGITUDE
PDAT            .                           MSL            :Local Permanent Datum
LMF             .                            DF            :Logging Measured From
APD             .m                        31.00            :Elevation of Depth Reference (LMF) Above Permanent Datum
EPD             .m                         0.00            :Elevation of Permanent Datum (PDAT) above Mean Sea Level
EKB             .m                      -999.25            :Elevation of Kelly Bushing Above Permanent Datum
EDF             .m                        31.00            :Elevation of Drill Floor Above Permanent Datum
EGL             .m                      -307.00            :Elevation of Ground Level Above Permanent Datum
ECF             .m                      -999.25            :Elevation of Casing Flange above Permanent Datum
#--------------------------------------------------
~CURVE INFORMATION
#MNEM           .UNIT                  API CODE            :DESCRIPTION
#----            ------          --------------            -----------------------------
TIME_1900       .d                                         :                                                        Time Index(OLE Automation date)
TIME            .s                                         :                                (10s)                   Time(hh mm ss/dd-MMM-yyyy)
DEPTH           .m                                         :(RT)    (DnMWorkflow)                                   Depth Index
BLKP            .m                                         :(RT)    (DRILLING_SURFACE)                              Height of block above rig floor
GR              .gAPI                                      :(RT)    (ARC6)                                          Gamma Ray
CRPM            .c/min                                     :(RT)    (TELE675)                                       Collar Rotational Speed
STICK           .c/min                                     :(RT)    (TELE675)                                       Stick Slip Indicator
SHKRSK          .                                          :(RT)    (TELE675)                                       Shock Risk
SHKPK           .gn                                        :(RT)    (TELE675)                                       Shock Peak
DHAT            .degC                                      :(RM)    (ARC6)                                          Downhole Annulus Temperature
DHAP            .bar                                       :(RM)    (ARC6)                                          Downhole Annulus Pressure
ECD             .g/cm3                                     :(RM)    (ARC6)                                          Equivalent Circulating Density
#-------------------------------------------------------------
#       TIME_1900                 TIME        DEPTH         BLKP           GR         CRPM        STICK       SHKRSK        SHKPK         DHAT         DHAP          ECD 
#                                       (DnMWorkfl)  (DRILLING_)       (ARC6)    (TELE675)    (TELE675)    (TELE675)    (TELE675)       (ARC6)       (ARC6)       (ARC6) 
#                                              (RT)         (RT)         (RT)         (RT)         (RT)         (RT)         (RT)         (RM)         (RM)         (RM) 
#                                (10s)                                                                                                                                   
~ASCII
# ...
 43837.4795138889 11:30:30/07-Jan-2020   2674.28003      5.12000      -999.25      -999.25      -999.25      -999.25      -999.25     41.00000    305.92040      1.17036
 43837.4796296296 11:30:40/07-Jan-2020   2674.28003      5.12000      -999.25      -999.25      -999.25      -999.25      -999.25     41.00000    307.23040      1.17538
 43837.4797453704 11:30:50/07-Jan-2020   2674.28003      4.99000      -999.25      -999.25      -999.25      -999.25      -999.25     41.00000    308.47140      1.18012
 43837.4798611111 11:31:00/07-Jan-2020   2674.28003      4.82000      -999.25      -999.25      -999.25      -999.25      -999.25     41.00000    302.47300      1.15718
 43837.4799768519 11:31:10/07-Jan-2020   2674.28003      4.81000      -999.25      -999.25      -999.25      -999.25      -999.25     41.00000    302.05930      1.15559
 43837.4800925926 11:31:20/07-Jan-2020   2674.28003      4.80000      -999.25      -999.25      -999.25      -999.25      -999.25     41.00000    303.98980      1.16298
 43837.4802083333 11:31:30/07-Jan-2020   2674.28003      4.77000      -999.25      -999.25      -999.25      -999.25      -999.25     41.00000    301.57670      1.15375
 43837.4803240741 11:31:40/07-Jan-2020   2674.28003      4.71000      -999.25      -999.25      -999.25      -999.25      -999.25     41.00000    306.47200      1.17247
 43837.4804398148 11:31:50/07-Jan-2020   2674.28003      4.69000      -999.25      -999.25      -999.25      -999.25      -999.25     41.00000    310.12620      1.18645
 43837.4805555556 11:32:00/07-Jan-2020   2674.28003      4.67000      -999.25      -999.25      -999.25      -999.25      -999.25     41.00000    305.98930      1.17063
 43837.4806712963 11:32:10/07-Jan-2020   2674.28003      4.65000      -999.25      -999.25      -999.25      -999.25      -999.25     41.00000    299.71510      1.14662
 43837.4807870370 11:32:20/07-Jan-2020   2674.28003      4.65000      -999.25      -999.25      -999.25      -999.25      -999.25     41.00000    303.92090      1.16271
 43837.4809027778 11:32:30/07-Jan-2020   2674.28003      4.65000      -999.25      -999.25      -999.25      -999.25      -999.25     41.00000    307.09250      1.17485
 43837.4810185185 11:32:40/07-Jan-2020   2674.28003      4.93000      -999.25      -999.25      -999.25      -999.25      -999.25     41.00000    307.50620      1.17643
 43837.4811342593 11:32:50/07-Jan-2020   2673.50000      5.15000      -999.25      -999.25      -999.25      -999.25      -999.25     41.00000    305.23090      1.16807
 43837.4812500000 11:33:00/07-Jan-2020   2673.39990      5.25000      -999.25      -999.25      -999.25      -999.25      -999.25     41.00000    308.74720      1.18157
 43837.4813657407 11:33:10/07-Jan-2020   2673.37012      5.28000     54.03203      -999.25      -999.25      -999.25      -999.25     41.00000    315.50410      1.20744
 43837.4814814815 11:33:20/07-Jan-2020   2673.37012      5.28000     54.00772      -999.25      -999.25      -999.25      -999.25     41.00000    311.84990      1.19346
 43837.4815972222 11:33:30/07-Jan-2020   2673.37012      5.28000     53.93479      -999.25      -999.25      -999.25      -999.25     41.00000    312.40140      1.19557
 43837.4817129630 11:33:40/07-Jan-2020   2672.54004      6.05000     53.75041      -999.25      -999.25      -999.25      -999.25     41.00000    318.46880      1.21916
 43837.4818287037 11:33:50/07-Jan-2020   2671.56006      7.09000     53.49113      -999.25      -999.25      -999.25      -999.25     41.00000    314.40090      1.20404
 43837.4819444444 11:34:00/07-Jan-2020   2670.84009      7.81000     53.16442      -999.25      -999.25      -999.25      -999.25     41.00000    312.33250      1.19644
 43837.4820601852 11:34:10/07-Jan-2020   2669.95996      8.69000     52.77967      -999.25      -999.25      -999.25      -999.25     41.00000    318.05520      1.21876
 43837.4821759259 11:34:20/07-Jan-2020   2668.69995      9.95000     52.34795      -999.25      -999.25      -999.25      -999.25     41.00000    316.46940      1.21326
 43837.4822916667 11:34:30/07-Jan-2020   2667.66992     10.98000     51.88169      -999.25      -999.25      -999.25      -999.25     41.00000    314.46990      1.20606
 43837.4824074074 11:34:40/07-Jan-2020   2667.41992     11.20000     51.39429      -999.25      -999.25      -999.25      -999.25     41.00000    313.36670      1.20194
 43837.4825231481 11:34:50/07-Jan-2020   2666.97998     11.66000     50.89978      -999.25      -999.25      -999.25      -999.25     41.00000    315.77990      1.21140
 43837.4826388889 11:35:00/07-Jan-2020   2666.06006     12.56000     50.41238      -999.25      -999.25      -999.25      -999.25     41.00000    316.95200      1.21631
 43837.4827546296 11:35:10/07-Jan-2020   2665.03003     13.57000     49.94612      -999.25      -999.25      -999.25      -999.25     41.00000    314.88360      1.20885
 43837.4828703704 11:35:20/07-Jan-2020   2664.11987     14.48000     49.51440      -999.25      -999.25      -999.25      -999.25     41.00000    313.91830      1.20555
 43837.4829861111 11:35:30/07-Jan-2020   2663.12012     15.53000     49.12965      -999.25      -999.25      -999.25      -999.25     41.00000    313.02200      1.20256
 43837.4831018519 11:35:40/07-Jan-2020   2662.11987     16.53000     48.80294      -999.25      -999.25      -999.25      -999.25     41.00000    311.09140      1.19559
 43837.4832175926 11:35:50/07-Jan-2020   2661.06006     17.59000     48.54366      -999.25      -999.25      0.00000      0.00000     41.00000    314.53880      1.20933
 43837.4833333333 11:36:00/07-Jan-2020   2660.07007     18.58000     48.35928      -999.25      -999.25      -999.25      -999.25     41.00000    313.29780      1.20501
 43837.4834490741 11:36:10/07-Jan-2020   2659.14990     19.50000     49.06922      -999.25      -999.25      -999.25      -999.25     41.00000    310.88460      1.19614
 43837.4835648148 11:36:20/07-Jan-2020   2658.16992     20.48000     51.05241      -999.25      -999.25      -999.25      -999.25     41.00000    312.88410      1.20428
 43837.4836805556 11:36:30/07-Jan-2020   2657.14014     21.51000     53.08826     97.00000      -999.25      -999.25      -999.25     41.00000    309.98830      1.19360
 43837.4837962963 11:36:40/07-Jan-2020   2656.10010     22.55000     53.80518      -999.25     18.00000      -999.25      -999.25     41.00000    313.84940      1.20893
 43837.4839120370 11:36:50/07-Jan-2020   2655.27002     23.38000     53.80518      -999.25      -999.25      0.00000      0.00000     41.00000    310.60880      1.19683
 43837.4840277778 11:37:00/07-Jan-2020   2654.45996     24.19000     53.08826      -999.25      -999.25      -999.25      -999.25     41.00000    313.43570      1.20809
 43837.4841435185 11:37:10/07-Jan-2020   2653.68994     24.96000     53.24593      -999.25      -999.25      -999.25      -999.25     41.00000    309.57460      1.19356
 43837.4842592593 11:37:20/07-Jan-2020   2652.71021     25.94000     54.37971      -999.25      -999.25      -999.25      -999.25     41.00000    310.74670      1.19852
 43837.4843750000 11:37:30/07-Jan-2020   2651.82007     26.83000     56.36458     97.00000      -999.25      -999.25      -999.25     41.00000    312.12570      1.20425
 43837.4844907407 11:37:40/07-Jan-2020   2650.73022     27.92000     59.51712      -999.25     12.00000      0.00000      0.00000     41.00000    306.05830      1.18132
 43837.4846064815 11:37:50/07-Jan-2020   2649.62988     29.02000     62.66965      -999.25      -999.25      -999.25      -999.25     41.00000    313.09090      1.20897
 43837.4847222222 11:38:00/07-Jan-2020   2648.60010     30.05000     65.43127      -999.25      -999.25      -999.25      -999.25     41.00000    313.15990      1.20971
 43837.4848379630 11:38:10/07-Jan-2020   2647.61987     31.03000     72.73340      -999.25      -999.25      -999.25      -999.25     41.00000    310.40200      1.19950
 43837.4849537037 11:38:20/07-Jan-2020   2646.43994     32.21000     84.15669     97.00000      -999.25      -999.25      -999.25     41.00000    308.33360      1.19204
