~VERSION INFORMATION 
VERS  .    2.0                                     :CWLS Log ASCII Standard - VERSION 2.0
WRAP  .    NO                                      :One Line per Time step
PROD  .    Schlumberger Technology Corp.           :LAS Producer
PROG  .    Horizon LASWriter 9.2.113335.3100       :LAS Program name and version
SOURCE.    Run 5-TimeLogicalAcq                    :Run&Pass Information
CREA  .    12/20/2019                              :LAS Creation date {MM/DD/YYYY}
#--------------------------------------------------
~WELL INFORMATION 
#MNEM           .UNIT                      DATA            :DESCRIPTION
#----            ------          --------------            -----------------------------
STRT            .d               43815.4062500000          :START TIME(OLE Automation date)
STOP            .d               43816.7395833333          :STOP TIME(OLE Automation date)
STEP            .d                            0            :STEP TIME(10s in time)
NULL            .                       -999.25            :NULL VALUE
COMP            .                       Equinor            :COMPANY
WELL            .                        31/5-7            :WELL NAME
FLD             .                           Eos            :FIELD NAME
RIGN            .                 West Hercules            :Rig Name
RIGTYP          .                Semi-Submersible          :Rig Type
SON             .                     19SCA0085            :Service Order Number
SRVC            .                  Schlumberger            :SERVICE COMPANY
DATE            .                    12/16/2019            :LOG DATE(Composite Date for Composite LAP) (MM/DD/YYYY)
CLAB            .                       County:            :County Label
CNTY            .                                          :COUNTY
SLAB            .                                          :State/Province Label
STAT            .                                          :STATE or PROVINCE
PROV            .                                          :STATE or PROVINCE
CTRY            .                        Norway            :COUNTRY
CONT_REGION     .                        Europe            :Continent Region
SECT            .                                          :Section
TOWN            .                                          :Township
RANG            .                                          :Range
API             .                                          :API NUMBER
UWI             .                                          :UNIQUE WELL ID
LUL             .                Service Office            :Logging Unit Location
LUN             .                          A615            :Logging Unit Number
LOC             .                Norwegian North Sea       :FIELD LOCATION
FL1             .                Section: 12 1/4 in. pilot :Field Location Line 1
FL2             .                Job no.: 19SCA0085        :Field Location Line 2
LATI            .deg             60° 34' 35.14" N          :LATITUDE
LONG            .deg             3° 26' 36.13" E           :LONGITUDE
PDAT            .                           MSL            :Local Permanent Datum
LMF             .                            DF            :Logging Measured From
APD             .m                        31.00            :Elevation of Depth Reference (LMF) Above Permanent Datum
EPD             .m                         0.00            :Elevation of Permanent Datum (PDAT) above Mean Sea Level
EKB             .m                      -999.25            :Elevation of Kelly Bushing Above Permanent Datum
EDF             .m                        31.00            :Elevation of Drill Floor Above Permanent Datum
EGL             .m                      -307.00            :Elevation of Ground Level Above Permanent Datum
ECF             .m                      -999.25            :Elevation of Casing Flange above Permanent Datum
#--------------------------------------------------
~CURVE INFORMATION
#MNEM           .UNIT                  API CODE            :DESCRIPTION
#----            ------          --------------            -----------------------------
TIME_1900       .d                                         :                                                        Time Index(OLE Automation date)
TIME            .s                                         :                                (10s)                   Time(hh mm ss/dd-MMM-yyyy)
DEPTH           .m                                         :(RT)    (DnMWorkflow)                                   Depth Index
GR              .gAPI                                      :(RT)    (ARC9)                                          Gamma Ray
BLKP            .m                                         :(RT)    (DRILLING_SURFACE)                              Height of block above rig floor
STICK           .c/min                                     :(RT)    (TELE900)                                       Stick Slip Indicator
CRPM            .c/min                                     :(RT)    (TELE900)                                       Collar Rotational Speed
SHKRSK          .                                          :(RT)    (TELE900)                                       Shock Risk
SHKPK           .gn                                        :(RT)    (TELE900)                                       Shock Peak
ECD             .g/cm3                                     :(RM)    (ARC9)                                          Equivalent Circulating Density
DHAP            .bar                                       :(RM)    (ARC9)                                          Downhole Annulus Pressure
DHAT            .degC                                      :(RM)    (ARC9)                                          Downhole Annulus Temperature
#-------------------------------------------------------------
#       TIME_1900                 TIME        DEPTH           GR         BLKP        STICK         CRPM       SHKRSK        SHKPK          ECD         DHAP         DHAT 
#                                       (DnMWorkfl)       (ARC9)  (DRILLING_)    (TELE900)    (TELE900)    (TELE900)    (TELE900)       (ARC9)       (ARC9)       (ARC9) 
#                                              (RT)         (RT)         (RT)         (RT)         (RT)         (RT)         (RT)         (RM)         (RM)         (RM) 
#                                (10s)                                                                                                                                   
~ASCII
# ...
 43815.7173611111 17:13:00/16-Dec-2019    1193.1400      92.7679      31.3100      -999.25      -999.25      -999.25      -999.25       1.3250     153.5462      24.0000
 43815.7174768519 17:13:10/16-Dec-2019    1193.4800      90.6739      30.9600      -999.25      -999.25      -999.25      -999.25       1.3253     153.6152      24.0000
 43815.7175925926 17:13:20/16-Dec-2019    1193.3400      91.2179      31.1600      -999.25     154.0000      -999.25      -999.25       1.3207     153.0636      24.0000
 43815.7177083333 17:13:30/16-Dec-2019    1191.9399      91.6312      32.4000      -999.25      -999.25      -999.25      -999.25       1.3215     152.9947      24.0000
 43815.7178240741 17:13:40/16-Dec-2019    1190.7000      90.6334      33.6700      -999.25      -999.25      -999.25      -999.25       1.3208     152.7189      24.0000
 43815.7179398148 17:13:50/16-Dec-2019    1190.0500      90.9677      34.3900      -999.25      -999.25      -999.25      -999.25       1.3256     153.2015      24.0000
 43815.7180555556 17:14:00/16-Dec-2019    1190.1400      92.3437      34.3000     231.0000      -999.25      -999.25      -999.25       1.3249     153.1326      24.0000
 43815.7181712963 17:14:10/16-Dec-2019    1190.1400      90.9409      34.3000      -999.25      -999.25      -999.25      -999.25       1.3189     152.4431      24.0000
 43815.7182870370 17:14:20/16-Dec-2019    1189.8600      84.4895      34.5800      -999.25      -999.25       0.0000       0.0000       1.3209     152.6499      24.0000
 43815.7184027778 17:14:30/16-Dec-2019    1189.9500      81.9897      34.4900      -999.25      -999.25      -999.25      -999.25       1.3209     152.6499      24.0000
 43815.7185185185 17:14:40/16-Dec-2019    1189.7700      87.5939      34.6700      -999.25      -999.25      -999.25      -999.25       1.3170     152.1673      24.0000
 43815.7186342593 17:14:50/16-Dec-2019    1189.8600      88.5917      34.5800      -999.25       0.0000      -999.25      -999.25       1.3194     152.4431      24.0000
 43815.7187500000 17:15:00/16-Dec-2019    1189.9500      88.1784      34.4900      -999.25      -999.25      -999.25      -999.25       1.3198     152.5120      24.0000
 43815.7188657407 17:15:10/16-Dec-2019    1189.8600      86.5576      34.5800      -999.25      -999.25      -999.25      -999.25       1.3170     152.1673      24.0000
 43815.7189814815 17:15:20/16-Dec-2019    1189.8600      -999.25      34.5800      -999.25      -999.25      -999.25      -999.25       1.3174     152.2362      24.0000
 43815.7190972222 17:15:30/16-Dec-2019    1189.6801      85.5701      34.7600       0.0000      -999.25      -999.25      -999.25       1.3171     152.1673      24.0000
 43815.7192129630 17:15:40/16-Dec-2019    1189.9500      84.4107      34.4900      -999.25      -999.25      -999.25      -999.25       1.3156     152.0294      24.0000
 43815.7193287037 17:15:50/16-Dec-2019    1189.8600      83.5089      34.5800      -999.25      -999.25      -999.25      -999.25       1.3157     152.0294      24.0000
 43815.7194444444 17:16:00/16-Dec-2019    1189.9500      82.4670      34.4900      -999.25      -999.25      -999.25      -999.25       1.3168     152.1673      24.0000
 43815.7195601852 17:16:10/16-Dec-2019    1189.9500      81.6691      34.4900      -999.25      -999.25      -999.25      -999.25       1.3162     152.0983      24.0000
 43815.7196759259 17:16:20/16-Dec-2019    1189.7700      81.4617      34.6700      -999.25      -999.25      -999.25      -999.25       1.3146     151.8915      24.0000
 43815.7197916667 17:16:30/16-Dec-2019    1189.7700      82.0510      34.6700      -999.25      -999.25      -999.25      -999.25       1.3134     151.7536      24.0000
 43815.7199074074 17:16:40/16-Dec-2019    1189.8600      83.4383      34.5800      -999.25      -999.25      -999.25      -999.25       1.3126     151.6847      24.0000
 43815.7200231481 17:16:50/16-Dec-2019    1189.9500      85.4080      34.4900      -999.25      -999.25      -999.25      -999.25       1.3150     151.9604      24.0000
 43815.7201388889 17:17:00/16-Dec-2019    1189.9500      87.5753      34.4900      -999.25      -999.25      -999.25      -999.25       1.3150     151.9604      24.0000
 43815.7202546296 17:17:10/16-Dec-2019    1189.8600      89.4792      34.6700      -999.25      -999.25      -999.25      -999.25       1.3140     151.8226      24.0000
 43815.7203703704 17:17:20/16-Dec-2019    1189.7700      90.6981      34.6700      -999.25      -999.25       0.0000       0.0000       1.3133     151.7536      24.0000
 43815.7204861111 17:17:30/16-Dec-2019    1189.7700      91.3027      34.6700      -999.25      -999.25      -999.25      -999.25       1.3128     151.6847      24.0000
 43815.7206018518 17:17:40/16-Dec-2019    1189.9500      90.7930      34.4900      -999.25      -999.25      -999.25      -999.25       1.3156     152.0294      24.0000
 43815.7207175926 17:17:50/16-Dec-2019    1190.5100      90.1620      33.9600      -999.25      -999.25      -999.25      -999.25       1.3195     152.5810      24.0000
 43815.7208333333 17:18:00/16-Dec-2019    1191.6901      90.7930      32.9300      -999.25      -999.25      -999.25      -999.25       1.3192     152.6499      24.0000
 43815.7209490741 17:18:10/16-Dec-2019    1192.5100      92.4876      31.9300      -999.25      -999.25      -999.25      -999.25       1.3197     152.8568      24.0000
 43815.7210648148 17:18:20/16-Dec-2019    1193.8000      97.1030      30.8700      -999.25      -999.25      -999.25      -999.25       1.3170     152.6499      24.0000
 43815.7211805556 17:18:30/16-Dec-2019    1193.8400     105.6201      30.6000      -999.25      -999.25      -999.25      -999.25       1.3161     152.5810      23.0000
 43815.7212962963 17:18:40/16-Dec-2019    1193.7300     109.7042      30.7100      -999.25      -999.25      -999.25      -999.25       1.3166     152.6499      23.0000
 43815.7214120370 17:18:50/16-Dec-2019    1194.3600     105.5759      30.0800      -999.25      -999.25       0.0000       0.0000       1.3159     152.6499      23.0000
 43815.7215277778 17:19:00/16-Dec-2019    1194.8600     100.6225      29.5800      -999.25      -999.25      -999.25      -999.25       1.3178     152.9257      23.0000
 43815.7216435185 17:19:10/16-Dec-2019    1194.9100      99.6442      29.5300      -999.25      -999.25      -999.25      -999.25       1.3184     152.9947      23.0000
 43815.7217592593 17:19:20/16-Dec-2019    1195.3101      97.7003      29.1300      -999.25     193.0000      -999.25      -999.25       1.3183     153.0636      23.0000
 43815.7218750000 17:19:30/16-Dec-2019    1195.8700      95.4072      28.5700      -999.25      -999.25      -999.25      -999.25       1.3197     153.2705      23.0000
 43815.7219907407 17:19:40/16-Dec-2019    1195.9600      93.3661      28.4800      -999.25      -999.25      -999.25      -999.25       1.3210     153.4083      23.0000
 43815.7221064815 17:19:50/16-Dec-2019    1195.9900      94.0495      28.4500      -999.25      -999.25      -999.25      -999.25       1.3207     153.4083      23.0000
 43815.7222222222 17:20:00/16-Dec-2019    1196.2700     101.7845      28.1700      39.0000      -999.25      -999.25      -999.25       1.3222     153.6152      23.0000
 43815.7223379630 17:20:10/16-Dec-2019    1196.5800     101.7845      27.8600      -999.25      -999.25      -999.25      -999.25       1.3225     153.6841      23.0000
 43815.7224537037 17:20:20/16-Dec-2019    1196.6100      94.0495      27.8300      -999.25      -999.25       0.0000       0.0000       1.3211     153.5462      23.0000
 43815.7225694444 17:20:30/16-Dec-2019    1196.7400      84.7779      27.7000      -999.25      -999.25      -999.25      -999.25       1.3216     153.6152      23.0000
 43815.7226851852 17:20:40/16-Dec-2019    1197.2700      81.6145      27.1700      -999.25      -999.25      -999.25      -999.25       1.3228     153.8220      23.0000
 43815.7228009259 17:20:50/16-Dec-2019    1197.5400      81.2012      26.9000      -999.25     192.0000      -999.25      -999.25       1.3237     153.9599      23.0000
