~VERSION INFORMATION 
VERS  .    2.0                                     :CWLS Log ASCII Standard - VERSION 2.0
WRAP  .    NO                                      :One Line per Time step
PROD  .    Schlumberger Technology Corp.           :LAS Producer
PROG  .    Horizon LASWriter 9.2.113335.3100       :LAS Program name and version
SOURCE.    Run 8-TimeLogicalAcq                    :Run&Pass Information
CREA  .    12/30/2019                              :LAS Creation date {MM/DD/YYYY}
#--------------------------------------------------
~WELL INFORMATION 
#MNEM           .UNIT                      DATA            :DESCRIPTION
#----            ------          --------------            -----------------------------
STRT            .d               43822.4166666667          :START TIME(OLE Automation date)
STOP            .d               43824.6875000000          :STOP TIME(OLE Automation date)
STEP            .d                            0            :STEP TIME(10s in time)
NULL            .                       -999.25            :NULL VALUE
COMP            .                       Equinor            :COMPANY
WELL            .                        31/5-7            :WELL NAME
FLD             .                           Eos            :FIELD NAME
RIGN            .                 West Hercules            :Rig Name
RIGTYP          .                Semi-Submersible          :Rig Type
SON             .                     19SCA0085            :Service Order Number
SRVC            .                  Schlumberger            :SERVICE COMPANY
DATE            .                    12/23/2019            :LOG DATE(Composite Date for Composite LAP) (MM/DD/YYYY)
CLAB            .                       County:            :County Label
CNTY            .                                          :COUNTY
SLAB            .                                          :State/Province Label
STAT            .                                          :STATE or PROVINCE
PROV            .                                          :STATE or PROVINCE
CTRY            .                        Norway            :COUNTRY
CONT_REGION     .                        Europe            :Continent Region
SECT            .                                          :Section
TOWN            .                                          :Township
RANG            .                                          :Range
API             .                                          :API NUMBER
UWI             .                                          :UNIQUE WELL ID
LUL             .                Service Office            :Logging Unit Location
LUN             .                          A615            :Logging Unit Number
LOC             .                Norwegian North Sea       :FIELD LOCATION
FL1             .                Section: 12 1/4 in.       :Field Location Line 1
FL2             .                Job no.: 19SCA0085        :Field Location Line 2
LATI            .deg             60° 34' 35.14" N          :LATITUDE
LONG            .deg             3° 26' 36.13" E           :LONGITUDE
PDAT            .                           MSL            :Local Permanent Datum
LMF             .                            DF            :Logging Measured From
APD             .m                        31.00            :Elevation of Depth Reference (LMF) Above Permanent Datum
EPD             .m                         0.00            :Elevation of Permanent Datum (PDAT) above Mean Sea Level
EKB             .m                      -999.25            :Elevation of Kelly Bushing Above Permanent Datum
EDF             .m                        31.00            :Elevation of Drill Floor Above Permanent Datum
EGL             .m                      -307.00            :Elevation of Ground Level Above Permanent Datum
ECF             .m                      -999.25            :Elevation of Casing Flange above Permanent Datum
#--------------------------------------------------
~CURVE INFORMATION
#MNEM           .UNIT                  API CODE            :DESCRIPTION
#----            ------          --------------            -----------------------------
TIME_1900       .d                                         :                                                        Time Index(OLE Automation date)
TIME            .s                                         :                                (10s)                   Time(hh mm ss/dd-MMM-yyyy)
DEPTH           .m                                         :(RT)    (DnMWorkflow)                                   Depth Index
GR              .gAPI                                      :(RT)    (ARC9)                                          Gamma Ray
BLKP            .m                                         :(RT)    (DRILLING_SURFACE)                              Height of block above rig floor
CRPM            .c/min                                     :(RT)    (TELE900)                                       Collar Rotational Speed
STICK           .c/min                                     :(RT)    (TELE900)                                       Stick Slip Indicator
SHKPK           .gn                                        :(RT)    (TELE900)                                       Shock Peak
SHKRSK          .                                          :(RT)    (TELE900)                                       Shock Risk
DHAP            .bar                                       :(RM)    (ARC9)                                          Downhole Annulus Pressure
DHAT            .degC                                      :(RM)    (ARC9)                                          Downhole Annulus Temperature
ECD             .g/cm3                                     :(RM)    (ARC9)                                          Equivalent Circulating Density
#-------------------------------------------------------------
#       TIME_1900                 TIME        DEPTH           GR         BLKP         CRPM        STICK        SHKPK       SHKRSK         DHAP         DHAT          ECD 
#                                       (DnMWorkfl)       (ARC9)  (DRILLING_)    (TELE900)    (TELE900)    (TELE900)    (TELE900)       (ARC9)       (ARC9)       (ARC9) 
#                                              (RT)         (RT)         (RT)         (RT)         (RT)         (RT)         (RT)         (RM)         (RM)         (RM) 
#                                (10s)                                                                                                                                   
~ASCII
# ...
 43822.7555555556 18:08:00/23-Dec-2019    1888.1000      -999.25      28.6500      -999.25      -999.25      -999.25      -999.25     235.5938      27.0000       1.2801
 43822.7556712963 18:08:10/23-Dec-2019    1888.0099      -999.25      28.7400      -999.25      -999.25      -999.25      -999.25     235.5938      27.0000       1.2802
 43822.7557870370 18:08:20/23-Dec-2019    1888.1901      -999.25      28.5600      -999.25      -999.25      -999.25      -999.25     228.6991      27.0000       1.2426
 43822.7559027778 18:08:30/23-Dec-2019    1888.1901      -999.25      28.5600      -999.25      -999.25      -999.25      -999.25     232.9049      27.0000       1.2655
 43822.7560185185 18:08:40/23-Dec-2019    1888.1901      -999.25      28.5600      -999.25      -999.25      -999.25      -999.25     231.8707      27.0000       1.2598
 43822.7561342593 18:08:50/23-Dec-2019    1888.1901      -999.25      28.5600      -999.25      -999.25      -999.25      -999.25     232.6291      27.0000       1.2640
 43822.7562500000 18:09:00/23-Dec-2019    1888.1901      -999.25      28.5600      -999.25      -999.25      -999.25      -999.25     232.3533      28.0000       1.2625
 43822.7563657407 18:09:10/23-Dec-2019    1888.3700      -999.25      28.3800      -999.25      -999.25      -999.25      -999.25     232.2844      27.0000       1.2620
 43822.7564814815 18:09:20/23-Dec-2019    1888.1901      -999.25      28.5600      -999.25      -999.25      -999.25      -999.25     233.1807      27.0000       1.2670
 43822.7565972222 18:09:30/23-Dec-2019    1888.2800      -999.25      28.4700      -999.25      -999.25      -999.25      -999.25     232.4223      27.0000       1.2628
 43822.7567129630 18:09:40/23-Dec-2019    1888.2800      -999.25      28.4700      -999.25      -999.25      -999.25      -999.25     232.6291      27.0000       1.2639
 43822.7568287037 18:09:50/23-Dec-2019    1888.2800      -999.25      28.4700      -999.25      -999.25      -999.25      -999.25     232.0086      27.0000       1.2605
 43822.7569444444 18:10:00/23-Dec-2019    1888.3700      -999.25      28.3800      -999.25      -999.25      -999.25      -999.25     231.9396      27.0000       1.2601
 43822.7570601852 18:10:10/23-Dec-2019    1888.2800      -999.25      28.4700      -999.25      -999.25      -999.25      -999.25     232.7670      27.0000       1.2646
 43822.7571759259 18:10:20/23-Dec-2019    1888.2800      -999.25      28.4700      -999.25      -999.25      -999.25      -999.25     232.8360      27.0000       1.2650
 43822.7572916667 18:10:30/23-Dec-2019    1888.2800      -999.25      28.4700      -999.25      -999.25      -999.25      -999.25     232.8360      27.0000       1.2650
 43822.7574074074 18:10:40/23-Dec-2019    1888.2800      -999.25      28.4700      -999.25      -999.25      -999.25      -999.25     232.0775      27.0000       1.2609
 43822.7575231481 18:10:50/23-Dec-2019    1888.2800      -999.25      28.4700      -999.25      -999.25      -999.25      -999.25     232.6291      27.0000       1.2639
 43822.7576388889 18:11:00/23-Dec-2019    1888.2800      -999.25      28.4700      -999.25      -999.25      -999.25      -999.25     232.3533      27.0000       1.2624
 43822.7577546296 18:11:10/23-Dec-2019    1888.2800      -999.25      28.4700      -999.25      -999.25      -999.25      -999.25     232.6981      27.0000       1.2643
 43822.7578703704 18:11:20/23-Dec-2019    1888.2800      -999.25      28.4700      -999.25      -999.25      -999.25      -999.25     231.8017      27.0000       1.2594
 43822.7579861111 18:11:30/23-Dec-2019    1888.2800      -999.25      28.4700      -999.25      -999.25      -999.25      -999.25     231.9396      27.0000       1.2601
 43822.7581018518 18:11:40/23-Dec-2019    1888.2800      -999.25      28.4700      -999.25      -999.25      -999.25      -999.25     232.6981      27.0000       1.2643
 43822.7582175926 18:11:50/23-Dec-2019    1888.3700      -999.25      28.3800      -999.25      -999.25      -999.25      -999.25     232.7670      27.0000       1.2646
 43822.7583333333 18:12:00/23-Dec-2019    1888.1901      -999.25      28.5600      -999.25      -999.25      -999.25      -999.25     232.9049      27.0000       1.2655
 43822.7584490741 18:12:10/23-Dec-2019    1888.3700      -999.25      28.3800      -999.25      -999.25      -999.25      -999.25     232.9049      27.0000       1.2653
 43822.7585648148 18:12:20/23-Dec-2019    1888.1901      -999.25      28.5600      -999.25      -999.25      -999.25      -999.25     232.9738      27.0000       1.2658
 43822.7586805556 18:12:30/23-Dec-2019    1888.3700      -999.25      28.3800      -999.25      -999.25      -999.25      -999.25     233.0428      27.0000       1.2661
 43822.7587962963 18:12:40/23-Dec-2019    1888.1901      -999.25      28.5600      -999.25      -999.25      -999.25      -999.25     233.1117      27.0000       1.2666
 43822.7589120370 18:12:50/23-Dec-2019    1888.1901      -999.25      28.5600      -999.25      -999.25      -999.25      -999.25     233.1117      27.0000       1.2666
 43822.7590277778 18:13:00/23-Dec-2019    1888.4600      -999.25      28.2900      -999.25      -999.25      -999.25      -999.25     233.1117      27.0000       1.2664
 43822.7591435185 18:13:10/23-Dec-2019    1888.2800      -999.25      28.4700      -999.25      -999.25      -999.25      -999.25     233.2496      27.0000       1.2673
 43822.7592592593 18:13:20/23-Dec-2019    1888.2800      -999.25      28.4700      -999.25      -999.25      -999.25      -999.25     233.1807      27.0000       1.2669
 43822.7593750000 18:13:30/23-Dec-2019    1888.3700      -999.25      28.4700      -999.25      -999.25      -999.25      -999.25     233.2496      27.0000       1.2672
 43822.7594907407 18:13:40/23-Dec-2019    1888.1901      -999.25      28.5600      -999.25      -999.25      -999.25      -999.25     233.2496      27.0000       1.2673
 43822.7596064815 18:13:50/23-Dec-2019    1888.3700      -999.25      28.3800      -999.25      -999.25      -999.25      -999.25     233.1807      27.0000       1.2668
 43822.7597222222 18:14:00/23-Dec-2019    1888.1400      -999.25      28.5900      -999.25      -999.25      -999.25      -999.25     233.3186      27.0000       1.2677
 43822.7598379630 18:14:10/23-Dec-2019    1888.2000      -999.25      28.5200      -999.25      -999.25      -999.25      -999.25     233.3186      27.0000       1.2677
 43822.7599537037 18:14:20/23-Dec-2019    1887.6300      -999.25      29.1100      -999.25      -999.25      -999.25      -999.25     231.4570      27.0000       1.2580
 43822.7600694444 18:14:30/23-Dec-2019    1887.1000      -999.25      29.6200      -999.25      -999.25      -999.25      -999.25     230.3538      27.0000       1.2523
 43822.7601851852 18:14:40/23-Dec-2019    1886.5800      -999.25      30.1600      -999.25      -999.25      -999.25      -999.25     229.9402      27.0000       1.2504
 43822.7603009259 18:14:50/23-Dec-2019    1886.0400      -999.25      30.6600      -999.25      -999.25      -999.25      -999.25     230.6986      27.0000       1.2549
 43822.7604166667 18:15:00/23-Dec-2019    1885.5601      -999.25      31.1800      -999.25      -999.25      -999.25      -999.25     230.2849      27.0000       1.2530
 43822.7605324074 18:15:10/23-Dec-2019    1885.1100      -999.25      31.6200      -999.25      -999.25      -999.25      -999.25     230.8365      27.0000       1.2563
 43822.7606481481 18:15:20/23-Dec-2019    1884.7000      -999.25      32.0300      -999.25      -999.25      -999.25      -999.25     230.0091      27.0000       1.2520
 43822.7607638889 18:15:30/23-Dec-2019    1884.3201      -999.25      32.4000      -999.25      -999.25      -999.25      -999.25     231.0433      27.0000       1.2579
 43822.7608796296 18:15:40/23-Dec-2019    1884.1300      -999.25      32.6200      -999.25      -999.25      -999.25      -999.25     230.9054      27.0000       1.2573
 43822.7609953704 18:15:50/23-Dec-2019    1884.2600      -999.25      32.4900      -999.25      -999.25      -999.25      -999.25     231.4570      27.0000       1.2602
