~VERSION INFORMATION 
VERS  .    2.0                                     :CWLS Log ASCII Standard - VERSION 2.0
WRAP  .    NO                                      :One Line per Time step
PROD  .    Schlumberger Technology Corp.           :LAS Producer
PROG  .    Horizon LASWriter 9.0.106845.3100       :LAS Program name and version
SOURCE.    Run 1-TimeLogicalAcq                    :Run&Pass Information
CREA  .    12/03/2019                              :LAS Creation date {MM/DD/YYYY}
#--------------------------------------------------
~WELL INFORMATION 
#MNEM           .UNIT                      DATA            :DESCRIPTION
#----            ------          --------------            -----------------------------
STRT            .d               43801.7395833334          :START TIME(OLE Automation date)
STOP            .d               43802.2048611111          :STOP TIME(OLE Automation date)
STEP            .d                            0            :STEP TIME(10s in time)
NULL            .                       -999.25            :NULL VALUE
COMP            .                       Equinor            :COMPANY
WELL            .                        31/5-7            :WELL NAME
FLD             .                           Eos            :FIELD NAME
RIGN            .                 West Hercules            :Rig Name
RIGTYP          .                Semi-Submersible          :Rig Type
SON             .                     19SCA0085            :Service Order Number
SRVC            .                  Schlumberger            :SERVICE COMPANY
DATE            .                    12/02/2019            :LOG DATE(Composite Date for Composite LAP) (MM/DD/YYYY)
CLAB            .                       County:            :County Label
CNTY            .                                          :COUNTY
SLAB            .                                          :State/Province Label
STAT            .                                          :STATE or PROVINCE
PROV            .                                          :STATE or PROVINCE
CTRY            .                        Norway            :COUNTRY
CONT_REGION     .                        Europe            :Continent Region
SECT            .                                          :Section
TOWN            .                                          :Township
RANG            .                                          :Range
API             .                                          :API NUMBER
UWI             .                                          :UNIQUE WELL ID
LUL             .                Service Office            :Logging Unit Location
LUN             .                          A615            :Logging Unit Number
LOC             .                Norwegian North Sea       :FIELD LOCATION
FL1             .                Section: 36 in.           :Field Location Line 1
FL2             .                Job no.: 19SCA0085        :Field Location Line 2
LATI            .deg             60° 34' 35.14" N          :LATITUDE
LONG            .deg             3° 26' 36.13" E           :LONGITUDE
PDAT            .                           MSL            :Local Permanent Datum
LMF             .                            DF            :Logging Measured From
APD             .m                        31.00            :Elevation of Depth Reference (LMF) Above Permanent Datum
EPD             .m                         0.00            :Elevation of Permanent Datum (PDAT) above Mean Sea Level
EKB             .m                      -999.25            :Elevation of Kelly Bushing Above Permanent Datum
EDF             .m                        31.00            :Elevation of Drill Floor Above Permanent Datum
EGL             .m                      -307.00            :Elevation of Ground Level Above Permanent Datum
ECF             .m                      -999.25            :Elevation of Casing Flange above Permanent Datum
#--------------------------------------------------
~CURVE INFORMATION
#MNEM           .UNIT                  API CODE            :DESCRIPTION
#----            ------          --------------            -----------------------------
TIME_1900       .d                                         :                                                        Time Index(OLE Automation date)
TIME            .s                                         :                                (10s)                   Time(hh mm ss/dd-MMM-yyyy)
DEPTH           .m                                         :(RT)    (DnMWorkflow)                                   Depth Index
GR              .gAPI                                      :(RT)    (TELE900)                                       Gamma Ray
BLKP            .m                                         :(RT)    (DRILLING_SURFACE)                              Height of block above rig floor
CRPM            .c/min                                     :(RT)    (TELE900)                                       Collar Rotational Speed
STICK           .c/min                                     :(RT)    (TELE900)                                       Stick Slip Indicator
SHKPK           .gn                                        :(RT)    (TELE900)                                       Shock Peak
SHKRSK          .                                          :(RT)    (TELE900)                                       Shock Risk
TEMP_DNI        .degC                                      :(RM)    (TELE900)                                       Direction and Inclination Sensor Temperature
#-------------------------------------------------------------
#       TIME_1900                 TIME        DEPTH           GR         BLKP         CRPM        STICK        SHKPK       SHKRSK     TEMP_DNI 
#                                       (DnMWorkfl)    (TELE900)  (DRILLING_)    (TELE900)    (TELE900)    (TELE900)    (TELE900)    (TELE900) 
#                                              (RT)         (RT)         (RT)         (RT)         (RT)         (RT)         (RT)         (RM) 
#                                (10s)                                                                                                         
~ASCII
# ...
 43802.0636574074 01:31:40/03-Dec-2019     401.7500      39.8510      39.1200      -999.25      -999.25      -999.25      -999.25      -999.25
 43802.0637731481 01:31:50/03-Dec-2019     401.8200      24.5374      39.0500      -999.25      -999.25      -999.25      -999.25      -999.25
 43802.0638888889 01:32:00/03-Dec-2019     401.9100       9.2238      39.0500      68.0000      66.0000       0.0000       0.0000      14.9023
 43802.0640046296 01:32:10/03-Dec-2019     402.0500      15.2548      38.8200      -999.25      -999.25      -999.25      -999.25      -999.25
 43802.0641203704 01:32:20/03-Dec-2019     401.8700      29.0077      38.9900      -999.25      -999.25      -999.25      -999.25      -999.25
 43802.0642361111 01:32:30/03-Dec-2019     401.9800      24.8650      38.8900      -999.25      -999.25      -999.25      -999.25      -999.25
 43802.0643518518 01:32:40/03-Dec-2019     402.0000      24.8650      38.8700      69.0000      -999.25       0.0000       0.0000      -999.25
 43802.0644675926 01:32:50/03-Dec-2019     401.9400      29.4833      38.9300      -999.25      51.0000      -999.25      -999.25      -999.25
 43802.0645833333 01:33:00/03-Dec-2019     401.8800      29.9517      38.9900      -999.25      -999.25      -999.25      -999.25      -999.25
 43802.0646990741 01:33:10/03-Dec-2019     402.2800      34.5700      38.5900      -999.25      -999.25      -999.25      -999.25      -999.25
 43802.0648148148 01:33:20/03-Dec-2019     402.2800      36.4136      38.5900      69.0000      -999.25      -999.25      -999.25      -999.25
 43802.0649305556 01:33:30/03-Dec-2019     402.0400      30.4273      38.8300      -999.25      42.0000       0.0000       0.0000      -999.25
 43802.0650462963 01:33:40/03-Dec-2019     401.9900      29.4833      38.8800      -999.25      -999.25      -999.25      -999.25      -999.25
 43802.0651620370 01:33:50/03-Dec-2019     402.0400      29.0077      38.8300      -999.25      -999.25      -999.25      -999.25      -999.25
 43802.0652777778 01:34:00/03-Dec-2019     401.9000      23.0214      38.8800      -999.25      -999.25      -999.25      -999.25      14.9023
 43802.0653935185 01:34:10/03-Dec-2019     402.0100      24.8650      38.9600      67.0000      -999.25       0.0000       0.0000      -999.25
 43802.0655092593 01:34:20/03-Dec-2019     402.2000      32.3299      38.7700      -999.25      69.0000      -999.25      -999.25      -999.25
 43802.0656250000 01:34:30/03-Dec-2019     402.3800      30.9220      38.4900      -999.25      -999.25      -999.25      -999.25      -999.25
 43802.0657407407 01:34:40/03-Dec-2019     402.2900      38.3869      38.5800      -999.25      -999.25      -999.25      -999.25      -999.25
 43802.0658564815 01:34:50/03-Dec-2019     401.9400      38.3869      38.9200      70.0000      -999.25       0.0000       0.0000      -999.25
 43802.0659722222 01:35:00/03-Dec-2019     402.2500      34.2442      38.7100      -999.25      51.0000      -999.25      -999.25      -999.25
 43802.0660879630 01:35:10/03-Dec-2019     402.3700      27.1051      38.5000      -999.25      -999.25      -999.25      -999.25      -999.25
 43802.0662037037 01:35:20/03-Dec-2019     402.4000      30.4273      38.4700      -999.25      -999.25      -999.25      -999.25      -999.25
 43802.0663194444 01:35:30/03-Dec-2019     402.5300      36.4136      38.3400      -999.25      -999.25      -999.25      -999.25      -999.25
 43802.0664351852 01:35:40/03-Dec-2019     402.1800      30.4273      38.6900      71.0000      -999.25       0.0000       0.0000      -999.25
 43802.0665509259 01:35:50/03-Dec-2019     402.3000      38.0039      38.5700      -999.25      87.0000      -999.25      -999.25      -999.25
 43802.0666666667 01:36:00/03-Dec-2019     402.2400      54.6825      38.6200      -999.25      -999.25      -999.25      -999.25      14.9023
 43802.0667824074 01:36:10/03-Dec-2019     402.0800      47.8673      38.7900      -999.25      -999.25      -999.25      -999.25      -999.25
 43802.0668981481 01:36:20/03-Dec-2019     402.2800      30.8705      38.7700      68.0000      -999.25       0.0000       0.0000      -999.25
 43802.0670138889 01:36:30/03-Dec-2019     402.6800      23.8057      38.1900      -999.25      69.0000      -999.25      -999.25      -999.25
 43802.0671296296 01:36:40/03-Dec-2019     402.4100      25.9426      38.4600      -999.25      -999.25      -999.25      -999.25      -999.25
 43802.0672453704 01:36:50/03-Dec-2019     402.2200      34.5700      38.7400      -999.25      -999.25      -999.25      -999.25      -999.25
 43802.0673611111 01:37:00/03-Dec-2019     402.8800      36.4136      37.9900      70.0000      -999.25      -999.25      -999.25      -999.25
 43802.0674768519 01:37:10/03-Dec-2019     402.8000      30.4273      38.0700      -999.25      36.0000       0.0000       0.0000      -999.25
 43802.0675925926 01:37:20/03-Dec-2019     402.1400      29.9517      38.7300      -999.25      -999.25      -999.25      -999.25      -999.25
 43802.0677083333 01:37:30/03-Dec-2019     402.2500      29.0077      38.6200      -999.25      -999.25      -999.25      -999.25      -999.25
 43802.0678240741 01:37:40/03-Dec-2019     402.6500      23.0214      38.2200      -999.25      -999.25      -999.25      -999.25      -999.25
 43802.0679398148 01:37:50/03-Dec-2019     402.6700      24.8650      38.2000      69.0000      -999.25       0.0000       0.0000      -999.25
 43802.0680555556 01:38:00/03-Dec-2019     402.6000      32.3299      38.2700      -999.25      48.0000      -999.25      -999.25      14.9023
 43802.0681712963 01:38:10/03-Dec-2019     402.5300      35.9287      38.3400      -999.25      -999.25      -999.25      -999.25      -999.25
 43802.0682870370 01:38:20/03-Dec-2019     402.7500      28.4639      38.1200      -999.25      -999.25      -999.25      -999.25      -999.25
 43802.0684027778 01:38:30/03-Dec-2019     402.6900      28.4639      38.1800      67.0000      -999.25       0.0000       0.0000      -999.25
 43802.0685185185 01:38:40/03-Dec-2019     402.5400      32.6065      38.3300      -999.25      48.0000      -999.25      -999.25      -999.25
 43802.0686342593 01:38:50/03-Dec-2019     402.4500      16.2627      38.4200      -999.25      -999.25      -999.25      -999.25      -999.25
 43802.0687500000 01:39:00/03-Dec-2019     402.6500       9.2238      38.2200      -999.25      -999.25      -999.25      -999.25      -999.25
 43802.0688657407 01:39:10/03-Dec-2019     402.6700      24.5374      38.2000      -999.25      -999.25      -999.25      -999.25      -999.25
 43802.0689814815 01:39:20/03-Dec-2019     402.7700      39.8510      38.1000      70.0000      -999.25       0.0000       0.0000      -999.25
 43802.0690972222 01:39:30/03-Dec-2019     402.8900      36.9538      37.9800      -999.25      45.0000      -999.25      -999.25      -999.25
 43802.0692129630 01:39:40/03-Dec-2019     402.6200      30.4273      38.2500      -999.25      -999.25      -999.25      -999.25      -999.25
 43802.0693287037 01:39:50/03-Dec-2019     402.8400      34.5700      38.0300      -999.25      -999.25      -999.25      -999.25      -999.25
 43802.0694444444 01:40:00/03-Dec-2019     402.9600      34.5700      37.9100      69.0000      -999.25       0.0000       0.0000      14.9023
 43802.0695601852 01:40:10/03-Dec-2019     403.0000      24.8577      37.8700      -999.25      39.0000      -999.25      -999.25      -999.25
 43802.0696759259 01:40:20/03-Dec-2019     402.8500      21.4314      38.0200      -999.25      -999.25      -999.25      -999.25      -999.25
 43802.0697916667 01:40:30/03-Dec-2019     402.7200      24.4278      38.1500      -999.25      -999.25      -999.25      -999.25      -999.25
 43802.0699074074 01:40:40/03-Dec-2019     402.9500      26.2715      37.9200      68.0000      -999.25      -999.25      -999.25      -999.25
 43802.0700231481 01:40:50/03-Dec-2019     402.9100      20.2852      37.9600      -999.25      36.0000       0.0000       0.0000      -999.25
