~VERSION INFORMATION 
VERS  .    2.0                                     :CWLS Log ASCII Standard - VERSION 2.0
WRAP  .    NO                                      :One Line per Time step
PROD  .    Schlumberger Technology Corp.           :LAS Producer
PROG  .    Horizon LASWriter 9.0.106845.3100       :LAS Program name and version
SOURCE.    Run 1-TimeLogicalAcq                    :Run&Pass Information
CREA  .    12/03/2019                              :LAS Creation date {MM/DD/YYYY}
#--------------------------------------------------
~WELL INFORMATION 
#MNEM           .UNIT                      DATA            :DESCRIPTION
#----            ------          --------------            -----------------------------
STRT            .d               43801.7395833334          :START TIME(OLE Automation date)
STOP            .d               43802.2048611111          :STOP TIME(OLE Automation date)
STEP            .d                            0            :STEP TIME(10s in time)
NULL            .                       -999.25            :NULL VALUE
COMP            .                       Equinor            :COMPANY
WELL            .                        31/5-7            :WELL NAME
FLD             .                           Eos            :FIELD NAME
RIGN            .                 West Hercules            :Rig Name
RIGTYP          .                Semi-Submersible          :Rig Type
SON             .                     19SCA0085            :Service Order Number
SRVC            .                  Schlumberger            :SERVICE COMPANY
DATE            .                    12/02/2019            :LOG DATE(Composite Date for Composite LAP) (MM/DD/YYYY)
CLAB            .                       County:            :County Label
CNTY            .                                          :COUNTY
SLAB            .                                          :State/Province Label
STAT            .                                          :STATE or PROVINCE
PROV            .                                          :STATE or PROVINCE
CTRY            .                        Norway            :COUNTRY
CONT_REGION     .                        Europe            :Continent Region
SECT            .                                          :Section
TOWN            .                                          :Township
RANG            .                                          :Range
API             .                                          :API NUMBER
UWI             .                                          :UNIQUE WELL ID
LUL             .                Service Office            :Logging Unit Location
LUN             .                          A615            :Logging Unit Number
LOC             .                Norwegian North Sea       :FIELD LOCATION
FL1             .                Section: 36 in.           :Field Location Line 1
FL2             .                Job no.: 19SCA0085        :Field Location Line 2
LATI            .deg             60° 34' 35.14" N          :LATITUDE
LONG            .deg             3° 26' 36.13" E           :LONGITUDE
PDAT            .                           MSL            :Local Permanent Datum
LMF             .                            DF            :Logging Measured From
APD             .m                        31.00            :Elevation of Depth Reference (LMF) Above Permanent Datum
EPD             .m                         0.00            :Elevation of Permanent Datum (PDAT) above Mean Sea Level
EKB             .m                      -999.25            :Elevation of Kelly Bushing Above Permanent Datum
EDF             .m                        31.00            :Elevation of Drill Floor Above Permanent Datum
EGL             .m                      -307.00            :Elevation of Ground Level Above Permanent Datum
ECF             .m                      -999.25            :Elevation of Casing Flange above Permanent Datum
#--------------------------------------------------
~CURVE INFORMATION
#MNEM           .UNIT                  API CODE            :DESCRIPTION
#----            ------          --------------            -----------------------------
TIME_1900       .d                                         :                                                        Time Index(OLE Automation date)
TIME            .s                                         :                                (10s)                   Time(hh mm ss/dd-MMM-yyyy)
DEPTH           .m                                         :(RT)    (DnMWorkflow)                                   Depth Index
GR              .gAPI                                      :(RT)    (TELE900)                                       Gamma Ray
BLKP            .m                                         :(RT)    (DRILLING_SURFACE)                              Height of block above rig floor
CRPM            .c/min                                     :(RT)    (TELE900)                                       Collar Rotational Speed
STICK           .c/min                                     :(RT)    (TELE900)                                       Stick Slip Indicator
SHKPK           .gn                                        :(RT)    (TELE900)                                       Shock Peak
SHKRSK          .                                          :(RT)    (TELE900)                                       Shock Risk
TEMP_DNI        .degC                                      :(RM)    (TELE900)                                       Direction and Inclination Sensor Temperature
#-------------------------------------------------------------
#       TIME_1900                 TIME        DEPTH           GR         BLKP         CRPM        STICK        SHKPK       SHKRSK     TEMP_DNI 
#                                       (DnMWorkfl)    (TELE900)  (DRILLING_)    (TELE900)    (TELE900)    (TELE900)    (TELE900)    (TELE900) 
#                                              (RT)         (RT)         (RT)         (RT)         (RT)         (RT)         (RT)         (RM) 
#                                (10s)                                                                                                         
~ASCII
# ...
 43801.9081018518 21:47:40/02-Dec-2019     357.7400      74.8108       5.6300      22.0000      -999.25       0.0000       0.0000      -999.25
 43801.9082175926 21:47:50/02-Dec-2019     357.7800      74.0970       5.5900      -999.25      84.0000      -999.25      -999.25      -999.25
 43801.9083333333 21:48:00/02-Dec-2019     357.8200      72.6316       5.5500      -999.25      -999.25      -999.25      -999.25      14.1180
 43801.9084490741 21:48:10/02-Dec-2019     357.6700      76.7743       5.7000      -999.25      -999.25      -999.25      -999.25      -999.25
 43801.9085648148 21:48:20/02-Dec-2019     357.7100      76.7743       5.6600      25.0000      -999.25       0.0000       0.0000      -999.25
 43801.9086805556 21:48:30/02-Dec-2019     357.7500      69.3094       5.6200      -999.25     114.0000      -999.25      -999.25      -999.25
 43801.9087962963 21:48:40/02-Dec-2019     357.7900      72.5712       5.5700      -999.25      -999.25      -999.25      -999.25      -999.25
 43801.9089120370 21:48:50/02-Dec-2019     357.8300      65.1064       5.5400      -999.25      -999.25      -999.25      -999.25      -999.25
 43801.9090277778 21:49:00/02-Dec-2019     357.8700      63.2627       5.4900      31.0000      -999.25      -999.25      -999.25      -999.25
 43801.9091435185 21:49:10/02-Dec-2019     357.9200      69.2490       5.4500      -999.25     168.0000       0.0000       0.0000      -999.25
 43801.9092592593 21:49:20/02-Dec-2019     358.1500      67.9959       5.2200      -999.25      -999.25      -999.25      -999.25      -999.25
 43801.9093750000 21:49:30/02-Dec-2019     358.1900      58.7797       5.1800      -999.25      -999.25      -999.25      -999.25      -999.25
 43801.9094907407 21:49:40/02-Dec-2019     358.2300      52.7934       5.1400      -999.25      -999.25      -999.25      -999.25      -999.25
 43801.9096064815 21:49:50/02-Dec-2019     358.2700      54.6371       5.1000      32.0000      -999.25       0.0000       0.0000      -999.25
 43801.9097222222 21:50:00/02-Dec-2019     358.3100      56.4692       5.0600      -999.25     306.0000      -999.25      -999.25      14.1180
 43801.9098379630 21:50:10/02-Dec-2019     358.3500      51.6930       5.0200      -999.25      -999.25      -999.25      -999.25      -999.25
 43801.9099537037 21:50:20/02-Dec-2019     358.3900      55.8357       4.9800      -999.25      -999.25      -999.25      -999.25      -999.25
 43801.9100694444 21:50:30/02-Dec-2019     358.3400      55.8357       5.0300      33.0000      -999.25       0.0000       0.0000      -999.25
 43801.9101851852 21:50:40/02-Dec-2019     358.3800      48.3709       4.9900      -999.25      57.0000      -999.25      -999.25      -999.25
 43801.9103009259 21:50:50/02-Dec-2019     358.4200      48.3709       4.9500      -999.25      -999.25      -999.25      -999.25      -999.25
 43801.9104166667 21:51:00/02-Dec-2019     358.5600      55.8357       4.8100      -999.25      -999.25      -999.25      -999.25      -999.25
 43801.9105324074 21:51:10/02-Dec-2019     358.5000      57.6793       4.8700      25.0000      -999.25      -999.25      -999.25      -999.25
 43801.9106481481 21:51:20/02-Dec-2019     358.6400      51.6930       4.7300      -999.25      81.0000       0.0000       0.0000      -999.25
 43801.9107638889 21:51:30/02-Dec-2019     358.6800      52.7521       4.6900      -999.25      -999.25      -999.25      -999.25      -999.25
 43801.9108796296 21:51:40/02-Dec-2019     358.7200      56.6005       4.6500      -999.25      -999.25      -999.25      -999.25      -999.25
 43801.9109953704 21:51:50/02-Dec-2019     358.7600      62.5868       4.6100      -999.25      -999.25      -999.25      -999.25      -999.25
 43801.9111111111 21:52:00/02-Dec-2019     358.8000      60.7432       4.5700      30.0000      -999.25       0.0000       0.0000      14.1180
 43801.9112268519 21:52:10/02-Dec-2019     358.8400      57.3143       4.5200      -999.25      81.0000      -999.25      -999.25      -999.25
 43801.9113425926 21:52:20/02-Dec-2019     358.8800      58.0660       4.4900      -999.25      -999.25      -999.25      -999.25      -999.25
 43801.9114583333 21:52:30/02-Dec-2019     358.9200      54.6371       4.4400      -999.25      -999.25      -999.25      -999.25      -999.25
 43801.9115740741 21:52:40/02-Dec-2019     358.9700      54.6371       4.4000      28.0000      -999.25       0.0000       0.0000      -999.25
 43801.9116898148 21:52:50/02-Dec-2019     359.0100      58.7797       4.3600      -999.25      45.0000      -999.25      -999.25      -999.25
 43801.9118055556 21:53:00/02-Dec-2019     359.0500      63.7476       4.3200      -999.25      -999.25      -999.25      -999.25      -999.25
 43801.9119212963 21:53:10/02-Dec-2019     359.0900      67.0698       4.2800      -999.25      -999.25      -999.25      -999.25      -999.25
 43801.9120370370 21:53:20/02-Dec-2019     359.1300      73.0561       4.2400      -999.25      -999.25      -999.25      -999.25      -999.25
 43801.9121527778 21:53:30/02-Dec-2019     359.1700      67.0698       4.2000      29.0000      -999.25       0.0000       0.0000      -999.25
 43801.9122685185 21:53:40/02-Dec-2019     359.0200      62.6771       4.3500      -999.25      39.0000      -999.25      -999.25      -999.25
 43801.9123842593 21:53:50/02-Dec-2019     359.0600      53.8723       4.3100      -999.25      -999.25      -999.25      -999.25      -999.25
 43801.9125000000 21:54:00/02-Dec-2019     359.1000      49.7296       4.2600      -999.25      -999.25      -999.25      -999.25      14.1180
 43801.9126157407 21:54:10/02-Dec-2019     359.1400      49.7296       4.2300      31.0000      -999.25       0.0000       0.0000      -999.25
 43801.9127314815 21:54:20/02-Dec-2019     359.1700      59.4063       4.2000      -999.25      33.0000      -999.25      -999.25      -999.25
 43801.9128472222 21:54:30/02-Dec-2019     359.1700      62.7948       4.2000      -999.25      -999.25      -999.25      -999.25      -999.25
 43801.9129629630 21:54:40/02-Dec-2019     359.1700      59.7627       4.2000      -999.25      -999.25      -999.25      -999.25      -999.25
 43801.9130787037 21:54:50/02-Dec-2019     359.1700      57.9190       4.2000      33.0000      -999.25      -999.25      -999.25      -999.25
 43801.9131944444 21:55:00/02-Dec-2019     359.3600      63.9053       4.0100      -999.25      90.0000       0.0000       0.0000      -999.25
 43801.9133101852 21:55:10/02-Dec-2019     359.5100      52.3613       3.8600      -999.25      -999.25      -999.25      -999.25      -999.25
 43801.9134259259 21:55:20/02-Dec-2019     359.3600      47.0037       4.0100      -999.25      -999.25      -999.25      -999.25      -999.25
 43801.9135416667 21:55:30/02-Dec-2019     359.0700      52.9900       4.3000      -999.25      -999.25      -999.25      -999.25      -999.25
 43801.9136574074 21:55:40/02-Dec-2019     359.1000      51.1463       4.2700      25.0000      -999.25       0.0000       0.0000      -999.25
 43801.9137731481 21:55:50/02-Dec-2019     358.9000      47.9713       4.4700      -999.25     381.0000      -999.25      -999.25      -999.25
 43801.9138888889 21:56:00/02-Dec-2019     358.8900      51.2087       4.4800      -999.25      -999.25      -999.25      -999.25      14.1180
 43801.9140046296 21:56:10/02-Dec-2019     359.8600      60.7432       3.5100      -999.25      -999.25      -999.25      -999.25      -999.25
 43801.9141203704 21:56:20/02-Dec-2019     359.6200      60.7432       3.7500      29.0000      -999.25       0.0000       0.0000      -999.25
 43801.9142361111 21:56:30/02-Dec-2019     359.6200      56.6005       3.7500      -999.25      63.0000      -999.25      -999.25      -999.25
 43801.9143518518 21:56:40/02-Dec-2019     360.1600      29.7141       3.2100      -999.25      -999.25      -999.25      -999.25      -999.25
 43801.9144675926 21:56:50/02-Dec-2019     360.1600      28.4212       3.2100      -999.25      -999.25      -999.25      -999.25      -999.25
