~VERSION INFORMATION 
VERS  .    2.0                                     :CWLS Log ASCII Standard - VERSION 2.0
WRAP  .    NO                                      :One Line per Time step
PROD  .    Schlumberger Technology Corp.           :LAS Producer
PROG  .    Horizon LASWriter 9.2.113335.3100       :LAS Program name and version
SOURCE.    Run 13-TimeLogicalAcq                   :Run&Pass Information
CREA  .    01/21/2020                              :LAS Creation date {MM/DD/YYYY}
#--------------------------------------------------
~WELL INFORMATION 
#MNEM           .UNIT                      DATA            :DESCRIPTION
#----            ------          --------------            -----------------------------
STRT            .d               43844.3958333334          :START TIME(OLE Automation date)
STOP            .d               43845.1666666667          :STOP TIME(OLE Automation date)
STEP            .d                            0            :STEP TIME(10s in time)
NULL            .                       -999.25            :NULL VALUE
COMP            .                       Equinor            :COMPANY
WELL            .                        31/5-7            :WELL NAME
FLD             .                           Eos            :FIELD NAME
RIGN            .                 West Hercules            :Rig Name
RIGTYP          .                Semi-Submersible          :Rig Type
SON             .                     19SCA0085            :Service Order Number
SRVC            .                  Schlumberger            :SERVICE COMPANY
DATE            .                    01/13/2020            :LOG DATE(Composite Date for Composite LAP) (MM/DD/YYYY)
CLAB            .                       County:            :County Label
CNTY            .                                          :COUNTY
SLAB            .                                          :State/Province Label
STAT            .                                          :STATE or PROVINCE
PROV            .                                          :STATE or PROVINCE
CTRY            .                        Norway            :COUNTRY
CONT_REGION     .                        Europe            :Continent Region
SECT            .                                          :Section
TOWN            .                                          :Township
RANG            .                                          :Range
API             .                                          :API NUMBER
UWI             .                                          :UNIQUE WELL ID
LUL             .                Service Office            :Logging Unit Location
LUN             .                          A615            :Logging Unit Number
LOC             .                Norwegian North Sea       :FIELD LOCATION
FL1             .                Section: 8 1/2 in.        :Field Location Line 1
FL2             .                Job no.: 19SCA0085        :Field Location Line 2
LATI            .deg             60° 34' 35.14" N          :LATITUDE
LONG            .deg             3° 26' 36.13" E           :LONGITUDE
PDAT            .                           MSL            :Local Permanent Datum
LMF             .                            DF            :Logging Measured From
APD             .m                        31.00            :Elevation of Depth Reference (LMF) Above Permanent Datum
EPD             .m                         0.00            :Elevation of Permanent Datum (PDAT) above Mean Sea Level
EKB             .m                      -999.25            :Elevation of Kelly Bushing Above Permanent Datum
EDF             .m                        31.00            :Elevation of Drill Floor Above Permanent Datum
EGL             .m                      -307.00            :Elevation of Ground Level Above Permanent Datum
ECF             .m                      -999.25            :Elevation of Casing Flange above Permanent Datum
#--------------------------------------------------
~CURVE INFORMATION
#MNEM           .UNIT                  API CODE            :DESCRIPTION
#----            ------          --------------            -----------------------------
TIME_1900       .d                                         :                                                        Time Index(OLE Automation date)
TIME            .s                                         :                                (10s)                   Time(hh mm ss/dd-MMM-yyyy)
DEPTH           .m                                         :(RT)    (DnMWorkflow)                                   Depth Index
BLKP            .m                                         :(RT)    (DRILLING_SURFACE)                              Height of block above rig floor
GR              .gAPI                                      :(RT)    (ARC6)                                          Gamma Ray
CRPM            .c/min                                     :(RT)    (TELE675)                                       Collar Rotational Speed
STICK           .c/min                                     :(RT)    (TELE675)                                       Stick Slip Indicator
SHKRSK          .                                          :(RT)    (TELE675)                                       Shock Risk
SHKPK           .gn                                        :(RT)    (TELE675)                                       Shock Peak
DHAT            .degC                                      :(RM)    (ARC6)                                          Downhole Annulus Temperature
DHAP            .bar                                       :(RM)    (ARC6)                                          Downhole Annulus Pressure
ECD             .g/cm3                                     :(RM)    (ARC6)                                          Equivalent Circulating Density
#-------------------------------------------------------------
#       TIME_1900                 TIME        DEPTH         BLKP           GR         CRPM        STICK       SHKRSK        SHKPK         DHAT         DHAP          ECD 
#                                       (DnMWorkfl)  (DRILLING_)       (ARC6)    (TELE675)    (TELE675)    (TELE675)    (TELE675)       (ARC6)       (ARC6)       (ARC6) 
#                                              (RT)         (RT)         (RT)         (RT)         (RT)         (RT)         (RT)         (RM)         (RM)         (RM) 
#                                (10s)                                                                                                                                   
~ASCII
# ...
 43844.5013888889 12:02:00/14-Jan-2020   2400.75000      4.08000      -999.25      -999.25      -999.25      -999.25      -999.25     78.00000    276.61770      1.17928
 43844.5015046296 12:02:10/14-Jan-2020   2401.12012      3.63000      -999.25      -999.25      -999.25      -999.25      -999.25     78.00000    277.92770      1.18468
 43844.5016203704 12:02:20/14-Jan-2020   2401.12012      4.12000      -999.25      -999.25      -999.25      -999.25      -999.25     78.00000    284.27080      1.21172
 43844.5017361111 12:02:30/14-Jan-2020   2401.12012     17.61000      -999.25      -999.25      -999.25      -999.25      -999.25     78.00000    283.51240      1.20848
 43844.5018518518 12:02:40/14-Jan-2020   2401.12012     34.24000      -999.25      -999.25      -999.25      -999.25      -999.25     78.00000    272.89450      1.16322
 43844.5019675926 12:02:50/14-Jan-2020   2401.12012     41.45000      -999.25      -999.25      -999.25      -999.25      -999.25     78.00000    273.37710      1.16528
 43844.5020833333 12:03:00/14-Jan-2020   2401.12012     42.02000      -999.25      -999.25      -999.25      -999.25      -999.25     78.00000    278.34130      1.18644
 43844.5021990741 12:03:10/14-Jan-2020   2401.12012     42.02000      -999.25      -999.25      -999.25      -999.25      -999.25     78.00000    277.30710      1.18203
 43844.5023148148 12:03:20/14-Jan-2020   2401.12012     42.20000      -999.25      -999.25      -999.25      -999.25      -999.25     78.00000    273.58400      1.16616
 43844.5024305556 12:03:30/14-Jan-2020   2402.27002     41.01000      -999.25      -999.25      -999.25      -999.25      -999.25     78.00000    286.61510      1.22122
 43844.5025462963 12:03:40/14-Jan-2020   2416.59009     26.69000      -999.25      -999.25      -999.25      -999.25      -999.25     78.00000    284.33980      1.20429
 43844.5026620370 12:03:50/14-Jan-2020   2433.19995     10.08000      -999.25      -999.25      -999.25      -999.25      -999.25     78.00000    273.99770      1.15262
 43844.5027777778 12:04:00/14-Jan-2020   2439.06006      4.22000      -999.25      -999.25      -999.25      -999.25      -999.25     78.00000    272.54970      1.14362
 43844.5028935185 12:04:10/14-Jan-2020   2439.60986      3.67000      -999.25      -999.25      -999.25      -999.25      -999.25     79.00000    283.58140      1.18964
 43844.5030092593 12:04:20/14-Jan-2020   2439.86011      3.32000      -999.25      -999.25      -999.25      -999.25      -999.25     79.00000    280.40980      1.17621
 43844.5031250000 12:04:30/14-Jan-2020   2439.86011     10.53000      -999.25      -999.25      -999.25      -999.25      -999.25     79.00000    272.41190      1.14266
 43844.5032407407 12:04:40/14-Jan-2020   2439.86011     26.26000      -999.25      -999.25      -999.25      -999.25      -999.25     79.00000    282.40930      1.18460
 43844.5033564815 12:04:50/14-Jan-2020   2439.86011     40.46000      -999.25      -999.25      -999.25      -999.25      -999.25     79.00000    284.33980      1.19270
 43844.5034722222 12:05:00/14-Jan-2020   2439.86011     41.70000      -999.25      -999.25      -999.25      -999.25      -999.25     79.00000    278.68610      1.16898
 43844.5035879630 12:05:10/14-Jan-2020   2439.86011     41.71000      -999.25      -999.25      -999.25      -999.25      -999.25     79.00000    271.44660      1.13861
 43844.5037037037 12:05:20/14-Jan-2020   2439.86011     41.71000      -999.25      -999.25      -999.25      -999.25      -999.25     79.00000    274.82500      1.15279
 43844.5038194444 12:05:30/14-Jan-2020   2439.86011     41.70000      -999.25      -999.25      -999.25      -999.25      -999.25     79.00000    285.09820      1.19588
 43844.5039351852 12:05:40/14-Jan-2020   2439.86011     41.70000      -999.25      -999.25      -999.25      -999.25      -999.25     79.00000    282.61610      1.18547
 43844.5040509259 12:05:50/14-Jan-2020   2439.86011     41.70000      -999.25      -999.25      -999.25      -999.25      -999.25     79.00000    278.89290      1.16985
 43844.5041666667 12:06:00/14-Jan-2020   2439.86011     42.06000      -999.25      -999.25      -999.25      -999.25      -999.25     79.00000    276.27290      1.15886
 43844.5042824074 12:06:10/14-Jan-2020   2438.87988     42.79000      -999.25      -999.25      -999.25      -999.25      -999.25     79.00000    294.26820      1.23484
 43844.5043981481 12:06:20/14-Jan-2020   2445.97998     36.67000      -999.25      -999.25      -999.25      -999.25      -999.25     79.00000    292.68240      1.22471
 43844.5045138889 12:06:30/14-Jan-2020   2462.37988     19.77000      -999.25      -999.25      -999.25      -999.25      -999.25     79.00000    288.13190      1.19758
 43844.5046296296 12:06:40/14-Jan-2020   2476.12012      5.97000      -999.25      -999.25      -999.25      -999.25      -999.25     79.00000    278.54820      1.15130
 43844.5047453704 12:06:50/14-Jan-2020   2477.92993      3.74000      -999.25      -999.25      -999.25      -999.25      -999.25     79.00000    281.85770      1.16406
 43844.5048611111 12:07:00/14-Jan-2020   2477.92993      3.74000      -999.25      -999.25      -999.25      -999.25      -999.25     79.00000    292.06190      1.20620
 43844.5049768519 12:07:10/14-Jan-2020   2477.93994      3.74000      -999.25      -999.25      -999.25      -999.25      -999.25     80.00000    286.06350      1.18142
 43844.5050925926 12:07:20/14-Jan-2020   2478.27002      3.33000      -999.25      -999.25      -999.25      -999.25      -999.25     80.00000    278.61710      1.15051
 43844.5052083333 12:07:30/14-Jan-2020   2478.27002     13.66000      -999.25      -999.25      -999.25      -999.25      -999.25     80.00000    274.68710      1.13429
 43844.5053240741 12:07:40/14-Jan-2020   2478.27002     29.98000      -999.25      -999.25      -999.25      -999.25      -999.25     80.00000    281.85770      1.16390
 43844.5054398148 12:07:50/14-Jan-2020   2478.27002     41.27000      -999.25      -999.25      -999.25      -999.25      -999.25     80.00000    283.78820      1.17187
 43844.5055555556 12:08:00/14-Jan-2020   2478.27002     41.73000      -999.25      -999.25      -999.25      -999.25      -999.25     80.00000    279.92710      1.15592
 43844.5056712963 12:08:10/14-Jan-2020   2478.27002     41.73000      -999.25      -999.25      -999.25      -999.25      -999.25     80.00000    284.40870      1.17443
 43844.5057870370 12:08:20/14-Jan-2020   2478.27002     41.81000      -999.25      -999.25      -999.25      -999.25      -999.25     80.00000    281.51290      1.16247
 43844.5059027778 12:08:30/14-Jan-2020   2477.56006     42.74000      -999.25      -999.25      -999.25      -999.25      -999.25     80.00000    300.88720      1.24283
 43844.5060185185 12:08:40/14-Jan-2020   2485.77002     34.57000      -999.25      -999.25      -999.25      -999.25      -999.25     80.00000    300.68040      1.23810
 43844.5061342593 12:08:50/14-Jan-2020   2501.39014     18.95000      -999.25      -999.25      -999.25      -999.25      -999.25     80.00000    296.88820      1.21469
 43844.5062500000 12:09:00/14-Jan-2020   2515.30981      5.62000      -999.25      -999.25      -999.25      -999.25      -999.25     80.00000    288.20090      1.17260
 43844.5063657407 12:09:10/14-Jan-2020   2516.64014      3.70000      -999.25      -999.25      -999.25      -999.25      -999.25     80.00000    293.71670      1.19431
 43844.5064814815 12:09:20/14-Jan-2020   2516.75000      3.47000      -999.25      -999.25      -999.25      -999.25      -999.25     81.00000    293.85460      1.19482
 43844.5065972222 12:09:30/14-Jan-2020   2516.75000     11.62000      -999.25      -999.25      -999.25      -999.25      -999.25     81.00000    293.71670      1.19426
 43844.5067129630 12:09:40/14-Jan-2020   2516.75000     28.12000      -999.25      -999.25      -999.25      -999.25      -999.25     81.00000    295.30250      1.20070
 43844.5068287037 12:09:50/14-Jan-2020   2516.75000     41.01000      -999.25      -999.25      -999.25      -999.25      -999.25     81.00000    296.75040      1.20659
