~VERSION INFORMATION 
VERS  .    2.0                                     :CWLS Log ASCII Standard - VERSION 2.0
WRAP  .    NO                                      :One Line per Time step
PROD  .    Schlumberger Technology Corp.           :LAS Producer
PROG  .    Horizon LASWriter 9.2.113335.3100       :LAS Program name and version
SOURCE.    Run 12-TimeLogicalAcq                   :Run&Pass Information
CREA  .    01/21/2020                              :LAS Creation date {MM/DD/YYYY}
#--------------------------------------------------
~WELL INFORMATION 
#MNEM           .UNIT                      DATA            :DESCRIPTION
#----            ------          --------------            -----------------------------
STRT            .d               43837.2295138889          :START TIME(OLE Automation date)
STOP            .d               43837.6875000000          :STOP TIME(OLE Automation date)
STEP            .d                            0            :STEP TIME(10s in time)
NULL            .                       -999.25            :NULL VALUE
COMP            .                       Equinor            :COMPANY
WELL            .                        31/5-7            :WELL NAME
FLD             .                           Eos            :FIELD NAME
RIGN            .                 West Hercules            :Rig Name
RIGTYP          .                Semi-Submersible          :Rig Type
SON             .                     19SCA0085            :Service Order Number
SRVC            .                  Schlumberger            :SERVICE COMPANY
DATE            .                    01/07/2020            :LOG DATE(Composite Date for Composite LAP) (MM/DD/YYYY)
CLAB            .                       County:            :County Label
CNTY            .                                          :COUNTY
SLAB            .                                          :State/Province Label
STAT            .                                          :STATE or PROVINCE
PROV            .                                          :STATE or PROVINCE
CTRY            .                        Norway            :COUNTRY
CONT_REGION     .                        Europe            :Continent Region
SECT            .                                          :Section
TOWN            .                                          :Township
RANG            .                                          :Range
API             .                                          :API NUMBER
UWI             .                                          :UNIQUE WELL ID
LUL             .                Service Office            :Logging Unit Location
LUN             .                          A615            :Logging Unit Number
LOC             .                Norwegian North Sea       :FIELD LOCATION
FL1             .                Section: 8 1/2 in.        :Field Location Line 1
FL2             .                Job no.: 19SCA0085        :Field Location Line 2
LATI            .deg             60° 34' 35.14" N          :LATITUDE
LONG            .deg             3° 26' 36.13" E           :LONGITUDE
PDAT            .                           MSL            :Local Permanent Datum
LMF             .                            DF            :Logging Measured From
APD             .m                        31.00            :Elevation of Depth Reference (LMF) Above Permanent Datum
EPD             .m                         0.00            :Elevation of Permanent Datum (PDAT) above Mean Sea Level
EKB             .m                      -999.25            :Elevation of Kelly Bushing Above Permanent Datum
EDF             .m                        31.00            :Elevation of Drill Floor Above Permanent Datum
EGL             .m                      -307.00            :Elevation of Ground Level Above Permanent Datum
ECF             .m                      -999.25            :Elevation of Casing Flange above Permanent Datum
#--------------------------------------------------
~CURVE INFORMATION
#MNEM           .UNIT                  API CODE            :DESCRIPTION
#----            ------          --------------            -----------------------------
TIME_1900       .d                                         :                                                        Time Index(OLE Automation date)
TIME            .s                                         :                                (10s)                   Time(hh mm ss/dd-MMM-yyyy)
DEPTH           .m                                         :(RT)    (DnMWorkflow)                                   Depth Index
BLKP            .m                                         :(RT)    (DRILLING_SURFACE)                              Height of block above rig floor
GR              .gAPI                                      :(RT)    (ARC6)                                          Gamma Ray
CRPM            .c/min                                     :(RT)    (TELE675)                                       Collar Rotational Speed
STICK           .c/min                                     :(RT)    (TELE675)                                       Stick Slip Indicator
SHKRSK          .                                          :(RT)    (TELE675)                                       Shock Risk
SHKPK           .gn                                        :(RT)    (TELE675)                                       Shock Peak
DHAT            .degC                                      :(RM)    (ARC6)                                          Downhole Annulus Temperature
DHAP            .bar                                       :(RM)    (ARC6)                                          Downhole Annulus Pressure
ECD             .g/cm3                                     :(RM)    (ARC6)                                          Equivalent Circulating Density
#-------------------------------------------------------------
#       TIME_1900                 TIME        DEPTH         BLKP           GR         CRPM        STICK       SHKRSK        SHKPK         DHAT         DHAP          ECD 
#                                       (DnMWorkfl)  (DRILLING_)       (ARC6)    (TELE675)    (TELE675)    (TELE675)    (TELE675)       (ARC6)       (ARC6)       (ARC6) 
#                                              (RT)         (RT)         (RT)         (RT)         (RT)         (RT)         (RT)         (RM)         (RM)         (RM) 
#                                (10s)                                                                                                                                   
~ASCII
# ...
 43837.4572916667 10:58:30/07-Jan-2020   2697.06006     20.76000     48.37257      -999.25      -999.25      -999.25      -999.25     42.00000    316.53830      1.20072
 43837.4574074074 10:58:40/07-Jan-2020   2697.12988     20.61000     47.88550      -999.25      -999.25      -999.25      -999.25     42.00000    321.01990      1.21768
 43837.4575231481 10:58:50/07-Jan-2020   2697.44995     20.39000     47.33879    100.00000      -999.25      -999.25      -999.25     42.00000    319.29620      1.21101
 43837.4576388889 10:59:00/07-Jan-2020   2697.78979     20.05000     46.84246      -999.25      9.00000      0.00000      0.00000     42.00000    320.60620      1.21582
 43837.4577546296 10:59:10/07-Jan-2020   2697.83008     20.01000     46.70829      -999.25      -999.25      -999.25      -999.25     42.00000    318.26200      1.20693
 43837.4578703704 10:59:20/07-Jan-2020   2698.53003     19.31000     46.82467      -999.25      -999.25      -999.25      -999.25     42.00000    315.64200      1.19668
 43837.4579861111 10:59:30/07-Jan-2020   2698.90015     18.94000     47.87911      -999.25      -999.25      -999.25      -999.25     42.00000    317.71040      1.20434
 43837.4581018519 10:59:40/07-Jan-2020   2698.85986     18.98000     48.94361      -999.25      -999.25      -999.25      -999.25     42.00000    319.22730      1.21011
 43837.4582175926 10:59:50/07-Jan-2020   2699.01001     18.83000     50.32563    100.00000      -999.25      -999.25      -999.25     42.00000    318.53780      1.20743
 43837.4583333333 11:00:00/07-Jan-2020   2699.14014     18.70000     51.96844      -999.25      6.00000      0.00000      0.00000     42.00000    316.12460      1.19823
 43837.4584490741 11:00:10/07-Jan-2020   2699.54980     18.29000     53.35046      -999.25      -999.25      -999.25      -999.25     42.00000    319.22730      1.20979
 43837.4585648148 11:00:20/07-Jan-2020   2699.62988     18.21000     55.00498      -999.25      -999.25      -999.25      -999.25     42.00000    318.95150      1.20871
 43837.4586805556 11:00:30/07-Jan-2020   2699.96997     17.87000     60.47348      -999.25      -999.25      -999.25      -999.25     42.00000    321.01990      1.21641
 43837.4587962963 11:00:40/07-Jan-2020   2700.36011     17.48000     73.16925    100.00000      -999.25      -999.25      -999.25     42.00000    319.22730      1.20944
 43837.4589120370 11:00:50/07-Jan-2020   2701.40015     16.44000     86.03563      -999.25      6.00000      0.00000      0.00000     42.00000    316.67620      1.19931
 43837.4590277778 11:01:00/07-Jan-2020   2702.31982     15.52000     92.08446      -999.25      -999.25      -999.25      -999.25     42.00000    317.71040      1.20281
 43837.4591435185 11:01:10/07-Jan-2020   2702.98999     14.80000     92.29845      -999.25      -999.25      -999.25      -999.25     42.00000    319.91670      1.21086
 43837.4592592593 11:01:20/07-Jan-2020   2703.73999     14.08000     98.89675      -999.25      -999.25      -999.25      -999.25     42.00000    320.81310      1.21392
 43837.4593750000 11:01:30/07-Jan-2020   2704.56006     13.28000    102.06210     99.00000      -999.25      -999.25      -999.25     42.00000    318.74460      1.20572
 43837.4594907407 11:01:40/07-Jan-2020   2705.33984     12.50000    102.16570      -999.25      9.00000      -999.25      -999.25     42.00000    318.33090      1.20381
 43837.4596064815 11:01:50/07-Jan-2020   2706.13989     11.70000     98.88011      -999.25      -999.25      0.00000      0.00000     42.00000    319.70990      1.20867
 43837.4597222222 11:02:00/07-Jan-2020   2706.44995     11.39000     93.24842      -999.25      -999.25      -999.25      -999.25     42.00000    321.01990      1.21348
 43837.4598379630 11:02:10/07-Jan-2020   2707.50000     10.34000     91.55382      -999.25      -999.25      -999.25      -999.25     42.00000    317.98620      1.20155
 43837.4599537037 11:02:20/07-Jan-2020   2707.75977     10.08000      -999.25      -999.25      -999.25      -999.25      -999.25     42.00000    320.81310      1.21210
 43837.4600694444 11:02:30/07-Jan-2020   2708.03003      9.81000      -999.25      0.00000      -999.25      -999.25      -999.25     42.00000    318.95150      1.20497
 43837.4601851852 11:02:40/07-Jan-2020   2708.20996      9.63000      -999.25      -999.25    120.00000      -999.25      -999.25     42.00000    318.33090      1.20254
 43837.4603009259 11:02:50/07-Jan-2020   2707.93994      9.90000      -999.25      -999.25      -999.25      -999.25      -999.25     42.00000    319.50300      1.20708
 43837.4604166667 11:03:00/07-Jan-2020   2708.03003      9.81000     93.41791      -999.25      -999.25      -999.25      -999.25     42.00000    318.60670      1.20364
 43837.4605324074 11:03:10/07-Jan-2020   2708.03003      9.81000     97.46867      -999.25      -999.25      -999.25      -999.25     42.00000    319.36520      1.20652
 43837.4606481481 11:03:20/07-Jan-2020   2708.03003      9.81000    102.81210      -999.25      -999.25      -999.25      -999.25     42.00000    319.64100      1.20757
 43837.4607638889 11:03:30/07-Jan-2020   2708.12012      9.72000    108.40530      -999.25      -999.25      -999.25      -999.25     42.00000    318.95150      1.20492
 43837.4608796296 11:03:40/07-Jan-2020   2708.20996      9.63000    112.03360      -999.25      -999.25      -999.25      -999.25     42.00000    317.71040      1.20019
 43837.4609953704 11:03:50/07-Jan-2020   2708.03003      9.81000    112.61820      -999.25      -999.25      -999.25      -999.25     42.00000    318.39990      1.20288
 43837.4611111111 11:04:00/07-Jan-2020   2708.12012      9.72000    110.66890      -999.25      -999.25      0.00000      0.00000     42.00000    318.19300      1.20207
 43837.4612268518 11:04:10/07-Jan-2020   2708.20996      9.63000    107.90830      -999.25      -999.25      -999.25      -999.25     42.00000    317.91730      1.20098
 43837.4613425926 11:04:20/07-Jan-2020   2708.20996      9.63000    107.38420      -999.25      -999.25      -999.25      -999.25     42.00000    318.46880      1.20306
 43837.4614583333 11:04:30/07-Jan-2020   2708.03003      9.81000    109.86070      -999.25      -999.25      -999.25      -999.25     42.00000    318.39990      1.20288
 43837.4615740741 11:04:40/07-Jan-2020   2708.20996      9.63000    112.01400      -999.25      -999.25      -999.25      -999.25     42.00000    318.88250      1.20463
 43837.4616898148 11:04:50/07-Jan-2020   2708.38989      9.45000    111.29340      -999.25      -999.25      0.00000      0.00000     42.00000    317.57250      1.19959
 43837.4618055556 11:05:00/07-Jan-2020   2707.93994      9.90000    106.91510      -999.25      -999.25      -999.25      -999.25     42.00000    318.26200      1.20239
 43837.4619212963 11:05:10/07-Jan-2020   2708.20996      9.63000    105.56910      -999.25      -999.25      -999.25      -999.25     42.00000    318.88250      1.20462
 43837.4620370370 11:05:20/07-Jan-2020   2708.20996      9.63000    106.93700      -999.25      -999.25      -999.25      -999.25     42.00000    317.08990      1.19785
 43837.4621527778 11:05:30/07-Jan-2020   2708.38989      9.45000    104.87250      -999.25      -999.25      -999.25      -999.25     42.00000    317.29670      1.19855
 43837.4622685185 11:05:40/07-Jan-2020   2708.38989      9.45000     98.88860      -999.25      -999.25      0.00000      0.00000     42.00000    317.36570      1.19882
 43837.4623842593 11:05:50/07-Jan-2020   2708.38989      9.45000     96.38828      -999.25      -999.25      -999.25      -999.25     42.00000    317.57250      1.19959
 43837.4625000000 11:06:00/07-Jan-2020   2708.12012      9.72000     97.26743      -999.25      -999.25      -999.25      -999.25     42.00000    318.46880      1.20310
 43837.4626157407 11:06:10/07-Jan-2020   2708.20996      9.63000    102.10110      -999.25      -999.25      -999.25      -999.25     42.00000    318.53780      1.20333
 43837.4627314815 11:06:20/07-Jan-2020   2708.38989      9.45000    105.52160      -999.25      -999.25      -999.25      -999.25     42.00000    317.98620      1.20115
