~VERSION INFORMATION 
VERS  .    2.0                                     :CWLS Log ASCII Standard - VERSION 2.0
WRAP  .    NO                                      :One Line per Time step
PROD  .    Schlumberger Technology Corp.           :LAS Producer
PROG  .    Horizon LASWriter 9.2.113335.3100       :LAS Program name and version
SOURCE.    Run 8-TimeLogicalAcq                    :Run&Pass Information
CREA  .    12/30/2019                              :LAS Creation date {MM/DD/YYYY}
#--------------------------------------------------
~WELL INFORMATION 
#MNEM           .UNIT                      DATA            :DESCRIPTION
#----            ------          --------------            -----------------------------
STRT            .d               43822.4166666667          :START TIME(OLE Automation date)
STOP            .d               43824.6875000000          :STOP TIME(OLE Automation date)
STEP            .d                            0            :STEP TIME(10s in time)
NULL            .                       -999.25            :NULL VALUE
COMP            .                       Equinor            :COMPANY
WELL            .                        31/5-7            :WELL NAME
FLD             .                           Eos            :FIELD NAME
RIGN            .                 West Hercules            :Rig Name
RIGTYP          .                Semi-Submersible          :Rig Type
SON             .                     19SCA0085            :Service Order Number
SRVC            .                  Schlumberger            :SERVICE COMPANY
DATE            .                    12/23/2019            :LOG DATE(Composite Date for Composite LAP) (MM/DD/YYYY)
CLAB            .                       County:            :County Label
CNTY            .                                          :COUNTY
SLAB            .                                          :State/Province Label
STAT            .                                          :STATE or PROVINCE
PROV            .                                          :STATE or PROVINCE
CTRY            .                        Norway            :COUNTRY
CONT_REGION     .                        Europe            :Continent Region
SECT            .                                          :Section
TOWN            .                                          :Township
RANG            .                                          :Range
API             .                                          :API NUMBER
UWI             .                                          :UNIQUE WELL ID
LUL             .                Service Office            :Logging Unit Location
LUN             .                          A615            :Logging Unit Number
LOC             .                Norwegian North Sea       :FIELD LOCATION
FL1             .                Section: 12 1/4 in.       :Field Location Line 1
FL2             .                Job no.: 19SCA0085        :Field Location Line 2
LATI            .deg             60° 34' 35.14" N          :LATITUDE
LONG            .deg             3° 26' 36.13" E           :LONGITUDE
PDAT            .                           MSL            :Local Permanent Datum
LMF             .                            DF            :Logging Measured From
APD             .m                        31.00            :Elevation of Depth Reference (LMF) Above Permanent Datum
EPD             .m                         0.00            :Elevation of Permanent Datum (PDAT) above Mean Sea Level
EKB             .m                      -999.25            :Elevation of Kelly Bushing Above Permanent Datum
EDF             .m                        31.00            :Elevation of Drill Floor Above Permanent Datum
EGL             .m                      -307.00            :Elevation of Ground Level Above Permanent Datum
ECF             .m                      -999.25            :Elevation of Casing Flange above Permanent Datum
#--------------------------------------------------
~CURVE INFORMATION
#MNEM           .UNIT                  API CODE            :DESCRIPTION
#----            ------          --------------            -----------------------------
TIME_1900       .d                                         :                                                        Time Index(OLE Automation date)
TIME            .s                                         :                                (10s)                   Time(hh mm ss/dd-MMM-yyyy)
DEPTH           .m                                         :(RT)    (DnMWorkflow)                                   Depth Index
GR              .gAPI                                      :(RT)    (ARC9)                                          Gamma Ray
BLKP            .m                                         :(RT)    (DRILLING_SURFACE)                              Height of block above rig floor
CRPM            .c/min                                     :(RT)    (TELE900)                                       Collar Rotational Speed
STICK           .c/min                                     :(RT)    (TELE900)                                       Stick Slip Indicator
SHKPK           .gn                                        :(RT)    (TELE900)                                       Shock Peak
SHKRSK          .                                          :(RT)    (TELE900)                                       Shock Risk
DHAP            .bar                                       :(RM)    (ARC9)                                          Downhole Annulus Pressure
DHAT            .degC                                      :(RM)    (ARC9)                                          Downhole Annulus Temperature
ECD             .g/cm3                                     :(RM)    (ARC9)                                          Equivalent Circulating Density
#-------------------------------------------------------------
#       TIME_1900                 TIME        DEPTH           GR         BLKP         CRPM        STICK        SHKPK       SHKRSK         DHAP         DHAT          ECD 
#                                       (DnMWorkfl)       (ARC9)  (DRILLING_)    (TELE900)    (TELE900)    (TELE900)    (TELE900)       (ARC9)       (ARC9)       (ARC9) 
#                                              (RT)         (RT)         (RT)         (RT)         (RT)         (RT)         (RT)         (RM)         (RM)         (RM) 
#                                (10s)                                                                                                                                   
~ASCII
# ...
 43823.3055555556 07:20:00/24-Dec-2019    2091.1399      90.8260      17.7600      -999.25      -999.25      -999.25      -999.25     263.7934      37.0000       1.2934
 43823.3056712963 07:20:10/24-Dec-2019    2091.2400      92.7896      17.6600      -999.25      -999.25       0.0000       0.0000     264.0003      37.0000       1.2944
 43823.3057870370 07:20:20/24-Dec-2019    2091.3398      92.9100      17.5600      -999.25      -999.25      -999.25      -999.25     264.0003      37.0000       1.2943
 43823.3059027778 07:20:30/24-Dec-2019    2091.4399      93.4950      17.4600      -999.25      -999.25      -999.25      -999.25     264.0003      37.0000       1.2942
 43823.3060185185 07:20:40/24-Dec-2019    2091.5500      99.4303      17.3500     197.0000      -999.25      -999.25      -999.25     264.0003      37.0000       1.2942
 43823.3061342593 07:20:50/24-Dec-2019    2091.8198     100.0701      17.0800      -999.25      -999.25      -999.25      -999.25     264.0003      37.0000       1.2940
 43823.3062500000 07:21:00/24-Dec-2019    2091.7500      96.5604      17.1500      -999.25      -999.25      -999.25      -999.25     264.1381      37.0000       1.2947
 43823.3063657407 07:21:10/24-Dec-2019    2091.8501      87.8015      17.0500      -999.25      -999.25      -999.25      -999.25     264.0003      37.0000       1.2940
 43823.3064814815 07:21:20/24-Dec-2019    2091.9500      84.7165      16.9500      -999.25     192.0000      -999.25      -999.25     263.9313      37.0000       1.2936
 43823.3065972222 07:21:30/24-Dec-2019    2092.0500      91.7287      16.8400      -999.25      -999.25       0.0000       0.0000     264.2071      37.0000       1.2949
 43823.3067129630 07:21:40/24-Dec-2019    2092.1501      99.5754      16.7500      -999.25      -999.25      -999.25      -999.25     264.0003      37.0000       1.2938
 43823.3068287037 07:21:50/24-Dec-2019    2092.2500      95.3067      16.6500      -999.25      -999.25      -999.25      -999.25     264.0692      37.0000       1.2941
 43823.3069444444 07:22:00/24-Dec-2019    2092.2600      89.4747      16.6400     210.0000      -999.25      -999.25      -999.25     264.2761      37.0000       1.2951
 43823.3070601852 07:22:10/24-Dec-2019    2092.4500      82.5954      16.4500      -999.25      -999.25      -999.25      -999.25     264.2071      37.0000       1.2946
 43823.3071759259 07:22:20/24-Dec-2019    2092.5601      78.1089      16.3400      -999.25      -999.25      -999.25      -999.25     264.2071      37.0000       1.2946
 43823.3072916667 07:22:30/24-Dec-2019    2092.5601      75.8232      16.3400      -999.25      -999.25      -999.25      -999.25     264.2761      37.0000       1.2949
 43823.3074074074 07:22:40/24-Dec-2019    2092.7600      77.4239      16.1400      -999.25     168.0000      -999.25      -999.25     264.2761      37.0000       1.2948
 43823.3075231481 07:22:50/24-Dec-2019    2093.0400      79.5135      15.8600      -999.25      -999.25       0.0000       0.0000     264.3450      37.0000       1.2949
 43823.3076388889 07:23:00/24-Dec-2019    2092.9600      81.1142      15.9400      -999.25      -999.25      -999.25      -999.25     264.3450      37.0000       1.2950
 43823.3077546296 07:23:10/24-Dec-2019    2093.1499      93.7117      15.7500      -999.25      -999.25      -999.25      -999.25     264.2071      37.0000       1.2942
 43823.3078703704 07:23:20/24-Dec-2019    2093.3401      92.7783      15.5600      -999.25      -999.25      -999.25      -999.25     264.2761      37.0000       1.2944
 43823.3079861111 07:23:30/24-Dec-2019    2093.2500      85.8990      15.6500     193.0000      -999.25      -999.25      -999.25     264.5518      37.0000       1.2958
 43823.3081018519 07:23:40/24-Dec-2019    2093.5300      80.0670      15.3700      -999.25      -999.25      -999.25      -999.25     264.2761      37.0000       1.2943
 43823.3082175926 07:23:50/24-Dec-2019    2093.5500      80.9483      15.3500      -999.25      -999.25      -999.25      -999.25     264.4139      37.0000       1.2950
 43823.3083333333 07:24:00/24-Dec-2019    2093.6399      83.7597      15.2600      -999.25     330.0000      -999.25      -999.25     264.3450      37.0000       1.2946
 43823.3084490741 07:24:10/24-Dec-2019    2093.7500      87.6868      15.1500      -999.25      -999.25       0.0000       0.0000     264.4139      37.0000       1.2948
 43823.3085648148 07:24:20/24-Dec-2019    2093.7600      91.6140      15.1400      -999.25      -999.25      -999.25      -999.25     264.4139      37.0000       1.2948
 43823.3086805556 07:24:30/24-Dec-2019    2094.0400      95.7360      14.8600      -999.25      -999.25      -999.25      -999.25     264.5518      37.0000       1.2953
 43823.3087962963 07:24:40/24-Dec-2019    2094.1399      90.5220      14.7600      -999.25      -999.25      -999.25      -999.25     264.3450      37.0000       1.2943
 43823.3089120370 07:24:50/24-Dec-2019    2094.2400      75.1102      14.6600     207.0000      -999.25      -999.25      -999.25     264.5518      37.0000       1.2952
 43823.3090277778 07:25:00/24-Dec-2019    2094.3401      67.4375      14.5600      -999.25      -999.25      -999.25      -999.25     264.4139      37.0000       1.2945
 43823.3091435185 07:25:10/24-Dec-2019    2094.4500      66.7807      14.4500      -999.25      -999.25      -999.25      -999.25     264.5518      37.0000       1.2951
 43823.3092592593 07:25:20/24-Dec-2019    2094.5400      69.1368      14.3600      -999.25      -999.25      -999.25      -999.25     264.5518      37.0000       1.2950
 43823.3093750000 07:25:30/24-Dec-2019    2094.6399      69.6976      14.2600      -999.25     141.0000      -999.25      -999.25     264.6897      37.0000       1.2956
 43823.3094907407 07:25:40/24-Dec-2019    2094.8398      65.2097      14.0600      -999.25      -999.25       0.0000       0.0000     264.6897      37.0000       1.2955
 43823.3096064815 07:25:50/24-Dec-2019    2094.9399      63.0902      13.9600      -999.25      -999.25      -999.25      -999.25     264.6208      37.0000       1.2951
 43823.3097222222 07:26:00/24-Dec-2019    2094.9500      65.2719      13.9500      -999.25      -999.25      -999.25      -999.25     264.6208      37.0000       1.2951
 43823.3098379630 07:26:10/24-Dec-2019    2095.0500      63.2246      13.8500     198.0000      -999.25      -999.25      -999.25     264.6897      37.0000       1.2954
 43823.3099537037 07:26:20/24-Dec-2019    2095.1499      67.1710      13.7500      -999.25      -999.25      -999.25      -999.25     264.7587      37.0000       1.2956
 43823.3100694444 07:26:30/24-Dec-2019    2095.2500      73.5359      13.6500      -999.25      -999.25      -999.25      -999.25     264.7587      37.0000       1.2956
 43823.3101851852 07:26:40/24-Dec-2019    2095.4399      78.1718      13.4600      -999.25      -999.25      -999.25      -999.25     264.8276      37.0000       1.2958
 43823.3103009259 07:26:50/24-Dec-2019    2095.5500      79.1065      13.3500      -999.25     108.0000      -999.25      -999.25     264.7587      37.0000       1.2954
 43823.3104166667 07:27:00/24-Dec-2019    2095.6499      85.3752      13.2500      -999.25      -999.25       0.0000       0.0000     264.7587      37.0000       1.2953
 43823.3105324074 07:27:10/24-Dec-2019    2095.7500      94.0448      13.1500      -999.25      -999.25      -999.25      -999.25     264.7587      37.0000       1.2953
 43823.3106481481 07:27:20/24-Dec-2019    2095.7600      97.1683      13.1400      -999.25      -999.25      -999.25      -999.25     264.9655      37.0000       1.2963
 43823.3107638889 07:27:30/24-Dec-2019    2095.9500      98.5617      12.9500     218.0000      -999.25      -999.25      -999.25     264.9655      37.0000       1.2962
 43823.3108796296 07:27:40/24-Dec-2019    2096.1399      95.6287      12.7600      -999.25      -999.25      -999.25      -999.25     264.8276      37.0000       1.2954
 43823.3109953704 07:27:50/24-Dec-2019    2096.2400      87.7495      12.6600      -999.25      -999.25      -999.25      -999.25     264.8276      37.0000       1.2953
