~VERSION INFORMATION 
VERS  .    2.0                                     :CWLS Log ASCII Standard - VERSION 2.0
WRAP  .    NO                                      :One Line per Time step
PROD  .    Schlumberger Technology Corp.           :LAS Producer
PROG  .    Horizon LASWriter 9.2.113335.3100       :LAS Program name and version
SOURCE.    Run 3-TimeLogicalAcq                    :Run&Pass Information
CREA  .    12/12/2019                              :LAS Creation date {MM/DD/YYYY}
#--------------------------------------------------
~WELL INFORMATION 
#MNEM           .UNIT                      DATA            :DESCRIPTION
#----            ------          --------------            -----------------------------
STRT            .d               43804.6875000000          :START TIME(OLE Automation date)
STOP            .d               43805.8541666667          :STOP TIME(OLE Automation date)
STEP            .d                            0            :STEP TIME(10s in time)
NULL            .                       -999.25            :NULL VALUE
COMP            .                       Equinor            :COMPANY
WELL            .                        31/5-7            :WELL NAME
FLD             .                           Eos            :FIELD NAME
RIGN            .                 West Hercules            :Rig Name
RIGTYP          .                Semi-Submersible          :Rig Type
SON             .                     19SCA0085            :Service Order Number
SRVC            .                  Schlumberger            :SERVICE COMPANY
DATE            .                    12/05/2019            :LOG DATE(Composite Date for Composite LAP) (MM/DD/YYYY)
CLAB            .                       County:            :County Label
CNTY            .                                          :COUNTY
SLAB            .                                          :State/Province Label
STAT            .                                          :STATE or PROVINCE
PROV            .                                          :STATE or PROVINCE
CTRY            .                        Norway            :COUNTRY
CONT_REGION     .                        Europe            :Continent Region
SECT            .                                          :Section
TOWN            .                                          :Township
RANG            .                                          :Range
API             .                                          :API NUMBER
UWI             .                                          :UNIQUE WELL ID
LUL             .                Service Office            :Logging Unit Location
LUN             .                          A615            :Logging Unit Number
LOC             .                Norwegian North Sea       :FIELD LOCATION
FL1             .                Section: 26 in.           :Field Location Line 1
FL2             .                Job no.: 19SCA0085        :Field Location Line 2
LATI            .deg             60° 34' 35.14" N          :LATITUDE
LONG            .deg             3° 26' 36.13" E           :LONGITUDE
PDAT            .                           MSL            :Local Permanent Datum
LMF             .                            DF            :Logging Measured From
APD             .m                        31.00            :Elevation of Depth Reference (LMF) Above Permanent Datum
EPD             .m                         0.00            :Elevation of Permanent Datum (PDAT) above Mean Sea Level
EKB             .m                      -999.25            :Elevation of Kelly Bushing Above Permanent Datum
EDF             .m                        31.00            :Elevation of Drill Floor Above Permanent Datum
EGL             .m                      -307.00            :Elevation of Ground Level Above Permanent Datum
ECF             .m                      -999.25            :Elevation of Casing Flange above Permanent Datum
#--------------------------------------------------
~CURVE INFORMATION
#MNEM           .UNIT                  API CODE            :DESCRIPTION
#----            ------          --------------            -----------------------------
TIME_1900       .d                                         :                                                        Time Index(OLE Automation date)
TIME            .s                                         :                                (10s)                   Time(hh mm ss/dd-MMM-yyyy)
DEPTH           .m                                         :(RT)    (DnMWorkflow)                                   Depth Index
GR_CAL          .gAPI                                      :(RT)    (ARC9)                                          Calibrated Gamma Ray
BLKP            .m                                         :(RT)    (DRILLING_SURFACE)                              Height of block above rig floor
CRPM            .c/min                                     :(RT)    (TELE900)                                       Collar Rotational Speed
STICK           .c/min                                     :(RT)    (TELE900)                                       Stick Slip Indicator
SHKPK           .gn                                        :(RT)    (TELE900)                                       Shock Peak
SHKRSK          .                                          :(RT)    (TELE900)                                       Shock Risk
DHAP            .bar                                       :(RM)    (ARC9)                                          Downhole Annulus Pressure
DHAT            .degC                                      :(RM)    (ARC9)                                          Downhole Annulus Temperature
ECD             .g/cm3                                     :(RM)    (ARC9)                                          Equivalent Circulating Density
#-------------------------------------------------------------
#       TIME_1900                 TIME        DEPTH       GR_CAL         BLKP         CRPM        STICK        SHKPK       SHKRSK         DHAP         DHAT          ECD 
#                                       (DnMWorkfl)       (ARC9)  (DRILLING_)    (TELE900)    (TELE900)    (TELE900)    (TELE900)       (ARC9)       (ARC9)       (ARC9) 
#                                              (RT)         (RT)         (RT)         (RT)         (RT)         (RT)         (RT)         (RM)         (RM)         (RM) 
#                                (10s)                                                                                                                                   
~ASCII
# ...
 43805.5375000000 12:54:00/06-Dec-2019     901.7100      -999.25      27.1800      -999.25      -999.25      -999.25      -999.25      91.4245      15.0000       1.0989
 43805.5376157407 12:54:10/06-Dec-2019     901.1100      -999.25      27.7800      77.0000      -999.25       0.0000       0.0000      91.4934      15.0000       1.1006
 43805.5377314815 12:54:20/06-Dec-2019     901.0800      -999.25      27.9000      -999.25      69.0000      -999.25      -999.25      91.8382      15.0000       1.1048
 43805.5378472222 12:54:30/06-Dec-2019     902.1000      39.8381      26.8900      -999.25      -999.25      -999.25      -999.25      91.7003      15.0000       1.1018
 43805.5379629630 12:54:40/06-Dec-2019     901.9800      37.4115      27.0100      -999.25      -999.25      -999.25      -999.25      91.7003      15.0000       1.1019
 43805.5380787037 12:54:50/06-Dec-2019     902.3200      35.3127      26.7500      84.0000      -999.25      -999.25      -999.25      91.7003      15.0000       1.1015
 43805.5381944444 12:55:00/06-Dec-2019     903.2401      37.2474      25.7500      -999.25      60.0000       0.0000       0.0000      91.7003      15.0000       1.1004
 43805.5383101852 12:55:10/06-Dec-2019     902.9400      42.3105      26.0500      -999.25      -999.25      -999.25      -999.25      91.7692      15.0000       1.1015
 43805.5384259259 12:55:20/06-Dec-2019     902.7200      43.8632      26.2700      -999.25      -999.25      -999.25      -999.25      91.8382      15.0000       1.1026
 43805.5385416667 12:55:30/06-Dec-2019     903.2600      43.0760      25.7300      -999.25      -999.25      -999.25      -999.25      91.8382      15.0000       1.1019
 43805.5386574074 12:55:40/06-Dec-2019     903.2401      42.4917      25.7500      88.0000      -999.25       0.0000       0.0000      91.9071      15.0000       1.1028
 43805.5387731481 12:55:50/06-Dec-2019     902.8300      43.0760      26.1600      -999.25      48.0000      -999.25      -999.25      91.9071      15.0000       1.1033
 43805.5388888889 12:56:00/06-Dec-2019     903.1901      45.7571      25.8000      -999.25      -999.25      -999.25      -999.25      91.9761      15.0000       1.1037
 43805.5390046296 12:56:10/06-Dec-2019     903.5300      51.3804      25.4600      -999.25      -999.25      -999.25      -999.25      92.1140      15.0000       1.1049
 43805.5391203704 12:56:20/06-Dec-2019     903.7000      52.2756      25.2800      86.0000      -999.25       0.0000       0.0000      92.1829      15.0000       1.1055
 43805.5392361111 12:56:30/06-Dec-2019     903.3900      52.2756      25.5900      -999.25      57.0000      -999.25      -999.25      92.1140      15.0000       1.1051
 43805.5393518518 12:56:40/06-Dec-2019     903.8400      51.3804      25.2400      -999.25      -999.25      -999.25      -999.25      92.2519      15.0000       1.1062
 43805.5394675926 12:56:50/06-Dec-2019     905.0300      46.6181      24.1300      -999.25      -999.25      -999.25      -999.25      92.2519      15.0000       1.1046
 43805.5395833333 12:57:00/06-Dec-2019     904.6400      40.3984      24.1600      -999.25      -999.25      -999.25      -999.25      92.2519      15.0000       1.1051
 43805.5396990741 12:57:10/06-Dec-2019     904.0300      37.5419      24.6500      81.0000      -999.25       0.0000       0.0000      92.3208      15.0000       1.1067
 43805.5398148148 12:57:20/06-Dec-2019     904.5800      44.0346      24.4000      -999.25      69.0000      -999.25      -999.25      92.3208      15.0000       1.1060
 43805.5399305556 12:57:30/06-Dec-2019     905.0300      51.2999      23.7600      -999.25      -999.25      -999.25      -999.25      92.2519      15.0000       1.1046
 43805.5400462963 12:57:40/06-Dec-2019     905.0100      44.6517      23.9800      -999.25      -999.25      -999.25      -999.25      92.3208      15.0000       1.1054
 43805.5401620370 12:57:50/06-Dec-2019     905.2501      34.5256      23.6300      78.0000      -999.25       0.0000       0.0000      92.3208      15.0000       1.1051
 43805.5402777778 12:58:00/06-Dec-2019     905.2300      30.6561      23.7500      -999.25      51.0000      -999.25      -999.25      92.3208      15.0000       1.1052
 43805.5403935185 12:58:10/06-Dec-2019     905.4000      34.8537      23.5900      -999.25      -999.25      -999.25      -999.25      92.3898      15.0000       1.1058
 43805.5405092593 12:58:20/06-Dec-2019     906.0300      39.3706      22.9600      -999.25      -999.25      -999.25      -999.25      92.3898      15.0000       1.1050
 43805.5406250000 12:58:30/06-Dec-2019     906.2900      34.2869      22.7000      81.0000      -999.25      -999.25      -999.25      92.3898      15.0000       1.1046
 43805.5407407407 12:58:40/06-Dec-2019     906.1700      28.3134      22.8200      -999.25      75.0000       0.0000       0.0000      92.4587      15.0000       1.1056
 43805.5408564815 12:58:50/06-Dec-2019     906.8000      27.0146      22.1900      -999.25      -999.25      -999.25      -999.25      92.4587      16.0000       1.1048
 43805.5409722222 12:59:00/06-Dec-2019     906.9600      31.3838      22.0300      -999.25      -999.25      -999.25      -999.25      92.4587      16.0000       1.1046
 43805.5410879630 12:59:10/06-Dec-2019     906.9400      33.6145      22.0500      -999.25      -999.25      -999.25      -999.25      92.5277      16.0000       1.1054
 43805.5412037037 12:59:20/06-Dec-2019     906.9100      35.4325      22.0800      81.0000      -999.25       0.0000       0.0000      92.5966      16.0000       1.1063
 43805.5413194444 12:59:30/06-Dec-2019     907.1700      37.2506      21.8200      -999.25      54.0000      -999.25      -999.25      92.5966      16.0000       1.1059
 43805.5414351852 12:59:40/06-Dec-2019     907.3300      38.2180      21.6600      -999.25      -999.25      -999.25      -999.25      92.5966      16.0000       1.1057
 43805.5415509259 12:59:50/06-Dec-2019     907.5900      37.2778      21.4000      -999.25      -999.25      -999.25      -999.25      92.5966      16.0000       1.1054
 43805.5416666667 13:00:00/06-Dec-2019     907.2700      36.3826      21.7200      73.0000      -999.25       0.0000       0.0000      92.6655      16.0000       1.1066
 43805.5417824074 13:00:10/06-Dec-2019     907.6300      36.3826      21.3600      -999.25     102.0000      -999.25      -999.25      92.7345      16.0000       1.1070
 43805.5418981481 13:00:20/06-Dec-2019     908.3500      37.2778      20.6400      -999.25      -999.25      -999.25      -999.25      92.7345      16.0000       1.1061
 43805.5420138889 13:00:30/06-Dec-2019     908.4300      36.8418      20.5600      -999.25      -999.25      -999.25      -999.25      92.6655      16.0000       1.1051
 43805.5421296296 13:00:40/06-Dec-2019     908.8600      36.5438      20.1300      -999.25      -999.25      -999.25      -999.25      92.6655      16.0000       1.1046
 43805.5422453704 13:00:50/06-Dec-2019     908.5600      36.8271      20.4300     238.0000      57.0000       0.0000       0.0000      92.7345      16.0000       1.1058
 43805.5423611111 13:01:00/06-Dec-2019     908.2501      37.2710      20.7400      -999.25      -999.25      -999.25      -999.25      92.7345      16.0000       1.1062
 43805.5424768519 13:01:10/06-Dec-2019     908.7000      36.9243      20.3000      -999.25      -999.25      -999.25      -999.25      92.8034      16.0000       1.1064
 43805.5425925926 13:01:20/06-Dec-2019     908.7600      35.7773      20.2300      -999.25      -999.25      -999.25      -999.25      92.8034      16.0000       1.1064
 43805.5427083333 13:01:30/06-Dec-2019     908.9400      35.8484      20.0700      73.0000      -999.25       0.0000       0.0000      92.7345      16.0000       1.1053
 43805.5428240741 13:01:40/06-Dec-2019     909.0900      35.4614      19.9000      -999.25      66.0000      -999.25      -999.25      92.8034      16.0000       1.1059
 43805.5429398148 13:01:50/06-Dec-2019     909.1600      34.7975      19.9300      -999.25      -999.25      -999.25      -999.25      92.8034      16.0000       1.1058
