~VERSION INFORMATION 
VERS  .    2.0                                     :CWLS Log ASCII Standard - VERSION 2.0
WRAP  .    NO                                      :One Line per Time step
PROD  .    Schlumberger Technology Corp.           :LAS Producer
PROG  .    Horizon LASWriter 9.2.113335.3100       :LAS Program name and version
SOURCE.    Run 3-TimeLogicalAcq                    :Run&Pass Information
CREA  .    12/12/2019                              :LAS Creation date {MM/DD/YYYY}
#--------------------------------------------------
~WELL INFORMATION 
#MNEM           .UNIT                      DATA            :DESCRIPTION
#----            ------          --------------            -----------------------------
STRT            .d               43804.6875000000          :START TIME(OLE Automation date)
STOP            .d               43805.8541666667          :STOP TIME(OLE Automation date)
STEP            .d                            0            :STEP TIME(10s in time)
NULL            .                       -999.25            :NULL VALUE
COMP            .                       Equinor            :COMPANY
WELL            .                        31/5-7            :WELL NAME
FLD             .                           Eos            :FIELD NAME
RIGN            .                 West Hercules            :Rig Name
RIGTYP          .                Semi-Submersible          :Rig Type
SON             .                     19SCA0085            :Service Order Number
SRVC            .                  Schlumberger            :SERVICE COMPANY
DATE            .                    12/05/2019            :LOG DATE(Composite Date for Composite LAP) (MM/DD/YYYY)
CLAB            .                       County:            :County Label
CNTY            .                                          :COUNTY
SLAB            .                                          :State/Province Label
STAT            .                                          :STATE or PROVINCE
PROV            .                                          :STATE or PROVINCE
CTRY            .                        Norway            :COUNTRY
CONT_REGION     .                        Europe            :Continent Region
SECT            .                                          :Section
TOWN            .                                          :Township
RANG            .                                          :Range
API             .                                          :API NUMBER
UWI             .                                          :UNIQUE WELL ID
LUL             .                Service Office            :Logging Unit Location
LUN             .                          A615            :Logging Unit Number
LOC             .                Norwegian North Sea       :FIELD LOCATION
FL1             .                Section: 26 in.           :Field Location Line 1
FL2             .                Job no.: 19SCA0085        :Field Location Line 2
LATI            .deg             60° 34' 35.14" N          :LATITUDE
LONG            .deg             3° 26' 36.13" E           :LONGITUDE
PDAT            .                           MSL            :Local Permanent Datum
LMF             .                            DF            :Logging Measured From
APD             .m                        31.00            :Elevation of Depth Reference (LMF) Above Permanent Datum
EPD             .m                         0.00            :Elevation of Permanent Datum (PDAT) above Mean Sea Level
EKB             .m                      -999.25            :Elevation of Kelly Bushing Above Permanent Datum
EDF             .m                        31.00            :Elevation of Drill Floor Above Permanent Datum
EGL             .m                      -307.00            :Elevation of Ground Level Above Permanent Datum
ECF             .m                      -999.25            :Elevation of Casing Flange above Permanent Datum
#--------------------------------------------------
~CURVE INFORMATION
#MNEM           .UNIT                  API CODE            :DESCRIPTION
#----            ------          --------------            -----------------------------
TIME_1900       .d                                         :                                                        Time Index(OLE Automation date)
TIME            .s                                         :                                (10s)                   Time(hh mm ss/dd-MMM-yyyy)
DEPTH           .m                                         :(RT)    (DnMWorkflow)                                   Depth Index
GR_CAL          .gAPI                                      :(RT)    (ARC9)                                          Calibrated Gamma Ray
BLKP            .m                                         :(RT)    (DRILLING_SURFACE)                              Height of block above rig floor
CRPM            .c/min                                     :(RT)    (TELE900)                                       Collar Rotational Speed
STICK           .c/min                                     :(RT)    (TELE900)                                       Stick Slip Indicator
SHKPK           .gn                                        :(RT)    (TELE900)                                       Shock Peak
SHKRSK          .                                          :(RT)    (TELE900)                                       Shock Risk
DHAP            .bar                                       :(RM)    (ARC9)                                          Downhole Annulus Pressure
DHAT            .degC                                      :(RM)    (ARC9)                                          Downhole Annulus Temperature
ECD             .g/cm3                                     :(RM)    (ARC9)                                          Equivalent Circulating Density
#-------------------------------------------------------------
#       TIME_1900                 TIME        DEPTH       GR_CAL         BLKP         CRPM        STICK        SHKPK       SHKRSK         DHAP         DHAT          ECD 
#                                       (DnMWorkfl)       (ARC9)  (DRILLING_)    (TELE900)    (TELE900)    (TELE900)    (TELE900)       (ARC9)       (ARC9)       (ARC9) 
#                                              (RT)         (RT)         (RT)         (RT)         (RT)         (RT)         (RT)         (RM)         (RM)         (RM) 
#                                (10s)                                                                                                                                   
~ASCII
# ...
 43804.9986111111 23:58:00/05-Dec-2019     518.5100      52.1380      26.0400      -999.25      30.0000      -999.25      -999.25      49.2286      13.0000       1.0792
 43804.9987268519 23:58:10/05-Dec-2019     518.6300      51.3769      25.9200      -999.25      -999.25      -999.25      -999.25      49.2975      13.0000       1.0805
 43804.9988425926 23:58:20/05-Dec-2019     518.9100      46.5529      25.6300      -999.25      -999.25      -999.25      -999.25      49.3665      13.0000       1.0813
 43804.9989583333 23:58:30/05-Dec-2019     518.2500      46.3292      26.3000      -999.25      -999.25      -999.25      -999.25      49.3665      13.0000       1.0828
 43804.9990740741 23:58:40/05-Dec-2019     519.0100      49.9654      25.6300      83.0000      45.0000       0.0000       0.0000      49.2975      13.0000       1.0796
 43804.9991898148 23:58:50/05-Dec-2019     518.5000      53.6016      26.0500      -999.25      -999.25      -999.25      -999.25      49.3665      13.0000       1.0822
 43804.9993055556 23:59:00/05-Dec-2019     519.2500      56.2546      25.4800      -999.25      -999.25      -999.25      -999.25      49.3665      13.0000       1.0807
 43804.9994212963 23:59:10/05-Dec-2019     519.7000      58.7622      24.8400      -999.25      -999.25      -999.25      -999.25      49.3665      13.0000       1.0794
 43804.9995370370 23:59:20/05-Dec-2019     518.5600      59.6574      25.9900      84.0000      -999.25       0.0000       0.0000      49.3665      13.0000       1.0821
 43804.9996527778 23:59:30/05-Dec-2019     519.4000      59.6574      25.1500      -999.25      36.0000      -999.25      -999.25      49.3665      13.0000       1.0801
 43804.9997685185 23:59:40/05-Dec-2019     519.0100      58.7622      25.5400      -999.25      -999.25      -999.25      -999.25      49.3665      13.0000       1.0810
 43804.9998842593 23:59:50/05-Dec-2019     519.5400      52.9138      25.0100      -999.25      -999.25      -999.25      -999.25      49.3665      13.0000       1.0798
 43805.0000000000 00:00:00/06-Dec-2019     520.4100      54.3959      24.1400      81.0000      -999.25      -999.25      -999.25      49.4354      13.0000       1.0792
 43805.0001157407 00:00:10/06-Dec-2019     519.4800      56.3307      25.0700      -999.25      39.0000       0.0000       0.0000      49.4354      13.0000       1.0814
 43805.0002314815 00:00:20/06-Dec-2019     519.5500      57.8128      25.0000      -999.25      -999.25      -999.25      -999.25      49.4354      13.0000       1.0814
 43805.0003472222 00:00:30/06-Dec-2019     520.2401      56.6200      24.3100      -999.25      -999.25      -999.25      -999.25      49.4354      13.0000       1.0797
 43805.0004629630 00:00:40/06-Dec-2019     519.6800      55.2405      24.8700      -999.25      -999.25      -999.25      -999.25      49.4354      13.0000       1.0809
 43805.0005787037 00:00:50/06-Dec-2019     520.2800      54.6562      24.2700      84.0000      -999.25       0.0000       0.0000      49.4354      13.0000       1.0796
 43805.0006944444 00:01:00/06-Dec-2019     520.0900      55.2405      24.4600      -999.25      45.0000      -999.25      -999.25      49.5044      13.0000       1.0815
 43805.0008101852 00:01:10/06-Dec-2019     520.0900      57.4273      24.4600      -999.25      -999.25      -999.25      -999.25      49.5733      13.0000       1.0832
 43805.0009259259 00:01:20/06-Dec-2019     520.8700      60.2623      23.6800      -999.25      -999.25      -999.25      -999.25      49.5733      13.0000       1.0813
 43805.0010416667 00:01:30/06-Dec-2019     520.2700      57.2981      24.2800      82.0000      -999.25       0.0000       0.0000      49.5733      13.0000       1.0828
 43805.0011574074 00:01:40/06-Dec-2019     521.0500      53.4286      23.5000      -999.25      36.0000      -999.25      -999.25      49.6423      13.0000       1.0824
 43805.0012731481 00:01:50/06-Dec-2019     521.0900      50.4643      23.3700      -999.25      -999.25      -999.25      -999.25      49.5733      13.0000       1.0807
 43805.0013888889 00:02:00/06-Dec-2019     519.8200      51.2646      24.7300      -999.25      -999.25      -999.25      -999.25      49.6423      13.0000       1.0852
 43805.0015046296 00:02:10/06-Dec-2019     521.3200      53.5880      23.2300      -999.25      -999.25      -999.25      -999.25      49.6423      13.0000       1.0817
 43805.0016203704 00:02:20/06-Dec-2019     520.8900      57.2241      23.6600      82.0000      39.0000       0.0000       0.0000      49.7112      13.0000       1.0840
 43805.0017361111 00:02:30/06-Dec-2019     520.6800      60.8603      23.8700      -999.25      -999.25      -999.25      -999.25      49.7112      13.0000       1.0848
 43805.0018518518 00:02:40/06-Dec-2019     522.0200      61.9154      22.5300      -999.25      -999.25      -999.25      -999.25      49.7112      13.0000       1.0816
 43805.0019675926 00:02:50/06-Dec-2019     520.6700      59.2270      23.8800      -999.25      -999.25      -999.25      -999.25      49.6423      13.0000       1.0831
 43805.0020833333 00:03:00/06-Dec-2019     520.9600      54.1640      23.5900      83.0000      -999.25       0.0000       0.0000      49.7112      13.0000       1.0841
 43805.0021990741 00:03:10/06-Dec-2019     521.4700      52.2292      23.0800      -999.25      33.0000      -999.25      -999.25      49.7112      13.0000       1.0830
 43805.0023148148 00:03:20/06-Dec-2019     521.5200      54.3280      23.0300      -999.25      -999.25      -999.25      -999.25      49.7112      13.0000       1.0828
 43805.0024305556 00:03:30/06-Dec-2019     521.6700      61.5652      22.8800      -999.25      -999.25      -999.25      -999.25      49.7112      13.0000       1.0825
 43805.0025462963 00:03:40/06-Dec-2019     522.0200      60.0831      22.5300      81.0000      -999.25      -999.25      -999.25      49.7112      13.0000       1.0816
 43805.0026620370 00:03:50/06-Dec-2019     521.2900      58.1484      23.2600      -999.25      36.0000       0.0000       0.0000      49.7112      13.0000       1.0833
 43805.0027777778 00:04:00/06-Dec-2019     522.3100      56.6662      22.2400      -999.25      -999.25      -999.25      -999.25      49.7802      13.0000       1.0824
 43805.0028935185 00:04:10/06-Dec-2019     521.8700      58.6042      22.6800      -999.25      -999.25      -999.25      -999.25      49.7112      13.0000       1.0815
 43805.0030092593 00:04:20/06-Dec-2019     521.4700      61.4250      23.0800      -999.25      -999.25      -999.25      -999.25      49.7112      13.0000       1.0828
 43805.0031250000 00:04:30/06-Dec-2019     521.2600      61.9442      23.2900      80.0000      -999.25       0.0000       0.0000      49.7112      13.0000       1.0834
 43805.0032407407 00:04:40/06-Dec-2019     522.5600      57.7888      21.9900      -999.25      27.0000      -999.25      -999.25      49.7112      13.0000       1.0804
 43805.0033564815 00:04:50/06-Dec-2019     522.1500      55.5518      22.4000      -999.25      -999.25      -999.25      -999.25      49.7112      13.0000       1.0812
 43805.0034722222 00:05:00/06-Dec-2019     522.0800      57.6639      22.4700      -999.25      -999.25      -999.25      -999.25      49.7112      13.0000       1.0816
 43805.0035879630 00:05:10/06-Dec-2019     522.9800      56.8528      21.5700      81.0000      -999.25       0.0000       0.0000      49.7112      13.0000       1.0794
 43805.0037037037 00:05:20/06-Dec-2019     522.2800      56.7289      22.2700      -999.25      33.0000      -999.25      -999.25      49.7802      13.0000       1.0824
 43805.0038194444 00:05:30/06-Dec-2019     523.3000      57.3501      21.2500      -999.25      -999.25      -999.25      -999.25      49.7802      13.0000       1.0803
 43805.0039351852 00:05:40/06-Dec-2019     523.3600      56.8312      21.1900      -999.25      -999.25      -999.25      -999.25      49.7802      13.0000       1.0799
 43805.0040509259 00:05:50/06-Dec-2019     522.7800      56.9184      21.7700      -999.25      -999.25      -999.25      -999.25      49.7802      13.0000       1.0812
