~VERSION INFORMATION 
VERS  .    2.0                                     :CWLS Log ASCII Standard - VERSION 2.0
WRAP  .    NO                                      :One Line per Time step
PROD  .    Schlumberger Technology Corp.           :LAS Producer
PROG  .    Horizon LASWriter 9.2.113335.3100       :LAS Program name and version
SOURCE.    Run 13-TimeLogicalAcq                   :Run&Pass Information
CREA  .    01/21/2020                              :LAS Creation date {MM/DD/YYYY}
#--------------------------------------------------
~WELL INFORMATION 
#MNEM           .UNIT                      DATA            :DESCRIPTION
#----            ------          --------------            -----------------------------
STRT            .d               43844.3958333334          :START TIME(OLE Automation date)
STOP            .d               43845.1666666667          :STOP TIME(OLE Automation date)
STEP            .d                            0            :STEP TIME(10s in time)
NULL            .                       -999.25            :NULL VALUE
COMP            .                       Equinor            :COMPANY
WELL            .                        31/5-7            :WELL NAME
FLD             .                           Eos            :FIELD NAME
RIGN            .                 West Hercules            :Rig Name
RIGTYP          .                Semi-Submersible          :Rig Type
SON             .                     19SCA0085            :Service Order Number
SRVC            .                  Schlumberger            :SERVICE COMPANY
DATE            .                    01/13/2020            :LOG DATE(Composite Date for Composite LAP) (MM/DD/YYYY)
CLAB            .                       County:            :County Label
CNTY            .                                          :COUNTY
SLAB            .                                          :State/Province Label
STAT            .                                          :STATE or PROVINCE
PROV            .                                          :STATE or PROVINCE
CTRY            .                        Norway            :COUNTRY
CONT_REGION     .                        Europe            :Continent Region
SECT            .                                          :Section
TOWN            .                                          :Township
RANG            .                                          :Range
API             .                                          :API NUMBER
UWI             .                                          :UNIQUE WELL ID
LUL             .                Service Office            :Logging Unit Location
LUN             .                          A615            :Logging Unit Number
LOC             .                Norwegian North Sea       :FIELD LOCATION
FL1             .                Section: 8 1/2 in.        :Field Location Line 1
FL2             .                Job no.: 19SCA0085        :Field Location Line 2
LATI            .deg             60° 34' 35.14" N          :LATITUDE
LONG            .deg             3° 26' 36.13" E           :LONGITUDE
PDAT            .                           MSL            :Local Permanent Datum
LMF             .                            DF            :Logging Measured From
APD             .m                        31.00            :Elevation of Depth Reference (LMF) Above Permanent Datum
EPD             .m                         0.00            :Elevation of Permanent Datum (PDAT) above Mean Sea Level
EKB             .m                      -999.25            :Elevation of Kelly Bushing Above Permanent Datum
EDF             .m                        31.00            :Elevation of Drill Floor Above Permanent Datum
EGL             .m                      -307.00            :Elevation of Ground Level Above Permanent Datum
ECF             .m                      -999.25            :Elevation of Casing Flange above Permanent Datum
#--------------------------------------------------
~CURVE INFORMATION
#MNEM           .UNIT                  API CODE            :DESCRIPTION
#----            ------          --------------            -----------------------------
TIME_1900       .d                                         :                                                        Time Index(OLE Automation date)
TIME            .s                                         :                                (10s)                   Time(hh mm ss/dd-MMM-yyyy)
DEPTH           .m                                         :(RT)    (DnMWorkflow)                                   Depth Index
BLKP            .m                                         :(RT)    (DRILLING_SURFACE)                              Height of block above rig floor
GR              .gAPI                                      :(RT)    (ARC6)                                          Gamma Ray
CRPM            .c/min                                     :(RT)    (TELE675)                                       Collar Rotational Speed
STICK           .c/min                                     :(RT)    (TELE675)                                       Stick Slip Indicator
SHKRSK          .                                          :(RT)    (TELE675)                                       Shock Risk
SHKPK           .gn                                        :(RT)    (TELE675)                                       Shock Peak
DHAT            .degC                                      :(RM)    (ARC6)                                          Downhole Annulus Temperature
DHAP            .bar                                       :(RM)    (ARC6)                                          Downhole Annulus Pressure
ECD             .g/cm3                                     :(RM)    (ARC6)                                          Equivalent Circulating Density
#-------------------------------------------------------------
#       TIME_1900                 TIME        DEPTH         BLKP           GR         CRPM        STICK       SHKRSK        SHKPK         DHAT         DHAP          ECD 
#                                       (DnMWorkfl)  (DRILLING_)       (ARC6)    (TELE675)    (TELE675)    (TELE675)    (TELE675)       (ARC6)       (ARC6)       (ARC6) 
#                                              (RT)         (RT)         (RT)         (RT)         (RT)         (RT)         (RT)         (RM)         (RM)         (RM) 
#                                (10s)                                                                                                                                   
~ASCII
# ...
 43844.7569444444 18:10:00/14-Jan-2020   2860.23999     11.46000     97.24035      -999.25      -999.25      -999.25      -999.25     48.00000    345.49630      1.23558
 43844.7570601852 18:10:10/14-Jan-2020   2860.03979     11.66000     92.92641      -999.25      -999.25      -999.25      -999.25     48.00000    345.28950      1.23493
 43844.7571759259 18:10:20/14-Jan-2020   2860.30981     11.39000     91.74474      -999.25      -999.25      -999.25      -999.25     48.00000    344.18630      1.23086
 43844.7572916667 18:10:30/14-Jan-2020   2860.58008     11.12000     93.01069    162.00000      -999.25      -999.25      -999.25     48.00000    345.84100      1.23667
 43844.7574074074 18:10:40/14-Jan-2020   2860.65991     11.04000     93.13881      -999.25    372.00000      0.00000      0.00000     48.00000    343.91050      1.22973
 43844.7575231481 18:10:50/14-Jan-2020   2860.92017     10.78000     89.85815      -999.25      -999.25      -999.25      -999.25     48.00000    344.25520      1.23084
 43844.7576388889 18:11:00/14-Jan-2020   2860.27002     11.43000     85.84434      -999.25      -999.25      -999.25      -999.25     48.00000    345.08260      1.23408
 43844.7577546296 18:11:10/14-Jan-2020   2861.17993     10.43000     81.94326      -999.25      -999.25      -999.25      -999.25     48.00000    343.70360      1.22876
 43844.7578703704 18:11:20/14-Jan-2020   2861.80005     10.08000     77.84516      -999.25      -999.25      -999.25      -999.25     48.00000    344.53100      1.23145
 43844.7579861111 18:11:30/14-Jan-2020   2860.87988     10.82000     72.21347    191.00000    381.00000      -999.25      -999.25     48.00000    344.87570      1.23308
 43844.7581018518 18:11:40/14-Jan-2020   2861.23999     10.46000     68.92784      -999.25      -999.25      0.00000      0.00000     48.00000    343.56570      1.22825
 43844.7582175926 18:11:50/14-Jan-2020   2860.20996     11.49000     69.03145      -999.25      -999.25      -999.25      -999.25     48.00000    345.08260      1.23411
 43844.7583333333 18:12:00/14-Jan-2020   2861.22021     10.48000     68.88946      -999.25      -999.25      -999.25      -999.25     48.00000    344.73790      1.23244
 43844.7584490741 18:12:10/14-Jan-2020   2861.02002     10.68000     68.50359      -999.25      -999.25      -999.25      -999.25     48.00000    343.70360      1.22883
 43844.7585648148 18:12:20/14-Jan-2020   2861.19995     10.50000     68.58842    208.00000      -999.25      -999.25      -999.25     48.00000    345.91000      1.23665
 43844.7586805556 18:12:30/14-Jan-2020   2860.54004     11.16000     68.97758      -999.25    381.00000      0.00000      0.00000     48.00000    345.08260      1.23397
 43844.7587962963 18:12:40/14-Jan-2020   2860.33008     11.37000     68.68499      -999.25      -999.25      -999.25      -999.25     48.00000    344.94470      1.23357
 43844.7589120370 18:12:50/14-Jan-2020   2860.87988     10.82000     67.34385      -999.25      -999.25      -999.25      -999.25     48.00000    345.77210      1.23628
 43844.7590277778 18:13:00/14-Jan-2020   2861.53003     10.17000     64.03907      -999.25      -999.25      -999.25      -999.25     48.00000    344.11730      1.23009
 43844.7591435185 18:13:10/14-Jan-2020   2862.06982      9.63000     59.99539    153.00000      -999.25      -999.25      -999.25     48.00000    343.97950      1.22936
 43844.7592592593 18:13:20/14-Jan-2020   2861.59985     10.10000     55.74572      -999.25    357.00000      -999.25      -999.25     48.00000    344.94470      1.23302
 43844.7593750000 18:13:30/14-Jan-2020   2861.67993     10.02000     54.10291      -999.25      -999.25      0.00000      0.00000     48.00000    344.66890      1.23200
 43844.7594907407 18:13:40/14-Jan-2020   2861.10986     10.59000     55.58854      -999.25      -999.25      -999.25      -999.25     48.00000    344.60000      1.23200
 43844.7596064815 18:13:50/14-Jan-2020   2861.37988     10.32000     57.28861      -999.25      -999.25      -999.25      -999.25     48.00000    345.56520      1.23533
 43844.7597222222 18:14:00/14-Jan-2020   2861.07983     10.43000     55.70840      -999.25      -999.25      -999.25      -999.25     48.00000    344.60000      1.23200
 43844.7598379630 18:14:10/14-Jan-2020   2861.54004      9.98000     51.51214    184.00000      -999.25      -999.25      -999.25     48.00000    344.53100      1.23155
 43844.7599537037 18:14:20/14-Jan-2020   2862.36987      9.15000     48.23148      -999.25    372.00000      0.00000      0.00000     48.00000    344.80680      1.23219
 43844.7600694444 18:14:30/14-Jan-2020   2862.08008      9.63000     48.35960      -999.25      -999.25      -999.25      -999.25     48.00000    343.70360      1.22837
 43844.7601851852 18:14:40/14-Jan-2020   2862.90015      8.81000     50.56619      -999.25      -999.25      -999.25      -999.25     48.00000    343.91050      1.22876
 43844.7603009259 18:14:50/14-Jan-2020   2861.86987     10.03000     52.56832      -999.25      -999.25      -999.25      -999.25     48.00000    345.22050      1.23389
 43844.7604166667 18:15:00/14-Jan-2020   2862.13989      9.66000     53.63696    175.00000      -999.25      -999.25      -999.25     48.00000    344.60000      1.23156
 43844.7605324074 18:15:10/14-Jan-2020   2861.27002     10.43000     53.33105      -999.25    381.00000      -999.25      -999.25     48.00000    344.87570      1.23291
 43844.7606481481 18:15:20/14-Jan-2020   2861.72998      9.97000     53.00249      -999.25      -999.25      0.00000      0.00000     48.00000    345.77210      1.23592
 43844.7607638889 18:15:30/14-Jan-2020   2861.81982      9.88000     52.75558      -999.25      -999.25      -999.25      -999.25     48.00000    344.73790      1.23218
 43844.7608796296 18:15:40/14-Jan-2020   2862.36987      9.33000     52.31142      -999.25      -999.25      -999.25      -999.25     48.00000    344.66890      1.23169
 43844.7609953704 18:15:50/14-Jan-2020   2862.06982      9.63000     51.64127      -999.25      -999.25      -999.25      -999.25     48.00000    346.25470      1.23749
 43844.7611111111 18:16:00/14-Jan-2020   2862.06006      9.64000     50.84425    183.00000      -999.25      -999.25      -999.25     48.00000    344.66890      1.23183
 43844.7612268519 18:16:10/14-Jan-2020   2862.23999      9.37000     50.41815      -999.25    378.00000      0.00000      0.00000     48.00000    345.42730      1.23446
 43844.7613425926 18:16:20/14-Jan-2020   2862.03979      9.48000     50.84425      -999.25      -999.25      -999.25      -999.25     48.00000    345.91000      1.23627
 43844.7614583333 18:16:30/14-Jan-2020   2862.58984      9.11000     52.44174      -999.25      -999.25      -999.25      -999.25     48.00000    345.01370      1.23283
 43844.7615740741 18:16:40/14-Jan-2020   2862.58008      9.12000     55.41595      -999.25      -999.25      -999.25      -999.25     48.00000    345.49630      1.23456
 43844.7616898148 18:16:50/14-Jan-2020   2863.12012      8.58000     57.72879    156.00000      -999.25      -999.25      -999.25     48.00000    345.70310      1.23506
 43844.7618055556 18:17:00/14-Jan-2020   2863.37012      8.33000     60.38923      -999.25    381.00000      -999.25      -999.25     48.00000    343.84160      1.22831
 43844.7619212963 18:17:10/14-Jan-2020   2863.07007      8.63000     66.96048      -999.25      -999.25      0.00000      0.00000     48.00000    344.87570      1.23214
 43844.7620370370 18:17:20/14-Jan-2020   2862.66992      9.03000     75.35622      -999.25      -999.25      -999.25      -999.25     48.00000    345.42730      1.23428
 43844.7621527778 18:17:30/14-Jan-2020   2863.02002      8.68000     81.64175      -999.25      -999.25      -999.25      -999.25     48.00000    343.91050      1.22872
 43844.7622685185 18:17:40/14-Jan-2020   2862.60986      9.09000     87.02677      -999.25      -999.25      -999.25      -999.25     48.00000    345.84100      1.23579
 43844.7623842593 18:17:50/14-Jan-2020   2863.07007      8.63000     85.43754    202.00000      -999.25      -999.25      -999.25     48.00000    344.87570      1.23214
