~VERSION INFORMATION 
VERS  .    2.0                                     :CWLS Log ASCII Standard - VERSION 2.0
WRAP  .    NO                                      :One Line per Time step
PROD  .    Schlumberger Technology Corp.           :LAS Producer
PROG  .    Horizon LASWriter 9.2.113335.3100       :LAS Program name and version
SOURCE.    Run 2-TimeLogicalAcq                    :Run&Pass Information
CREA  .    12/11/2019                              :LAS Creation date {MM/DD/YYYY}
#--------------------------------------------------
~WELL INFORMATION 
#MNEM           .UNIT                      DATA            :DESCRIPTION
#----            ------          --------------            -----------------------------
STRT            .d               43803.0416666667          :START TIME(OLE Automation date)
STOP            .d               43803.8437500000          :STOP TIME(OLE Automation date)
STEP            .d                            0            :STEP TIME(10s in time)
NULL            .                       -999.25            :NULL VALUE
COMP            .                       Equinor            :COMPANY
WELL            .                        31/5-7            :WELL NAME
FLD             .                           Eos            :FIELD NAME
RIGN            .                 West Hercules            :Rig Name
RIGTYP          .                Semi-Submersible          :Rig Type
SON             .                     19SCA0085            :Service Order Number
SRVC            .                  Schlumberger            :SERVICE COMPANY
DATE            .                    12/04/2019            :LOG DATE(Composite Date for Composite LAP) (MM/DD/YYYY)
CLAB            .                       County:            :County Label
CNTY            .                                          :COUNTY
SLAB            .                                          :State/Province Label
STAT            .                                          :STATE or PROVINCE
PROV            .                                          :STATE or PROVINCE
CTRY            .                        Norway            :COUNTRY
CONT_REGION     .                        Europe            :Continent Region
SECT            .                                          :Section
TOWN            .                                          :Township
RANG            .                                          :Range
API             .                                          :API NUMBER
UWI             .                                          :UNIQUE WELL ID
LUL             .                Service Office            :Logging Unit Location
LUN             .                          A615            :Logging Unit Number
LOC             .                Norwegian North Sea       :FIELD LOCATION
FL1             .                Section: 8 1/2 in. pilot  :Field Location Line 1
FL2             .                Job no.: 19SCA0085        :Field Location Line 2
LATI            .deg             60° 34' 35.14" N          :LATITUDE
LONG            .deg             3° 26' 36.13" E           :LONGITUDE
PDAT            .                           MSL            :Local Permanent Datum
LMF             .                            DF            :Logging Measured From
APD             .m                        31.00            :Elevation of Depth Reference (LMF) Above Permanent Datum
EPD             .m                         0.00            :Elevation of Permanent Datum (PDAT) above Mean Sea Level
EKB             .m                      -999.25            :Elevation of Kelly Bushing Above Permanent Datum
EDF             .m                        31.00            :Elevation of Drill Floor Above Permanent Datum
EGL             .m                      -307.00            :Elevation of Ground Level Above Permanent Datum
ECF             .m                      -999.25            :Elevation of Casing Flange above Permanent Datum
#--------------------------------------------------
~CURVE INFORMATION
#MNEM           .UNIT                  API CODE            :DESCRIPTION
#----            ------          --------------            -----------------------------
TIME_1900       .d                                         :                                                        Time Index(OLE Automation date)
TIME            .s                                         :                                (10s)                   Time(hh mm ss/dd-MMM-yyyy)
DEPTH           .m                                         :(RT)    (DnMWorkflow)                                   Depth Index
GR              .gAPI                                      :(RT)    (DV6MT)                                         Gamma Ray
BLKP            .m                                         :(RT)    (DRILLING_SURFACE)                              Height of block above rig floor
STICK           .c/min                                     :(RT)    (TELE675)                                       Stick Slip Indicator
CRPM            .c/min                                     :(RT)    (TELE675)                                       Collar Rotational Speed
SHKRSK          .                                          :(RT)    (TELE675)                                       Shock Risk
SHKPK           .gn                                        :(RT)    (TELE675)                                       Shock Peak
ECD             .g/cm3                                     :(RM)    (DV6MT)                                         Equivalent Circulating Density
DHAT            .degC                                      :(RM)    (DV6MT)                                         Downhole Annulus Temperature
DHAP            .bar                                       :(RM)    (DV6MT)                                         Downhole Annulus Pressure
#-------------------------------------------------------------
#       TIME_1900                 TIME        DEPTH           GR         BLKP        STICK         CRPM       SHKRSK        SHKPK          ECD         DHAT         DHAP 
#                                       (DnMWorkfl)      (DV6MT)  (DRILLING_)    (TELE675)    (TELE675)    (TELE675)    (TELE675)      (DV6MT)      (DV6MT)      (DV6MT) 
#                                              (RT)         (RT)         (RT)         (RT)         (RT)         (RT)         (RT)         (RM)         (RM)         (RM) 
#                                (10s)                                                                                                                                   
~ASCII
# ...
 43803.0805555556 01:56:00/04-Dec-2019     423.8500      66.0561      35.1600      -999.25      -999.25       0.0000       0.0000       1.0723      12.0000      40.4722
 43803.0806712963 01:56:10/04-Dec-2019     424.0700      66.4211      34.9400      -999.25      -999.25      -999.25      -999.25       1.0679      12.0000      40.3343
 43803.0807870370 01:56:20/04-Dec-2019     424.1900      67.7255      34.8200      -999.25      -999.25      -999.25      -999.25       1.0826      12.0000      40.8859
 43803.0809027778 01:56:30/04-Dec-2019     424.2300      68.8806      34.7800      -999.25      63.0000      -999.25      -999.25       1.0711      12.0000      40.4722
 43803.0810185185 01:56:40/04-Dec-2019     424.2600      70.5500      34.7500      69.0000      -999.25      -999.25      -999.25       1.0671      12.0000      40.3343
 43803.0811342593 01:56:50/04-Dec-2019     424.4800      71.3402      34.5300      -999.25      -999.25      -999.25      -999.25       1.0723      12.0000      40.5412
 43803.0812500000 01:57:00/04-Dec-2019     424.6000      71.7051      34.4100      -999.25      -999.25      -999.25      -999.25       1.0701      12.0000      40.4722
 43803.0813657407 01:57:10/04-Dec-2019     424.5400      71.3402      34.4700      -999.25      -999.25      -999.25      -999.25       1.0758      12.0000      40.6791
 43803.0814814815 01:57:20/04-Dec-2019     424.7600      70.0358      34.2500      -999.25      -999.25      -999.25      -999.25       1.0733      12.0000      40.6101
 43803.0815972222 01:57:30/04-Dec-2019     424.9800      68.8806      34.0300      -999.25      -999.25      -999.25      -999.25       1.0671      12.0000      40.4033
 43803.0817129630 01:57:40/04-Dec-2019     424.9200      67.2113      34.0900      -999.25      -999.25      -999.25      -999.25       1.0729      12.0000      40.6101
 43803.0818287037 01:57:50/04-Dec-2019     424.9500      66.4211      34.0600      -999.25      -999.25      -999.25      -999.25       1.0757      12.0000      40.7480
 43803.0819444444 01:58:00/04-Dec-2019     425.3500      67.4632      33.6600      -999.25      -999.25       0.0000      47.9675       1.0662      12.0000      40.4033
 43803.0820601852 01:58:10/04-Dec-2019     425.7500      68.8064      33.2600      -999.25      -999.25      -999.25      -999.25       1.0658      12.0000      40.4033
 43803.0821759259 01:58:20/04-Dec-2019     425.6900      69.3557      33.3200      -999.25      -999.25      -999.25      -999.25       1.0707      12.0000      40.6101
 43803.0822916667 01:58:30/04-Dec-2019     425.7300      69.5293      33.2800      -999.25      60.0000      -999.25      -999.25       1.0657      12.0000      40.4033
 43803.0824074074 01:58:40/04-Dec-2019     425.4800      69.1000      33.5300      30.0000      -999.25      -999.25      -999.25       1.0749      12.0000      40.7480
 43803.0825231481 01:58:50/04-Dec-2019     425.6100      68.5256      33.4000      -999.25      -999.25      -999.25      -999.25       1.0811      12.0000      41.0238
 43803.0826388889 01:59:00/04-Dec-2019     425.9200      -999.25      33.0900      -999.25      -999.25      -999.25      -999.25       1.0828      12.0000      41.0928
 43803.0827546296 01:59:10/04-Dec-2019     425.9500      -999.25      33.0600      -999.25      -999.25      -999.25      -999.25       1.0754      12.0000      40.8170
 43803.0828703704 01:59:20/04-Dec-2019     426.2600      -999.25      32.7500      -999.25      -999.25      -999.25      -999.25       1.0655      12.0000      40.4722
 43803.0829861111 01:59:30/04-Dec-2019     426.5700      -999.25      32.4400      -999.25      -999.25      -999.25      -999.25       1.0762      12.0000      40.8859
 43803.0831018519 01:59:40/04-Dec-2019     426.4200      -999.25      32.5900      -999.25      -999.25      -999.25      -999.25       1.0742      12.0000      40.8170
 43803.0832175926 01:59:50/04-Dec-2019     426.4600      71.5036      32.5500      -999.25      -999.25      -999.25      -999.25       1.0722      12.0000      40.7480
 43803.0833333333 02:00:00/04-Dec-2019     426.6700      70.6531      32.3400      -999.25      -999.25       0.0000       0.0000       1.0807      12.0000      41.0928
 43803.0834490741 02:00:10/04-Dec-2019     426.7900      70.9095      32.2200      -999.25      -999.25      -999.25      -999.25       1.0659      12.0000      40.5412
 43803.0835648148 02:00:20/04-Dec-2019     426.9200      71.6324      32.0900      -999.25      59.0000      -999.25      -999.25       1.0746      12.0000      40.8859
 43803.0836805556 02:00:30/04-Dec-2019     427.0500      71.6324      31.9600      -999.25      -999.25      -999.25      -999.25       1.0797      12.0000      41.0928
 43803.0837962963 02:00:40/04-Dec-2019     427.1700      70.9095      31.8500      24.0000      -999.25      -999.25      -999.25       1.0685      12.0000      40.6791
 43803.0839120370 02:00:50/04-Dec-2019     427.3000      69.9755      31.7200      -999.25      -999.25      -999.25      -999.25       1.0717      12.0000      40.8170
 43803.0840277778 02:01:00/04-Dec-2019     427.4300      69.1561      31.6000      -999.25      -999.25      -999.25      -999.25       1.0804      12.0000      41.1617
 43803.0841435185 02:01:10/04-Dec-2019     427.5400      70.7110      31.4700      -999.25      -999.25      -999.25      -999.25       1.0714      12.0000      40.8170
 43803.0842592593 02:01:20/04-Dec-2019     427.4900      75.1225      31.5300      -999.25      -999.25      -999.25      -999.25       1.0983      12.0000      41.8512
 43803.0843750000 02:01:30/04-Dec-2019     427.7100      76.3035      31.3100      -999.25      -999.25      -999.25      -999.25       1.0832      12.0000      41.2996
 43803.0844907407 02:01:40/04-Dec-2019     427.9200      74.9322      31.0900      -999.25      -999.25      -999.25      -999.25       1.0827      12.0000      41.2996
 43803.0846064815 02:01:50/04-Dec-2019     427.9600      73.4949      31.0500      -999.25      -999.25       0.0000       0.0000       1.0917      12.0000      41.6443
 43803.0847222222 02:02:00/04-Dec-2019     427.9900      71.7553      31.0200      -999.25      -999.25      -999.25      -999.25       1.0969      12.0000      41.8512
 43803.0848379630 02:02:10/04-Dec-2019     427.9300      70.7643      30.9900      -999.25      -999.25      -999.25      -999.25       1.1003      12.0000      41.9891
 43803.0849537037 02:02:20/04-Dec-2019     428.3300      70.3351      30.6900      -999.25      59.0000      -999.25      -999.25       1.1140      12.0000      42.5407
 43803.0850694444 02:02:30/04-Dec-2019     428.3700      70.5086      30.6500      -999.25      -999.25      -999.25      -999.25       1.0922      12.0000      41.7133
 43803.0851851852 02:02:40/04-Dec-2019     428.4000      71.0579      30.7100      21.0000      -999.25      -999.25      -999.25       1.1031      12.0000      42.1270
 43803.0853009259 02:02:50/04-Dec-2019     428.5200      71.6782      30.4900      -999.25      -999.25      -999.25      -999.25       1.0844      12.0000      41.4375
 43803.0854166667 02:03:00/04-Dec-2019     428.7400      71.5581      30.2700      -999.25      -999.25      -999.25      -999.25       1.0804      12.0000      41.2996
 43803.0855324074 02:03:10/04-Dec-2019     428.8600      70.7643      30.1500      -999.25      -999.25      -999.25      -999.25       1.0887      12.0000      41.6443
 43803.0856481481 02:03:20/04-Dec-2019     428.8100      70.3351      30.2100      -999.25      -999.25      -999.25      -999.25       1.0910      12.0000      41.7133
 43803.0857638889 02:03:30/04-Dec-2019     428.9300      70.5086      30.0800      -999.25      -999.25      -999.25      -999.25       1.0817      12.0000      41.3685
 43803.0858796296 02:03:40/04-Dec-2019     429.1500      71.0579      29.8700      -999.25      -999.25      -999.25      -999.25       1.0788      12.0000      41.2996
 43803.0859953704 02:03:50/04-Dec-2019     429.3600      71.6782      29.6500      -999.25      -999.25       0.0000       0.0000       1.0967      12.0000      41.9891
