~VERSION INFORMATION 
VERS  .    2.0                                     :CWLS Log ASCII Standard - VERSION 2.0
WRAP  .    NO                                      :One Line per Time step
PROD  .    Schlumberger Technology Corp.           :LAS Producer
PROG  .    Horizon LASWriter 9.2.113335.3100       :LAS Program name and version
SOURCE.    Run 10-TimeLogicalAcq                   :Run&Pass Information
CREA  .    01/21/2020                              :LAS Creation date {MM/DD/YYYY}
#--------------------------------------------------
~WELL INFORMATION 
#MNEM           .UNIT                      DATA            :DESCRIPTION
#----            ------          --------------            -----------------------------
STRT            .d               43830.7500000000          :START TIME(OLE Automation date)
STOP            .d               43831.2291666667          :STOP TIME(OLE Automation date)
STEP            .d                            0            :STEP TIME(10s in time)
NULL            .                       -999.25            :NULL VALUE
COMP            .                       Equinor            :COMPANY
WELL            .                        31/5-7            :WELL NAME
FLD             .                           Eos            :FIELD NAME
RIGN            .                 West Hercules            :Rig Name
RIGTYP          .                Semi-Submersible          :Rig Type
SON             .                     19SCA0085            :Service Order Number
SRVC            .                  Schlumberger            :SERVICE COMPANY
DATE            .                    12/31/2019            :LOG DATE(Composite Date for Composite LAP) (MM/DD/YYYY)
CLAB            .                       County:            :County Label
CNTY            .                                          :COUNTY
SLAB            .                                          :State/Province Label
STAT            .                                          :STATE or PROVINCE
PROV            .                                          :STATE or PROVINCE
CTRY            .                        Norway            :COUNTRY
CONT_REGION     .                        Europe            :Continent Region
SECT            .                                          :Section
TOWN            .                                          :Township
RANG            .                                          :Range
API             .                                          :API NUMBER
UWI             .                                          :UNIQUE WELL ID
LUL             .                Service Office            :Logging Unit Location
LUN             .                          A615            :Logging Unit Number
LOC             .                Norwegian North Sea       :FIELD LOCATION
FL1             .                Section: 8 1/2 in.        :Field Location Line 1
FL2             .                Job no.: 19SCA0085        :Field Location Line 2
LATI            .deg             60° 34' 35.14" N          :LATITUDE
LONG            .deg             3° 26' 36.13" E           :LONGITUDE
PDAT            .                           MSL            :Local Permanent Datum
LMF             .                            DF            :Logging Measured From
APD             .m                        31.00            :Elevation of Depth Reference (LMF) Above Permanent Datum
EPD             .m                         0.00            :Elevation of Permanent Datum (PDAT) above Mean Sea Level
EKB             .m                      -999.25            :Elevation of Kelly Bushing Above Permanent Datum
EDF             .m                        31.00            :Elevation of Drill Floor Above Permanent Datum
EGL             .m                      -307.00            :Elevation of Ground Level Above Permanent Datum
ECF             .m                      -999.25            :Elevation of Casing Flange above Permanent Datum
#--------------------------------------------------
~CURVE INFORMATION
#MNEM           .UNIT                  API CODE            :DESCRIPTION
#----            ------          --------------            -----------------------------
TIME_1900       .d                                         :                                                        Time Index(OLE Automation date)
TIME            .s                                         :                                (10s)                   Time(hh mm ss/dd-MMM-yyyy)
DEPTH           .m                                         :(RT)    (DnMWorkflow)                                   Depth Index
BLKP            .m                                         :(RT)    (DRILLING_SURFACE)                              Height of block above rig floor
GR              .gAPI                                      :(RT)    (ARC6)                                          Gamma Ray
CRPM            .c/min                                     :(RT)    (TELE675)                                       Collar Rotational Speed
STICK           .c/min                                     :(RT)    (TELE675)                                       Stick Slip Indicator
SHKRSK          .                                          :(RT)    (TELE675)                                       Shock Risk
SHKPK           .gn                                        :(RT)    (TELE675)                                       Shock Peak
DHAT            .degC                                      :(RM)    (ARC6)                                          Downhole Annulus Temperature
DHAP            .bar                                       :(RM)    (ARC6)                                          Downhole Annulus Pressure
ECD             .g/cm3                                     :(RM)    (ARC6)                                          Equivalent Circulating Density
#-------------------------------------------------------------
#       TIME_1900                 TIME        DEPTH         BLKP           GR         CRPM        STICK       SHKRSK        SHKPK         DHAT         DHAP          ECD 
#                                       (DnMWorkfl)  (DRILLING_)       (ARC6)    (TELE675)    (TELE675)    (TELE675)    (TELE675)       (ARC6)       (ARC6)       (ARC6) 
#                                              (RT)         (RT)         (RT)         (RT)         (RT)         (RT)         (RT)         (RM)         (RM)         (RM) 
#                                (10s)                                                                                                                                   
~ASCII
# ...
 43831.1944444444 04:40:00/01-Jan-2020   1466.91003      8.89000      -999.25      -999.25      -999.25      -999.25      -999.25     40.00000    169.26630      1.18379
 43831.1945601852 04:40:10/01-Jan-2020   1466.91003      3.45000      -999.25      -999.25      -999.25      -999.25      -999.25     40.00000    169.05950      1.18234
 43831.1946759259 04:40:20/01-Jan-2020   1466.91003      3.42000      -999.25      -999.25      -999.25      -999.25      -999.25     40.00000    169.12840      1.18282
 43831.1947916667 04:40:30/01-Jan-2020   1461.16992      8.87000      -999.25      -999.25      -999.25      -999.25      -999.25     40.00000    169.19730      1.18915
 43831.1949074074 04:40:40/01-Jan-2020   1446.55994     23.48000      -999.25      -999.25      -999.25      -999.25      -999.25     40.00000    165.81890      1.17730
 43831.1950231481 04:40:50/01-Jan-2020   1435.44995     34.59000      -999.25      -999.25      -999.25      -999.25      -999.25     40.00000    165.06050      1.17907
 43831.1951388889 04:41:00/01-Jan-2020   1428.15002     41.89000      -999.25      -999.25      -999.25      -999.25      -999.25     40.00000    164.09520      1.17883
 43831.1952546296 04:41:10/01-Jan-2020   1427.56995     42.47000      -999.25      -999.25      -999.25      -999.25      -999.25     40.00000    164.99150      1.18589
 43831.1953703704 04:41:20/01-Jan-2020   1427.56995     42.47000      -999.25      -999.25      -999.25      -999.25      -999.25     40.00000    164.57790      1.18289
 43831.1954861111 04:41:30/01-Jan-2020   1427.76001     42.28000      -999.25      -999.25      -999.25      -999.25      -999.25     40.00000    165.19840      1.18721
 43831.1956018518 04:41:40/01-Jan-2020   1427.76001     41.94000      -999.25      -999.25      -999.25      -999.25      -999.25     39.00000    163.75050      1.17681
 43831.1957175926 04:41:50/01-Jan-2020   1427.76001     29.14000      -999.25      -999.25      -999.25      -999.25      -999.25     39.00000    163.54360      1.17532
 43831.1958333333 04:42:00/01-Jan-2020   1427.76001     12.62000      -999.25      -999.25      -999.25      -999.25      -999.25     39.00000    163.81940      1.17730
 43831.1959490741 04:42:10/01-Jan-2020   1427.76001      9.03000      -999.25      -999.25      -999.25      -999.25      -999.25     39.00000    164.16420      1.17978
 43831.1960648148 04:42:20/01-Jan-2020   1427.76001      8.71000      -999.25      -999.25      -999.25      -999.25      -999.25     39.00000    164.99150      1.18573
 43831.1961805556 04:42:30/01-Jan-2020   1427.76001      3.43000      -999.25      -999.25      -999.25      -999.25      -999.25     39.00000    163.95730      1.17830
 43831.1962962963 04:42:40/01-Jan-2020   1427.76001      3.43000      -999.25      -999.25      -999.25      -999.25      -999.25     39.00000    163.75050      1.17681
 43831.1964120370 04:42:50/01-Jan-2020   1419.97009     10.94000      -999.25      -999.25      -999.25      -999.25      -999.25     39.00000    163.54360      1.18076
 43831.1965277778 04:43:00/01-Jan-2020   1403.59998     27.31000      -999.25      -999.25      -999.25      -999.25      -999.25     39.00000    161.26840      1.18005
 43831.1966435185 04:43:10/01-Jan-2020   1389.74011     41.17000      -999.25      -999.25      -999.25      -999.25      -999.25     39.00000    159.88940      1.18102
 43831.1967592593 04:43:20/01-Jan-2020   1388.44006     42.47000      -999.25      -999.25      -999.25      -999.25      -999.25     39.00000    159.88940      1.18181
 43831.1968750000 04:43:30/01-Jan-2020   1388.66003     42.25000      -999.25      -999.25      -999.25      -999.25      -999.25     39.00000    160.16520      1.18375
 43831.1969907407 04:43:40/01-Jan-2020   1388.66003     42.25000      -999.25      -999.25      -999.25      -999.25      -999.25     39.00000    159.75150      1.18060
 43831.1971064815 04:43:50/01-Jan-2020   1388.66003     40.37000      -999.25      -999.25      -999.25      -999.25      -999.25     39.00000    159.33780      1.17755
 43831.1972222222 04:44:00/01-Jan-2020   1388.66003     24.10000      -999.25      -999.25      -999.25      -999.25      -999.25     39.00000    159.68260      1.18009
 43831.1973379630 04:44:10/01-Jan-2020   1388.66003      9.96000      -999.25      -999.25      -999.25      -999.25      -999.25     39.00000    160.64780      1.18723
 43831.1974537037 04:44:20/01-Jan-2020   1388.66003      8.59000      -999.25      -999.25      -999.25      -999.25      -999.25     39.00000    160.57890      1.18672
 43831.1975694444 04:44:30/01-Jan-2020   1388.66003      7.23000      -999.25      -999.25      -999.25      -999.25      -999.25     39.00000    160.57890      1.18672
 43831.1976851852 04:44:40/01-Jan-2020   1388.66003      3.42000      -999.25      -999.25      -999.25      -999.25      -999.25     39.00000    160.51000      1.18621
 43831.1978009259 04:44:50/01-Jan-2020   1388.66003      3.84000      -999.25      -999.25      -999.25      -999.25      -999.25     39.00000    160.37210      1.18580
 43831.1979166667 04:45:00/01-Jan-2020   1377.60999     14.32000      -999.25      -999.25      -999.25      -999.25      -999.25     39.00000    160.23420      1.19257
 43831.1980324074 04:45:10/01-Jan-2020   1360.98010     30.95000      -999.25      -999.25      -999.25      -999.25      -999.25     39.00000    157.26940      1.18460
 43831.1981481481 04:45:20/01-Jan-2020   1350.60999     41.32000      -999.25      -999.25      -999.25      -999.25      -999.25     39.00000    155.40780      1.18079
 43831.1982638889 04:45:30/01-Jan-2020   1349.52002     42.41000      -999.25      -999.25      -999.25      -999.25      -999.25     39.00000    156.44200      1.18990
 43831.1983796296 04:45:40/01-Jan-2020   1349.52002     42.41000      -999.25      -999.25      -999.25      -999.25      -999.25     39.00000    156.02840      1.18672
 43831.1984953704 04:45:50/01-Jan-2020   1349.75000     42.18000      -999.25      -999.25      -999.25      -999.25      -999.25     39.00000    155.40780      1.18183
 43831.1986111111 04:46:00/01-Jan-2020   1349.75000     41.23000      -999.25      -999.25      -999.25      -999.25      -999.25     39.00000    155.82150      1.18498
 43831.1987268519 04:46:10/01-Jan-2020   1349.75000     26.64000      -999.25      -999.25      -999.25      -999.25      -999.25     39.00000    155.75260      1.18445
 43831.1988425926 04:46:20/01-Jan-2020   1349.75000     11.61000      -999.25      -999.25      -999.25      -999.25      -999.25     39.00000    155.06310      1.17921
 43831.1989583333 04:46:30/01-Jan-2020   1349.75000      8.71000      -999.25      -999.25      -999.25      -999.25      -999.25     39.00000    155.26990      1.18078
 43831.1990740741 04:46:40/01-Jan-2020   1349.75000      7.59000      -999.25      -999.25      -999.25      -999.25      -999.25     39.00000    155.75260      1.18445
 43831.1991898148 04:46:50/01-Jan-2020   1349.75000      3.43000      -999.25      -999.25      -999.25      -999.25      -999.25     39.00000    154.92520      1.17816
 43831.1993055556 04:47:00/01-Jan-2020   1348.73999      4.23000      -999.25      -999.25      -999.25      -999.25      -999.25     39.00000    155.13200      1.17973
 43831.1994212963 04:47:10/01-Jan-2020   1337.56006     15.41000      -999.25      -999.25      -999.25      -999.25      -999.25     39.00000    154.37360      1.18562
 43831.1995370370 04:47:20/01-Jan-2020   1321.23999     31.73000      -999.25      -999.25      -999.25      -999.25      -999.25     39.00000    152.02940      1.18329
 43831.1996527778 04:47:30/01-Jan-2020   1311.94995     41.02000      -999.25      -999.25      -999.25      -999.25      -999.25     39.00000    150.71940      1.17926
 43831.1997685185 04:47:40/01-Jan-2020   1310.48999     42.48000      -999.25      -999.25      -999.25      -999.25      -999.25     39.00000    151.47780      1.18667
 43831.1998842593 04:47:50/01-Jan-2020   1310.50000     42.47000      -999.25      -999.25      -999.25      -999.25      -999.25     39.00000    150.78830      1.18128
