~VERSION INFORMATION 
VERS  .    2.0                                     :CWLS Log ASCII Standard - VERSION 2.0
WRAP  .    NO                                      :One Line per Time step
PROD  .    Schlumberger Technology Corp.           :LAS Producer
PROG  .    Horizon LASWriter 9.2.113335.3100       :LAS Program name and version
SOURCE.    Run 5-TimeLogicalAcq                    :Run&Pass Information
CREA  .    12/20/2019                              :LAS Creation date {MM/DD/YYYY}
#--------------------------------------------------
~WELL INFORMATION 
#MNEM           .UNIT                      DATA            :DESCRIPTION
#----            ------          --------------            -----------------------------
STRT            .d               43815.4062500000          :START TIME(OLE Automation date)
STOP            .d               43816.7395833333          :STOP TIME(OLE Automation date)
STEP            .d                            0            :STEP TIME(10s in time)
NULL            .                       -999.25            :NULL VALUE
COMP            .                       Equinor            :COMPANY
WELL            .                        31/5-7            :WELL NAME
FLD             .                           Eos            :FIELD NAME
RIGN            .                 West Hercules            :Rig Name
RIGTYP          .                Semi-Submersible          :Rig Type
SON             .                     19SCA0085            :Service Order Number
SRVC            .                  Schlumberger            :SERVICE COMPANY
DATE            .                    12/16/2019            :LOG DATE(Composite Date for Composite LAP) (MM/DD/YYYY)
CLAB            .                       County:            :County Label
CNTY            .                                          :COUNTY
SLAB            .                                          :State/Province Label
STAT            .                                          :STATE or PROVINCE
PROV            .                                          :STATE or PROVINCE
CTRY            .                        Norway            :COUNTRY
CONT_REGION     .                        Europe            :Continent Region
SECT            .                                          :Section
TOWN            .                                          :Township
RANG            .                                          :Range
API             .                                          :API NUMBER
UWI             .                                          :UNIQUE WELL ID
LUL             .                Service Office            :Logging Unit Location
LUN             .                          A615            :Logging Unit Number
LOC             .                Norwegian North Sea       :FIELD LOCATION
FL1             .                Section: 12 1/4 in. pilot :Field Location Line 1
FL2             .                Job no.: 19SCA0085        :Field Location Line 2
LATI            .deg             60° 34' 35.14" N          :LATITUDE
LONG            .deg             3° 26' 36.13" E           :LONGITUDE
PDAT            .                           MSL            :Local Permanent Datum
LMF             .                            DF            :Logging Measured From
APD             .m                        31.00            :Elevation of Depth Reference (LMF) Above Permanent Datum
EPD             .m                         0.00            :Elevation of Permanent Datum (PDAT) above Mean Sea Level
EKB             .m                      -999.25            :Elevation of Kelly Bushing Above Permanent Datum
EDF             .m                        31.00            :Elevation of Drill Floor Above Permanent Datum
EGL             .m                      -307.00            :Elevation of Ground Level Above Permanent Datum
ECF             .m                      -999.25            :Elevation of Casing Flange above Permanent Datum
#--------------------------------------------------
~CURVE INFORMATION
#MNEM           .UNIT                  API CODE            :DESCRIPTION
#----            ------          --------------            -----------------------------
TIME_1900       .d                                         :                                                        Time Index(OLE Automation date)
TIME            .s                                         :                                (10s)                   Time(hh mm ss/dd-MMM-yyyy)
DEPTH           .m                                         :(RT)    (DnMWorkflow)                                   Depth Index
GR              .gAPI                                      :(RT)    (ARC9)                                          Gamma Ray
BLKP            .m                                         :(RT)    (DRILLING_SURFACE)                              Height of block above rig floor
STICK           .c/min                                     :(RT)    (TELE900)                                       Stick Slip Indicator
CRPM            .c/min                                     :(RT)    (TELE900)                                       Collar Rotational Speed
SHKRSK          .                                          :(RT)    (TELE900)                                       Shock Risk
SHKPK           .gn                                        :(RT)    (TELE900)                                       Shock Peak
ECD             .g/cm3                                     :(RM)    (ARC9)                                          Equivalent Circulating Density
DHAP            .bar                                       :(RM)    (ARC9)                                          Downhole Annulus Pressure
DHAT            .degC                                      :(RM)    (ARC9)                                          Downhole Annulus Temperature
#-------------------------------------------------------------
#       TIME_1900                 TIME        DEPTH           GR         BLKP        STICK         CRPM       SHKRSK        SHKPK          ECD         DHAP         DHAT 
#                                       (DnMWorkfl)       (ARC9)  (DRILLING_)    (TELE900)    (TELE900)    (TELE900)    (TELE900)       (ARC9)       (ARC9)       (ARC9) 
#                                              (RT)         (RT)         (RT)         (RT)         (RT)         (RT)         (RT)         (RM)         (RM)         (RM) 
#                                (10s)                                                                                                                                   
~ASCII
# ...
 43815.5451388889 13:05:00/16-Dec-2019     943.0099      94.1245      12.1500      -999.25      -999.25      -999.25      -999.25       1.2861     117.4867      20.0000
 43815.5452546296 13:05:10/16-Dec-2019     943.2700      84.4046      11.8900      -999.25      -999.25      -999.25      -999.25       1.2867     117.5556      20.0000
 43815.5453703704 13:05:20/16-Dec-2019     943.1500      81.7690      11.9200      -999.25      -999.25      -999.25      -999.25       1.2866     117.5556      20.0000
 43815.5454861111 13:05:30/16-Dec-2019     943.5900      79.4128      11.5800     165.0000      -999.25      -999.25      -999.25       1.2854     117.4867      20.0000
 43815.5456018519 13:05:40/16-Dec-2019     943.8500      78.8520      11.3100      -999.25      -999.25      -999.25      -999.25       1.2857     117.5556      20.0000
 43815.5457175926 13:05:50/16-Dec-2019     943.9200      83.3399      11.2500      -999.25      -999.25       0.0000       0.0000       1.2866     117.6246      20.0000
 43815.5458333333 13:06:00/16-Dec-2019     943.9000      87.7857      11.2700      -999.25      -999.25      -999.25      -999.25       1.2865     117.6246      20.0000
 43815.5459490741 13:06:10/16-Dec-2019     944.0601      86.9867      11.1100      -999.25      -999.25      -999.25      -999.25       1.2862     117.6246      20.0000
 43815.5460648148 13:06:20/16-Dec-2019     944.4100      83.0987      10.7600      -999.25      71.0000      -999.25      -999.25       1.2865     117.6935      20.0000
 43815.5461805556 13:06:30/16-Dec-2019     944.6600      78.5125      10.5100      -999.25      -999.25      -999.25      -999.25       1.2867     117.7625      20.0000
 43815.5462962963 13:06:40/16-Dec-2019     944.5500      78.6030      10.6200      -999.25      -999.25      -999.25      -999.25       1.2872     117.7625      20.0000
 43815.5464120370 13:06:50/16-Dec-2019     944.7100      85.6346      10.4600      -999.25      -999.25      -999.25      -999.25       1.2868     117.7625      20.0000
 43815.5465277778 13:07:00/16-Dec-2019     945.1500      88.8360      10.0200     168.0000      -999.25      -999.25      -999.25       1.2870     117.8314      20.0000
 43815.5466435185 13:07:10/16-Dec-2019     945.2200      93.0152       9.9400      -999.25      -999.25       0.0000       0.0000       1.2869     117.8314      20.0000
 43815.5467592593 13:07:20/16-Dec-2019     945.2800      96.2166       9.7900      -999.25      -999.25      -999.25      -999.25       1.2866     117.8314      20.0000
 43815.5468750000 13:07:30/16-Dec-2019     945.5400     101.2103       9.6200      -999.25      -999.25      -999.25      -999.25       1.2865     117.8314      20.0000
 43815.5469907407 13:07:40/16-Dec-2019     945.8000     101.9406       9.3700      -999.25      78.0000      -999.25      -999.25       1.2869     117.9004      20.0000
 43815.5471064815 13:07:50/16-Dec-2019     946.1400      99.6475       9.0200      -999.25      -999.25      -999.25      -999.25       1.2856     117.8314      20.0000
 43815.5472222222 13:08:00/16-Dec-2019     946.2100      97.7035       9.0400      -999.25      -999.25      -999.25      -999.25       1.2855     117.8314      20.0000
 43815.5473379630 13:08:10/16-Dec-2019     946.6500     100.7201       8.6000      -999.25      -999.25      -999.25      -999.25       1.2852     117.8314      20.0000
 43815.5474537037 13:08:20/16-Dec-2019     946.9900      98.7799       8.1700     159.0000      -999.25      -999.25      -999.25       1.2868     118.0382      20.0000
 43815.5475694444 13:08:30/16-Dec-2019     946.6100      90.9256       8.4600      -999.25      -999.25      -999.25      -999.25       1.2858     117.9004      20.0000
 43815.5476851852 13:08:40/16-Dec-2019     946.9500      83.0714       8.2100      -999.25      -999.25       0.0000       0.0000       1.2852     117.9004      20.0000
 43815.5478009259 13:08:50/16-Dec-2019     947.3000      78.8922       7.8700      -999.25      -999.25      -999.25      -999.25       1.2855     117.9693      20.0000
 43815.5479166667 13:09:00/16-Dec-2019     947.4600      77.5960       7.6100      -999.25      -999.25      -999.25      -999.25       1.2866     118.1072      20.0000
 43815.5480324074 13:09:10/16-Dec-2019     947.4500      75.5487       7.7200      -999.25      68.0000      -999.25      -999.25       1.2854     117.9693      20.0000
 43815.5481481481 13:09:20/16-Dec-2019     947.7800      79.4951       7.3800      -999.25      -999.25      -999.25      -999.25       1.2864     118.1072      20.0000
 43815.5482638889 13:09:30/16-Dec-2019     947.9500      85.8384       7.2200      -999.25      -999.25      -999.25      -999.25       1.2861     118.1072      20.0000
 43815.5483796296 13:09:40/16-Dec-2019     948.2000      87.6070       6.9600      -999.25      -999.25      -999.25      -999.25       1.2858     118.1072      20.0000
 43815.5484953704 13:09:50/16-Dec-2019     948.2800      78.2714       6.8900     168.0000      -999.25      -999.25      -999.25       1.2857     118.1072      20.0000
 43815.5486111111 13:10:00/16-Dec-2019     948.4300      76.1818       6.7200      -999.25      -999.25       0.0000       0.0000       1.2854     118.1072      20.0000
 43815.5487268518 13:10:10/16-Dec-2019     948.6100      82.3160       6.5600      -999.25      -999.25      -999.25      -999.25       1.2859     118.1761      20.0000
 43815.5488425926 13:10:20/16-Dec-2019     948.7700      87.3593       6.3900      -999.25      -999.25      -999.25      -999.25       1.2857     118.1761      20.0000
 43815.5489583333 13:10:30/16-Dec-2019     948.9200      90.7523       6.2400      -999.25      -999.25      -999.25      -999.25       1.2856     118.1761      20.0000
 43815.5490740741 13:10:40/16-Dec-2019     949.0900      90.1124       6.0700      -999.25      86.0000      -999.25      -999.25       1.2868     118.3140      20.0000
 43815.5491898148 13:10:50/16-Dec-2019     949.3400      84.1772       5.8200      -999.25      -999.25      -999.25      -999.25       1.2864     118.3140      20.0000
 43815.5493055556 13:11:00/16-Dec-2019     949.5900      83.8654       5.5700      -999.25      -999.25      -999.25      -999.25       1.2869     118.3830      20.0000
 43815.5494212963 13:11:10/16-Dec-2019     949.5800      83.8703       5.5800      -999.25      -999.25      -999.25      -999.25       1.2868     118.3830      20.0000
 43815.5495370370 13:11:20/16-Dec-2019     949.8300      81.9068       5.3300     153.0000      -999.25      -999.25      -999.25       1.2865     118.3830      20.0000
 43815.5496527778 13:11:30/16-Dec-2019     949.9000      79.9432       5.2600      -999.25      -999.25       0.0000       0.0000       1.2864     118.3830      20.0000
 43815.5497685185 13:11:40/16-Dec-2019     950.3400      78.8984       4.8300      -999.25      -999.25      -999.25      -999.25       1.2859     118.3830      20.0000
 43815.5498842593 13:11:50/16-Dec-2019     950.3199      79.9712       4.8500      -999.25      -999.25      -999.25      -999.25       1.2859     118.3830      20.0000
 43815.5500000000 13:12:00/16-Dec-2019     950.6600      80.0744       4.5100      -999.25      66.0000      -999.25      -999.25       1.2861     118.4519      20.0000
 43815.5501157407 13:12:10/16-Dec-2019     950.8300      73.8350       4.3400      -999.25      -999.25      -999.25      -999.25       1.2868     118.5209      20.0000
 43815.5502314815 13:12:20/16-Dec-2019     950.7200      67.2459       4.4500      -999.25      -999.25      -999.25      -999.25       1.2883     118.6588      20.0000
 43815.5503472222 13:12:30/16-Dec-2019     950.8800      69.3881       4.2900      -999.25      -999.25      -999.25      -999.25       1.2866     118.5209      20.0000
 43815.5504629630 13:12:40/16-Dec-2019     951.3100      85.7927       3.8600     165.0000      -999.25      -999.25      -999.25       1.2873     118.6588      20.0000
 43815.5505787037 13:12:50/16-Dec-2019     951.4700      92.0614       3.7000      -999.25      -999.25      -999.25      -999.25       1.2873     118.6588      20.0000
