~VERSION INFORMATION 
VERS  .    2.0                                     :CWLS Log ASCII Standard - VERSION 2.0
WRAP  .    NO                                      :One Line per Time step
PROD  .    Schlumberger Technology Corp.           :LAS Producer
PROG  .    Horizon LASWriter 9.2.113335.3100       :LAS Program name and version
SOURCE.    Run 10-TimeLogicalAcq                   :Run&Pass Information
CREA  .    01/21/2020                              :LAS Creation date {MM/DD/YYYY}
#--------------------------------------------------
~WELL INFORMATION 
#MNEM           .UNIT                      DATA            :DESCRIPTION
#----            ------          --------------            -----------------------------
STRT            .d               43830.7500000000          :START TIME(OLE Automation date)
STOP            .d               43831.2291666667          :STOP TIME(OLE Automation date)
STEP            .d                            0            :STEP TIME(10s in time)
NULL            .                       -999.25            :NULL VALUE
COMP            .                       Equinor            :COMPANY
WELL            .                        31/5-7            :WELL NAME
FLD             .                           Eos            :FIELD NAME
RIGN            .                 West Hercules            :Rig Name
RIGTYP          .                Semi-Submersible          :Rig Type
SON             .                     19SCA0085            :Service Order Number
SRVC            .                  Schlumberger            :SERVICE COMPANY
DATE            .                    12/31/2019            :LOG DATE(Composite Date for Composite LAP) (MM/DD/YYYY)
CLAB            .                       County:            :County Label
CNTY            .                                          :COUNTY
SLAB            .                                          :State/Province Label
STAT            .                                          :STATE or PROVINCE
PROV            .                                          :STATE or PROVINCE
CTRY            .                        Norway            :COUNTRY
CONT_REGION     .                        Europe            :Continent Region
SECT            .                                          :Section
TOWN            .                                          :Township
RANG            .                                          :Range
API             .                                          :API NUMBER
UWI             .                                          :UNIQUE WELL ID
LUL             .                Service Office            :Logging Unit Location
LUN             .                          A615            :Logging Unit Number
LOC             .                Norwegian North Sea       :FIELD LOCATION
FL1             .                Section: 8 1/2 in.        :Field Location Line 1
FL2             .                Job no.: 19SCA0085        :Field Location Line 2
LATI            .deg             60° 34' 35.14" N          :LATITUDE
LONG            .deg             3° 26' 36.13" E           :LONGITUDE
PDAT            .                           MSL            :Local Permanent Datum
LMF             .                            DF            :Logging Measured From
APD             .m                        31.00            :Elevation of Depth Reference (LMF) Above Permanent Datum
EPD             .m                         0.00            :Elevation of Permanent Datum (PDAT) above Mean Sea Level
EKB             .m                      -999.25            :Elevation of Kelly Bushing Above Permanent Datum
EDF             .m                        31.00            :Elevation of Drill Floor Above Permanent Datum
EGL             .m                      -307.00            :Elevation of Ground Level Above Permanent Datum
ECF             .m                      -999.25            :Elevation of Casing Flange above Permanent Datum
#--------------------------------------------------
~CURVE INFORMATION
#MNEM           .UNIT                  API CODE            :DESCRIPTION
#----            ------          --------------            -----------------------------
TIME_1900       .d                                         :                                                        Time Index(OLE Automation date)
TIME            .s                                         :                                (10s)                   Time(hh mm ss/dd-MMM-yyyy)
DEPTH           .m                                         :(RT)    (DnMWorkflow)                                   Depth Index
BLKP            .m                                         :(RT)    (DRILLING_SURFACE)                              Height of block above rig floor
GR              .gAPI                                      :(RT)    (ARC6)                                          Gamma Ray
CRPM            .c/min                                     :(RT)    (TELE675)                                       Collar Rotational Speed
STICK           .c/min                                     :(RT)    (TELE675)                                       Stick Slip Indicator
SHKRSK          .                                          :(RT)    (TELE675)                                       Shock Risk
SHKPK           .gn                                        :(RT)    (TELE675)                                       Shock Peak
DHAT            .degC                                      :(RM)    (ARC6)                                          Downhole Annulus Temperature
DHAP            .bar                                       :(RM)    (ARC6)                                          Downhole Annulus Pressure
ECD             .g/cm3                                     :(RM)    (ARC6)                                          Equivalent Circulating Density
#-------------------------------------------------------------
#       TIME_1900                 TIME        DEPTH         BLKP           GR         CRPM        STICK       SHKRSK        SHKPK         DHAT         DHAP          ECD 
#                                       (DnMWorkfl)  (DRILLING_)       (ARC6)    (TELE675)    (TELE675)    (TELE675)    (TELE675)       (ARC6)       (ARC6)       (ARC6) 
#                                              (RT)         (RT)         (RT)         (RT)         (RT)         (RT)         (RT)         (RM)         (RM)         (RM) 
#                                (10s)                                                                                                                                   
~ASCII
# ...
 43830.8944444444 21:28:00/31-Dec-2019   2602.78979     38.03000    132.44360     62.00000      -999.25      -999.25      -999.25     42.00000    303.23140      1.19207
 43830.8945601852 21:28:10/31-Dec-2019   2602.68994     38.14000    130.80080      -999.25    156.00000      0.00000      0.00000     42.00000    303.23140      1.19208
 43830.8946759259 21:28:20/31-Dec-2019   2602.77002     38.05000    129.41880      -999.25      -999.25      -999.25      -999.25     42.00000    303.16250      1.19175
 43830.8947916667 21:28:30/31-Dec-2019   2602.86987     37.95000    131.17010      -999.25      -999.25      -999.25      -999.25     42.00000    302.74880      1.19011
 43830.8949074074 21:28:40/31-Dec-2019   2602.89990     37.92000    133.77350      -999.25      -999.25      -999.25      -999.25     42.00000    302.95560      1.19092
 43830.8950231481 21:28:50/31-Dec-2019   2602.91016     37.91000    134.39350     59.00000      -999.25      -999.25      -999.25     42.00000    303.16250      1.19172
 43830.8951388889 21:29:00/31-Dec-2019   2602.91016     37.91000    134.09860      -999.25    141.00000      0.00000      0.00000     42.00000    303.23140      1.19199
 43830.8952546296 21:29:10/31-Dec-2019   2602.91016     37.91000    134.48550      -999.25      -999.25      -999.25      -999.25     42.00000    302.74880      1.19009
 43830.8953703704 21:29:20/31-Dec-2019   2602.91016     37.91000    135.37850      -999.25      -999.25      -999.25      -999.25     42.00000    303.43830      1.19281
 43830.8954861111 21:29:30/31-Dec-2019   2602.97998     37.84000    135.41270      -999.25      -999.25      -999.25      -999.25     42.00000    303.30040      1.19223
 43830.8956018519 21:29:40/31-Dec-2019   2602.95996     37.86000    133.41620      -999.25      -999.25      -999.25      -999.25     42.00000    303.23140      1.19197
 43830.8957175926 21:29:50/31-Dec-2019   2603.15015     37.67000    127.78450     62.00000      -999.25      -999.25      -999.25     42.00000    303.36930      1.19242
 43830.8958333333 21:30:00/31-Dec-2019   2602.86987     37.95000    124.49890      -999.25    162.00000      0.00000      0.00000     42.00000    303.30040      1.19228
 43830.8959490741 21:30:10/31-Dec-2019   2602.88989     37.93000    124.60250      -999.25      -999.25      -999.25      -999.25     42.00000    303.36930      1.19254
 43830.8960648148 21:30:20/31-Dec-2019   2602.93994     37.88000    125.62010      -999.25      -999.25      -999.25      -999.25     42.00000    303.16250      1.19162
 43830.8961805556 21:30:30/31-Dec-2019   2603.37012     37.45000    127.46830      -999.25      -999.25      -999.25      -999.25     42.00000    302.95560      1.19076
 43830.8962962963 21:30:40/31-Dec-2019   2603.30981     37.51000    132.74040     57.00000      -999.25      -999.25      -999.25     42.00000    303.09350      1.19126
 43830.8964120370 21:30:50/31-Dec-2019   2603.03003     37.79000    137.59730      -999.25    177.00000      0.00000      0.00000     42.00000    303.30040      1.19221
 43830.8965277778 21:31:00/31-Dec-2019   2603.16992     37.65000    139.04540      -999.25      -999.25      -999.25      -999.25     42.00000    303.98980      1.19486
 43830.8966435185 21:31:10/31-Dec-2019   2603.25000     37.57000    137.04590      -999.25      -999.25      -999.25      -999.25     42.00000    303.36930      1.19238
 43830.8967592593 21:31:20/31-Dec-2019   2603.21997     37.60000    129.23780      -999.25      -999.25      -999.25      -999.25     42.00000    303.09350      1.19131
 43830.8968750000 21:31:30/31-Dec-2019   2603.15015     37.67000    127.21540      -999.25      -999.25      -999.25      -999.25     42.00000    303.36930      1.19242
 43830.8969907407 21:31:40/31-Dec-2019   2603.25000     37.57000    129.97940     78.00000    201.00000      -999.25      -999.25     42.00000    302.95560      1.19075
 43830.8971064815 21:31:50/31-Dec-2019   2603.33984     37.48000    133.26500      -999.25      -999.25      0.00000      0.00000     42.00000    303.98980      1.19478
 43830.8972222222 21:32:00/31-Dec-2019   2603.46997     37.35000    136.02910      -999.25      -999.25      -999.25      -999.25     42.00000    303.09350      1.19123
 43830.8973379630 21:32:10/31-Dec-2019   2603.43018     37.40000    135.27400      -999.25      -999.25      -999.25      -999.25     42.00000    303.36930      1.19219
 43830.8974537037 21:32:20/31-Dec-2019   2603.10010     37.72000    134.95290      -999.25      -999.25      -999.25      -999.25     42.00000    303.98980      1.19479
 43830.8975694444 21:32:30/31-Dec-2019   2603.29004     37.53000    137.40790     83.00000      -999.25      -999.25      -999.25     42.00000    303.43830      1.19263
 43830.8976851852 21:32:40/31-Dec-2019   2603.47998     37.24000    140.68850      -999.25    186.00000      0.00000      0.00000     42.00000    303.30040      1.19196
 43830.8978009259 21:32:50/31-Dec-2019   2603.60010     37.22000    140.56040      -999.25      -999.25      -999.25      -999.25     42.00000    303.92090      1.19440
 43830.8979166667 21:33:00/31-Dec-2019   2603.59009     37.23000    137.72780      -999.25      -999.25      -999.25      -999.25     42.00000    303.71410      1.19357
 43830.8980324074 21:33:10/31-Dec-2019   2603.46997     37.45000    131.09490      -999.25      -999.25      -999.25      -999.25     42.00000    303.50720      1.19282
 43830.8981481481 21:33:20/31-Dec-2019   2603.43994     37.38000    127.80170     82.00000      -999.25      -999.25      -999.25     41.00000    303.23140      1.19175
 43830.8982638889 21:33:30/31-Dec-2019   2603.50000     37.32000    126.41970      -999.25    198.00000      -999.25      -999.25     42.00000    303.78300      1.19389
 43830.8983796296 21:33:40/31-Dec-2019   2603.57007     37.25000    124.77690      -999.25      -999.25      0.00000      0.00000     42.00000    303.78300      1.19386
 43830.8984953704 21:33:50/31-Dec-2019   2603.60010     37.22000    123.39490      -999.25      -999.25      -999.25      -999.25     41.00000    303.64510      1.19330
 43830.8986111111 21:34:00/31-Dec-2019   2603.67017     37.25000    123.18640      -999.25      -999.25      -999.25      -999.25     41.00000    304.88620      1.19815
 43830.8987268518 21:34:10/31-Dec-2019   2603.81006     37.01000    123.10670      -999.25      -999.25      -999.25      -999.25     41.00000    304.61040      1.19704
 43830.8988425926 21:34:20/31-Dec-2019   2603.68994     37.13000    122.81890     92.00000      -999.25      -999.25      -999.25     41.00000    304.33460      1.19602
 43830.8989583333 21:34:30/31-Dec-2019   2603.65015     37.17000    122.32050      -999.25    237.00000      0.00000      0.00000     41.00000    304.67930      1.19734
 43830.8990740741 21:34:40/31-Dec-2019   2603.70020     37.12000    122.18840      -999.25      -999.25      -999.25      -999.25     41.00000    304.67930      1.19732
 43830.8991898148 21:34:50/31-Dec-2019   2603.85010     36.97000    123.55770      -999.25      -999.25      -999.25      -999.25     41.00000    303.50720      1.19269
 43830.8993055556 21:35:00/31-Dec-2019   2603.97998     36.84000    128.37670      -999.25      -999.25      -999.25      -999.25     41.00000    303.78300      1.19367
 43830.8994212963 21:35:10/31-Dec-2019   2603.82007     37.00000    131.51850    108.00000      -999.25      -999.25      -999.25     41.00000    304.12780      1.19510
 43830.8995370370 21:35:20/31-Dec-2019   2603.80005     37.02000    132.23540      -999.25    228.00000      -999.25      -999.25     41.00000    303.71410      1.19342
 43830.8996527778 21:35:30/31-Dec-2019   2603.93994     36.88000    132.23540      -999.25      -999.25      0.00000      0.00000     41.00000    303.57620      1.19294
 43830.8997685185 21:35:40/31-Dec-2019   2604.17017     36.65000    131.51850      -999.25      -999.25      -999.25      -999.25     41.00000    304.05880      1.19469
 43830.8998842593 21:35:50/31-Dec-2019   2604.11011     36.71000    132.31730      -999.25      -999.25      -999.25      -999.25     41.00000    303.78300      1.19361
