~VERSION INFORMATION 
VERS  .    2.0                                     :CWLS Log ASCII Standard - VERSION 2.0
WRAP  .    NO                                      :One Line per Time step
PROD  .    Schlumberger Technology Corp.           :LAS Producer
PROG  .    Horizon LASWriter 9.2.113335.3100       :LAS Program name and version
SOURCE.    Run 8-TimeLogicalAcq                    :Run&Pass Information
CREA  .    12/30/2019                              :LAS Creation date {MM/DD/YYYY}
#--------------------------------------------------
~WELL INFORMATION 
#MNEM           .UNIT                      DATA            :DESCRIPTION
#----            ------          --------------            -----------------------------
STRT            .d               43822.4166666667          :START TIME(OLE Automation date)
STOP            .d               43824.6875000000          :STOP TIME(OLE Automation date)
STEP            .d                            0            :STEP TIME(10s in time)
NULL            .                       -999.25            :NULL VALUE
COMP            .                       Equinor            :COMPANY
WELL            .                        31/5-7            :WELL NAME
FLD             .                           Eos            :FIELD NAME
RIGN            .                 West Hercules            :Rig Name
RIGTYP          .                Semi-Submersible          :Rig Type
SON             .                     19SCA0085            :Service Order Number
SRVC            .                  Schlumberger            :SERVICE COMPANY
DATE            .                    12/23/2019            :LOG DATE(Composite Date for Composite LAP) (MM/DD/YYYY)
CLAB            .                       County:            :County Label
CNTY            .                                          :COUNTY
SLAB            .                                          :State/Province Label
STAT            .                                          :STATE or PROVINCE
PROV            .                                          :STATE or PROVINCE
CTRY            .                        Norway            :COUNTRY
CONT_REGION     .                        Europe            :Continent Region
SECT            .                                          :Section
TOWN            .                                          :Township
RANG            .                                          :Range
API             .                                          :API NUMBER
UWI             .                                          :UNIQUE WELL ID
LUL             .                Service Office            :Logging Unit Location
LUN             .                          A615            :Logging Unit Number
LOC             .                Norwegian North Sea       :FIELD LOCATION
FL1             .                Section: 12 1/4 in.       :Field Location Line 1
FL2             .                Job no.: 19SCA0085        :Field Location Line 2
LATI            .deg             60° 34' 35.14" N          :LATITUDE
LONG            .deg             3° 26' 36.13" E           :LONGITUDE
PDAT            .                           MSL            :Local Permanent Datum
LMF             .                            DF            :Logging Measured From
APD             .m                        31.00            :Elevation of Depth Reference (LMF) Above Permanent Datum
EPD             .m                         0.00            :Elevation of Permanent Datum (PDAT) above Mean Sea Level
EKB             .m                      -999.25            :Elevation of Kelly Bushing Above Permanent Datum
EDF             .m                        31.00            :Elevation of Drill Floor Above Permanent Datum
EGL             .m                      -307.00            :Elevation of Ground Level Above Permanent Datum
ECF             .m                      -999.25            :Elevation of Casing Flange above Permanent Datum
#--------------------------------------------------
~CURVE INFORMATION
#MNEM           .UNIT                  API CODE            :DESCRIPTION
#----            ------          --------------            -----------------------------
TIME_1900       .d                                         :                                                        Time Index(OLE Automation date)
TIME            .s                                         :                                (10s)                   Time(hh mm ss/dd-MMM-yyyy)
DEPTH           .m                                         :(RT)    (DnMWorkflow)                                   Depth Index
GR              .gAPI                                      :(RT)    (ARC9)                                          Gamma Ray
BLKP            .m                                         :(RT)    (DRILLING_SURFACE)                              Height of block above rig floor
CRPM            .c/min                                     :(RT)    (TELE900)                                       Collar Rotational Speed
STICK           .c/min                                     :(RT)    (TELE900)                                       Stick Slip Indicator
SHKPK           .gn                                        :(RT)    (TELE900)                                       Shock Peak
SHKRSK          .                                          :(RT)    (TELE900)                                       Shock Risk
DHAP            .bar                                       :(RM)    (ARC9)                                          Downhole Annulus Pressure
DHAT            .degC                                      :(RM)    (ARC9)                                          Downhole Annulus Temperature
ECD             .g/cm3                                     :(RM)    (ARC9)                                          Equivalent Circulating Density
#-------------------------------------------------------------
#       TIME_1900                 TIME        DEPTH           GR         BLKP         CRPM        STICK        SHKPK       SHKRSK         DHAP         DHAT          ECD 
#                                       (DnMWorkfl)       (ARC9)  (DRILLING_)    (TELE900)    (TELE900)    (TELE900)    (TELE900)       (ARC9)       (ARC9)       (ARC9) 
#                                              (RT)         (RT)         (RT)         (RT)         (RT)         (RT)         (RT)         (RM)         (RM)         (RM) 
#                                (10s)                                                                                                                                   
~ASCII
# ...
 43822.6166666667 14:48:00/23-Dec-2019    1875.6600       0.0000      41.1000      -999.25      -999.25      -999.25      -999.25     236.6970      26.0000       1.2947
 43822.6167824074 14:48:10/23-Dec-2019    1875.5900       0.0000      41.1600      -999.25      -999.25      -999.25      -999.25     236.9039      26.0000       1.2959
 43822.6168981481 14:48:20/23-Dec-2019    1875.5900       0.0000      41.1600      -999.25      -999.25       0.0000       0.0000     236.6970      26.0000       1.2948
 43822.6170138889 14:48:30/23-Dec-2019    1875.5900       0.0000      41.1600      -999.25      -999.25      -999.25      -999.25     236.6970      26.0000       1.2948
 43822.6171296296 14:48:40/23-Dec-2019    1875.5699       0.0000      41.1900      -999.25      -999.25      -999.25      -999.25     236.4212      26.0000       1.2933
 43822.6172453704 14:48:50/23-Dec-2019    1875.3401       0.0000      41.4200      -999.25      -999.25      -999.25      -999.25     236.1454      26.0000       1.2919
 43822.6173611111 14:49:00/23-Dec-2019    1875.2000       0.0000      41.5600      -999.25      -999.25      -999.25      -999.25     236.3523      26.0000       1.2931
 43822.6174768518 14:49:10/23-Dec-2019    1875.0701       0.0000      41.6900      -999.25      -999.25      -999.25      -999.25     236.4212      26.0000       1.2936
 43822.6175925926 14:49:20/23-Dec-2019    1874.9399       0.0000      41.8200      -999.25      -999.25      -999.25      -999.25     236.2833      26.0000       1.2929
 43822.6177083333 14:49:30/23-Dec-2019    1874.9500       0.5691      41.7900      -999.25      -999.25      -999.25      -999.25     236.2144      26.0000       1.2926
 43822.6178240741 14:49:40/23-Dec-2019    1875.0499       0.0000      41.6900      -999.25      -999.25       0.0000       0.0000     236.2833      26.0000       1.2929
 43822.6179398148 14:49:50/23-Dec-2019    1875.1801       0.0000      41.5700      -999.25      -999.25      -999.25      -999.25     236.4212      26.0000       1.2935
 43822.6180555556 14:50:00/23-Dec-2019    1875.2900       0.0000      41.4600      -999.25      -999.25      -999.25      -999.25     236.2833      26.0000       1.2927
 43822.6181712963 14:50:10/23-Dec-2019    1875.4000       0.0000      41.3400      -999.25      -999.25      -999.25      -999.25     236.6970      26.0000       1.2949
 43822.6182870370 14:50:20/23-Dec-2019    1875.5000       0.0000      41.2400      -999.25      -999.25      -999.25      -999.25     236.0765      27.0000       1.2914
 43822.6184027778 14:50:30/23-Dec-2019    1875.6100       0.0000      41.1400      -999.25      -999.25      -999.25      -999.25     236.2833      27.0000       1.2925
 43822.6185185185 14:50:40/23-Dec-2019    1875.7101       0.0000      41.0300      -999.25      -999.25      -999.25      -999.25     236.2144      26.0000       1.2920
 43822.6186342593 14:50:50/23-Dec-2019    1875.8400       0.0000      40.9100      -999.25      -999.25      -999.25      -999.25     236.1454      26.0000       1.2916
 43822.6187500000 14:51:00/23-Dec-2019    1875.8500       0.0000      40.9000      -999.25      -999.25       0.0000       0.0000     236.2833      26.0000       1.2923
 43822.6188657407 14:51:10/23-Dec-2019    1875.8999       0.0000      40.8500      -999.25      -999.25      -999.25      -999.25     236.5591      26.0000       1.2938
 43822.6189814815 14:51:20/23-Dec-2019    1876.0000       0.0000      40.7400      -999.25      -999.25      -999.25      -999.25     236.6281      26.0000       1.2941
 43822.6190972222 14:51:30/23-Dec-2019    1876.1000       0.0000      40.6400      -999.25      -999.25      -999.25      -999.25     236.6281      27.0000       1.2940
 43822.6192129630 14:51:40/23-Dec-2019    1876.1300       0.0000      40.6200      -999.25      -999.25      -999.25      -999.25     236.5591      26.0000       1.2936
 43822.6193287037 14:51:50/23-Dec-2019    1876.2500       0.0000      40.4900      -999.25      -999.25      -999.25      -999.25     236.2833      27.0000       1.2920
 43822.6194444444 14:52:00/23-Dec-2019    1876.2800       0.0000      40.4600      -999.25      -999.25      -999.25      -999.25     235.8696      27.0000       1.2897
 43822.6195601852 14:52:10/23-Dec-2019    1876.4301       0.0000      40.3200      -999.25      -999.25      -999.25      -999.25     236.4212      26.0000       1.2927
 43822.6196759259 14:52:20/23-Dec-2019    1876.4301       0.0000      40.3200      -999.25      -999.25      -999.25      -999.25     236.2833      27.0000       1.2919
 43822.6197916667 14:52:30/23-Dec-2019    1876.4401       0.0000      40.3100      -999.25      -999.25       0.0000       0.0000     236.3523      26.0000       1.2923
 43822.6199074074 14:52:40/23-Dec-2019    1876.4500       0.0000      40.3000      -999.25      -999.25      -999.25      -999.25     236.2144      26.0000       1.2915
 43822.6200231481 14:52:50/23-Dec-2019    1876.5199       0.0000      40.2300      -999.25      -999.25      -999.25      -999.25     236.2144      27.0000       1.2915
 43822.6201388889 14:53:00/23-Dec-2019    1876.6200       0.0000      40.1300      -999.25      -999.25      -999.25      -999.25     236.8349      27.0000       1.2948
 43822.6202546296 14:53:10/23-Dec-2019    1876.7200       0.0000      40.0300      -999.25      -999.25      -999.25      -999.25     236.3523      27.0000       1.2921
 43822.6203703704 14:53:20/23-Dec-2019    1876.8199       0.0000      39.9300      -999.25      -999.25      -999.25      -999.25     236.4902      27.0000       1.2928
 43822.6204861111 14:53:30/23-Dec-2019    1876.8400       0.0000      39.9100      -999.25      -999.25      -999.25      -999.25     236.4212      26.0000       1.2924
 43822.6206018519 14:53:40/23-Dec-2019    1876.9399       0.0000      39.8100      -999.25      -999.25      -999.25      -999.25     236.3523      26.0000       1.2919
 43822.6207175926 14:53:50/23-Dec-2019    1877.0399       0.1778      39.7100      -999.25      -999.25       0.0000       0.0000     236.4902      27.0000       1.2926
 43822.6208333333 14:54:00/23-Dec-2019    1877.1499      10.1776      39.6000      -999.25      -999.25      -999.25      -999.25     236.0765      26.0000       1.2903
 43822.6209490741 14:54:10/23-Dec-2019    1877.2201      19.3664      39.5300      -999.25      -999.25      -999.25      -999.25     236.2144      26.0000       1.2910
 43822.6210648148 14:54:20/23-Dec-2019    1877.3800      20.5813      39.3700      -999.25      -999.25      -999.25      -999.25     236.0765      26.0000       1.2901
 43822.6211805556 14:54:30/23-Dec-2019    1877.5199      17.0000      39.2300      -999.25      -999.25      -999.25      -999.25     236.2144      26.0000       1.2908
 43822.6212962963 14:54:40/23-Dec-2019    1877.6699      13.9640      39.0800      -999.25      -999.25      -999.25      -999.25     236.2144      26.0000       1.2907
 43822.6214120370 14:54:50/23-Dec-2019    1877.8300      -999.25      38.9200      -999.25      -999.25      -999.25      -999.25     236.0765      26.0000       1.2898
 43822.6215277778 14:55:00/23-Dec-2019    1877.9800      -999.25      38.7700      -999.25      -999.25      -999.25      -999.25     236.0075      26.0000       1.2893
 43822.6216435185 14:55:10/23-Dec-2019    1878.1100      -999.25      38.6400      -999.25      -999.25      -999.25      -999.25     235.8696      26.0000       1.2885
 43822.6217592593 14:55:20/23-Dec-2019    1878.2001      -999.25      38.5500      -999.25      -999.25      -999.25      -999.25     235.5938      26.0000       1.2869
 43822.6218750000 14:55:30/23-Dec-2019    1877.6500      -999.25      39.1000      -999.25      -999.25      -999.25      -999.25     236.3523      26.0000       1.2914
 43822.6219907407 14:55:40/23-Dec-2019    1875.8201      -999.25      40.9300      -999.25      -999.25      -999.25      -999.25     234.0081      26.0000       1.2799
 43822.6221064815 14:55:50/23-Dec-2019    1873.7900      -999.25      42.9600      -999.25      -999.25      -999.25      -999.25     234.3528      26.0000       1.2832
