~VERSION INFORMATION 
VERS  .    2.0                                     :CWLS Log ASCII Standard - VERSION 2.0
WRAP  .    NO                                      :One Line per Time step
PROD  .    Schlumberger Technology Corp.           :LAS Producer
PROG  .    Horizon LASWriter 9.2.113335.3100       :LAS Program name and version
SOURCE.    Run 8-TimeLogicalAcq                    :Run&Pass Information
CREA  .    12/30/2019                              :LAS Creation date {MM/DD/YYYY}
#--------------------------------------------------
~WELL INFORMATION 
#MNEM           .UNIT                      DATA            :DESCRIPTION
#----            ------          --------------            -----------------------------
STRT            .d               43822.4166666667          :START TIME(OLE Automation date)
STOP            .d               43824.6875000000          :STOP TIME(OLE Automation date)
STEP            .d                            0            :STEP TIME(10s in time)
NULL            .                       -999.25            :NULL VALUE
COMP            .                       Equinor            :COMPANY
WELL            .                        31/5-7            :WELL NAME
FLD             .                           Eos            :FIELD NAME
RIGN            .                 West Hercules            :Rig Name
RIGTYP          .                Semi-Submersible          :Rig Type
SON             .                     19SCA0085            :Service Order Number
SRVC            .                  Schlumberger            :SERVICE COMPANY
DATE            .                    12/23/2019            :LOG DATE(Composite Date for Composite LAP) (MM/DD/YYYY)
CLAB            .                       County:            :County Label
CNTY            .                                          :COUNTY
SLAB            .                                          :State/Province Label
STAT            .                                          :STATE or PROVINCE
PROV            .                                          :STATE or PROVINCE
CTRY            .                        Norway            :COUNTRY
CONT_REGION     .                        Europe            :Continent Region
SECT            .                                          :Section
TOWN            .                                          :Township
RANG            .                                          :Range
API             .                                          :API NUMBER
UWI             .                                          :UNIQUE WELL ID
LUL             .                Service Office            :Logging Unit Location
LUN             .                          A615            :Logging Unit Number
LOC             .                Norwegian North Sea       :FIELD LOCATION
FL1             .                Section: 12 1/4 in.       :Field Location Line 1
FL2             .                Job no.: 19SCA0085        :Field Location Line 2
LATI            .deg             60° 34' 35.14" N          :LATITUDE
LONG            .deg             3° 26' 36.13" E           :LONGITUDE
PDAT            .                           MSL            :Local Permanent Datum
LMF             .                            DF            :Logging Measured From
APD             .m                        31.00            :Elevation of Depth Reference (LMF) Above Permanent Datum
EPD             .m                         0.00            :Elevation of Permanent Datum (PDAT) above Mean Sea Level
EKB             .m                      -999.25            :Elevation of Kelly Bushing Above Permanent Datum
EDF             .m                        31.00            :Elevation of Drill Floor Above Permanent Datum
EGL             .m                      -307.00            :Elevation of Ground Level Above Permanent Datum
ECF             .m                      -999.25            :Elevation of Casing Flange above Permanent Datum
#--------------------------------------------------
~CURVE INFORMATION
#MNEM           .UNIT                  API CODE            :DESCRIPTION
#----            ------          --------------            -----------------------------
TIME_1900       .d                                         :                                                        Time Index(OLE Automation date)
TIME            .s                                         :                                (10s)                   Time(hh mm ss/dd-MMM-yyyy)
DEPTH           .m                                         :(RT)    (DnMWorkflow)                                   Depth Index
GR              .gAPI                                      :(RT)    (ARC9)                                          Gamma Ray
BLKP            .m                                         :(RT)    (DRILLING_SURFACE)                              Height of block above rig floor
CRPM            .c/min                                     :(RT)    (TELE900)                                       Collar Rotational Speed
STICK           .c/min                                     :(RT)    (TELE900)                                       Stick Slip Indicator
SHKPK           .gn                                        :(RT)    (TELE900)                                       Shock Peak
SHKRSK          .                                          :(RT)    (TELE900)                                       Shock Risk
DHAP            .bar                                       :(RM)    (ARC9)                                          Downhole Annulus Pressure
DHAT            .degC                                      :(RM)    (ARC9)                                          Downhole Annulus Temperature
ECD             .g/cm3                                     :(RM)    (ARC9)                                          Equivalent Circulating Density
#-------------------------------------------------------------
#       TIME_1900                 TIME        DEPTH           GR         BLKP         CRPM        STICK        SHKPK       SHKRSK         DHAP         DHAT          ECD 
#                                       (DnMWorkfl)       (ARC9)  (DRILLING_)    (TELE900)    (TELE900)    (TELE900)    (TELE900)       (ARC9)       (ARC9)       (ARC9) 
#                                              (RT)         (RT)         (RT)         (RT)         (RT)         (RT)         (RT)         (RM)         (RM)         (RM) 
#                                (10s)                                                                                                                                   
~ASCII
# ...
 43822.8944444444 21:28:00/23-Dec-2019    1910.5900     176.8255       6.1600      -999.25      -999.25      -999.25      -999.25     238.9033      28.0000       1.2827
 43822.8945601852 21:28:10/23-Dec-2019    1910.6200     173.6281       6.1300     103.0000      -999.25      -999.25      -999.25     238.9033      28.0000       1.2827
 43822.8946759259 21:28:20/23-Dec-2019    1910.6499     179.7914       6.1000      -999.25      -999.25      -999.25      -999.25     238.9033      28.0000       1.2827
 43822.8947916667 21:28:30/23-Dec-2019    1910.8500     184.8352       5.9000      -999.25      -999.25      -999.25      -999.25     238.9723      28.0000       1.2829
 43822.8949074074 21:28:40/23-Dec-2019    1910.7700     179.7405       5.9800      -999.25      -999.25      -999.25      -999.25     238.9033      28.0000       1.2826
 43822.8950231481 21:28:50/23-Dec-2019    1910.9500     172.2406       5.8000      -999.25     381.0000      -999.25      -999.25     238.9723      28.0000       1.2829
 43822.8951388889 21:29:00/23-Dec-2019    1911.1299     162.4502       5.6200      -999.25      -999.25       0.0000       0.0000     238.8344      28.0000       1.2820
 43822.8952546296 21:29:10/23-Dec-2019    1910.8400     154.9504       5.9100      -999.25      -999.25      -999.25      -999.25     238.7654      28.0000       1.2818
 43822.8953703704 21:29:20/23-Dec-2019    1911.2799     159.3640       5.4700      -999.25      -999.25      -999.25      -999.25     239.0412      28.0000       1.2830
 43822.8954861111 21:29:30/23-Dec-2019    1911.1699     169.6547       5.5800     102.0000      -999.25      -999.25      -999.25     239.0412      28.0000       1.2831
 43822.8956018519 21:29:40/23-Dec-2019    1911.2401     179.3992       5.5100      -999.25      -999.25      -999.25      -999.25     239.1791      28.0000       1.2838
 43822.8957175926 21:29:50/23-Dec-2019    1911.4900     179.2380       5.2600      -999.25      -999.25      -999.25      -999.25     239.1102      28.0000       1.2832
 43822.8958333333 21:30:00/23-Dec-2019    1911.4501     202.3626       5.3000      -999.25      -999.25      -999.25      -999.25     239.1102      28.0000       1.2833
 43822.8959490741 21:30:10/23-Dec-2019    1911.6101     218.4025       5.1400      -999.25     345.0000      -999.25      -999.25     239.2481      28.0000       1.2839
 43822.8960648148 21:30:20/23-Dec-2019    1911.5800     231.4563       5.1700      -999.25      -999.25       0.0000       0.0000     239.2481      28.0000       1.2839
 43822.8961805556 21:30:30/23-Dec-2019    1911.7300     235.4161       5.0200      -999.25      -999.25      -999.25      -999.25     239.1102      28.0000       1.2831
 43822.8962962963 21:30:40/23-Dec-2019    1911.8201     233.7918       4.9300      -999.25      -999.25      -999.25      -999.25     239.1102      28.0000       1.2830
 43822.8964120370 21:30:50/23-Dec-2019    1911.9301     225.6773       4.8200      -999.25      -999.25      -999.25      -999.25     239.1791      29.0000       1.2833
 43822.8965277778 21:31:00/23-Dec-2019    1911.9701     211.3521       4.7800     106.0000      -999.25      -999.25      -999.25     238.9033      29.0000       1.2818
 43822.8966435185 21:31:10/23-Dec-2019    1911.8800     199.2078       4.8700      -999.25      -999.25      -999.25      -999.25     239.1102      29.0000       1.2830
 43822.8967592593 21:31:20/23-Dec-2019    1911.9701     205.7572       4.7800      -999.25      -999.25      -999.25      -999.25     239.1791      28.0000       1.2833
 43822.8968750000 21:31:30/23-Dec-2019    1911.8500     202.0922       4.9000      -999.25      -999.25      -999.25      -999.25     239.1791      29.0000       1.2834
 43822.8969907407 21:31:40/23-Dec-2019    1912.0599     192.0165       4.6900      -999.25     381.0000      -999.25      -999.25     239.3170      29.0000       1.2840
 43822.8971064815 21:31:50/23-Dec-2019    1912.2301     189.8256       4.5200      -999.25      -999.25       0.0000       0.0000     239.3170      29.0000       1.2838
 43822.8972222222 21:32:00/23-Dec-2019    1911.9600     195.3513       4.7900      -999.25      -999.25      -999.25      -999.25     239.3170      29.0000       1.2840
 43822.8973379630 21:32:10/23-Dec-2019    1912.2301     206.7982       4.5200      -999.25      -999.25      -999.25      -999.25     239.3170      29.0000       1.2838
 43822.8974537037 21:32:20/23-Dec-2019    1912.2301     203.7621       4.5200      59.0000      -999.25      -999.25      -999.25     239.1791      29.0000       1.2831
 43822.8975694444 21:32:30/23-Dec-2019    1912.2301     200.1809       4.5200      -999.25      -999.25      -999.25      -999.25     239.2481      29.0000       1.2835
 43822.8976851852 21:32:40/23-Dec-2019    1912.3000     199.4639       4.4400      -999.25      -999.25      -999.25      -999.25     239.3860      29.0000       1.2842
 43822.8978009259 21:32:50/23-Dec-2019    1912.2699     206.1726       4.4700      -999.25      -999.25      -999.25      -999.25     239.4549      29.0000       1.2846
 43822.8979166667 21:33:00/23-Dec-2019    1912.3799     220.7527       4.3600      -999.25     381.0000      -999.25      -999.25     239.3860      29.0000       1.2841
 43822.8980324074 21:33:10/23-Dec-2019    1912.5000     224.0162       4.2300      -999.25      -999.25       0.0000       0.0000     239.3170      29.0000       1.2837
 43822.8981481481 21:33:20/23-Dec-2019    1912.6500     214.4359       4.0900      -999.25      -999.25      -999.25      -999.25     239.3860      29.0000       1.2839
 43822.8982638889 21:33:30/23-Dec-2019    1912.7001     191.2517       4.0400      -999.25      -999.25      -999.25      -999.25     239.3170      29.0000       1.2835
 43822.8983796296 21:33:40/23-Dec-2019    1912.8400     189.6933       3.9000      96.0000      -999.25      -999.25      -999.25     239.4549      29.0000       1.2842
 43822.8984953704 21:33:50/23-Dec-2019    1912.8999     190.3388       3.8400      -999.25      -999.25      -999.25      -999.25     239.5239      29.0000       1.2845
 43822.8986111111 21:34:00/23-Dec-2019    1913.0400     191.8971       3.7100      -999.25      -999.25      -999.25      -999.25     239.5239      29.0000       1.2844
 43822.8987268518 21:34:10/23-Dec-2019    1913.1599     156.8281       3.5900      -999.25      -999.25      -999.25      -999.25     239.6618      29.0000       1.2851
 43822.8988425926 21:34:20/23-Dec-2019    1913.1599     147.4924       3.5900      -999.25     162.0000      -999.25      -999.25     239.6618      29.0000       1.2851
 43822.8989583333 21:34:30/23-Dec-2019    1913.3401     145.4028       3.4100      -999.25      -999.25       0.0000       0.0000     239.7307      29.0000       1.2853
 43822.8990740741 21:34:40/23-Dec-2019    1913.2500     151.5371       3.5000      -999.25      -999.25      -999.25      -999.25     239.6618      29.0000       1.2850
 43822.8991898148 21:34:50/23-Dec-2019    1913.3401     159.6971       3.4100      -999.25      -999.25      -999.25      -999.25     239.7307      29.0000       1.2853
 43822.8993055556 21:35:00/23-Dec-2019    1913.4301     165.2202       3.3200      -999.25      -999.25      -999.25      -999.25     239.5928      29.0000       1.2845
 43822.8994212963 21:35:10/23-Dec-2019    1913.4301     172.0994       3.3200      66.0000      -999.25      -999.25      -999.25     239.5928      29.0000       1.2845
 43822.8995370370 21:35:20/23-Dec-2019    1913.5299     177.9314       3.2200      -999.25      -999.25      -999.25      -999.25     239.7307      29.0000       1.2852
 43822.8996527778 21:35:30/23-Dec-2019    1913.4301     181.5810       3.3200      -999.25      -999.25      -999.25      -999.25     239.7307      29.0000       1.2853
 43822.8997685185 21:35:40/23-Dec-2019    1913.6200     177.1567       3.1300      -999.25      96.0000      -999.25      -999.25     239.8686      29.0000       1.2859
 43822.8998842593 21:35:50/23-Dec-2019    1913.7100     172.1081       3.0400      -999.25      -999.25       0.0000       0.0000     239.9376      29.0000       1.2862
