~VERSION INFORMATION 
VERS  .    2.0                                     :CWLS Log ASCII Standard - VERSION 2.0
WRAP  .    NO                                      :One Line per Time step
PROD  .    Schlumberger Technology Corp.           :LAS Producer
PROG  .    Horizon LASWriter 9.2.113335.3100       :LAS Program name and version
SOURCE.    Run 8-TimeLogicalAcq                    :Run&Pass Information
CREA  .    12/30/2019                              :LAS Creation date {MM/DD/YYYY}
#--------------------------------------------------
~WELL INFORMATION 
#MNEM           .UNIT                      DATA            :DESCRIPTION
#----            ------          --------------            -----------------------------
STRT            .d               43822.4166666667          :START TIME(OLE Automation date)
STOP            .d               43824.6875000000          :STOP TIME(OLE Automation date)
STEP            .d                            0            :STEP TIME(10s in time)
NULL            .                       -999.25            :NULL VALUE
COMP            .                       Equinor            :COMPANY
WELL            .                        31/5-7            :WELL NAME
FLD             .                           Eos            :FIELD NAME
RIGN            .                 West Hercules            :Rig Name
RIGTYP          .                Semi-Submersible          :Rig Type
SON             .                     19SCA0085            :Service Order Number
SRVC            .                  Schlumberger            :SERVICE COMPANY
DATE            .                    12/23/2019            :LOG DATE(Composite Date for Composite LAP) (MM/DD/YYYY)
CLAB            .                       County:            :County Label
CNTY            .                                          :COUNTY
SLAB            .                                          :State/Province Label
STAT            .                                          :STATE or PROVINCE
PROV            .                                          :STATE or PROVINCE
CTRY            .                        Norway            :COUNTRY
CONT_REGION     .                        Europe            :Continent Region
SECT            .                                          :Section
TOWN            .                                          :Township
RANG            .                                          :Range
API             .                                          :API NUMBER
UWI             .                                          :UNIQUE WELL ID
LUL             .                Service Office            :Logging Unit Location
LUN             .                          A615            :Logging Unit Number
LOC             .                Norwegian North Sea       :FIELD LOCATION
FL1             .                Section: 12 1/4 in.       :Field Location Line 1
FL2             .                Job no.: 19SCA0085        :Field Location Line 2
LATI            .deg             60° 34' 35.14" N          :LATITUDE
LONG            .deg             3° 26' 36.13" E           :LONGITUDE
PDAT            .                           MSL            :Local Permanent Datum
LMF             .                            DF            :Logging Measured From
APD             .m                        31.00            :Elevation of Depth Reference (LMF) Above Permanent Datum
EPD             .m                         0.00            :Elevation of Permanent Datum (PDAT) above Mean Sea Level
EKB             .m                      -999.25            :Elevation of Kelly Bushing Above Permanent Datum
EDF             .m                        31.00            :Elevation of Drill Floor Above Permanent Datum
EGL             .m                      -307.00            :Elevation of Ground Level Above Permanent Datum
ECF             .m                      -999.25            :Elevation of Casing Flange above Permanent Datum
#--------------------------------------------------
~CURVE INFORMATION
#MNEM           .UNIT                  API CODE            :DESCRIPTION
#----            ------          --------------            -----------------------------
TIME_1900       .d                                         :                                                        Time Index(OLE Automation date)
TIME            .s                                         :                                (10s)                   Time(hh mm ss/dd-MMM-yyyy)
DEPTH           .m                                         :(RT)    (DnMWorkflow)                                   Depth Index
GR              .gAPI                                      :(RT)    (ARC9)                                          Gamma Ray
BLKP            .m                                         :(RT)    (DRILLING_SURFACE)                              Height of block above rig floor
CRPM            .c/min                                     :(RT)    (TELE900)                                       Collar Rotational Speed
STICK           .c/min                                     :(RT)    (TELE900)                                       Stick Slip Indicator
SHKPK           .gn                                        :(RT)    (TELE900)                                       Shock Peak
SHKRSK          .                                          :(RT)    (TELE900)                                       Shock Risk
DHAP            .bar                                       :(RM)    (ARC9)                                          Downhole Annulus Pressure
DHAT            .degC                                      :(RM)    (ARC9)                                          Downhole Annulus Temperature
ECD             .g/cm3                                     :(RM)    (ARC9)                                          Equivalent Circulating Density
#-------------------------------------------------------------
#       TIME_1900                 TIME        DEPTH           GR         BLKP         CRPM        STICK        SHKPK       SHKRSK         DHAP         DHAT          ECD 
#                                       (DnMWorkfl)       (ARC9)  (DRILLING_)    (TELE900)    (TELE900)    (TELE900)    (TELE900)       (ARC9)       (ARC9)       (ARC9) 
#                                              (RT)         (RT)         (RT)         (RT)         (RT)         (RT)         (RT)         (RM)         (RM)         (RM) 
#                                (10s)                                                                                                                                   
~ASCII
# ...
 43824.1333333333 03:12:00/25-Dec-2019    2540.0698      92.1739      30.1000     165.0000      -999.25      -999.25      -999.25     321.6404      45.0000       1.2971
 43824.1334490741 03:12:10/25-Dec-2019    2540.1199      89.2339      30.0500      -999.25      -999.25      -999.25      -999.25     321.5715      45.0000       1.2968
 43824.1335648148 03:12:20/25-Dec-2019    2540.0901      91.6548      30.0800      -999.25      -999.25      -999.25      -999.25     321.6404      45.0000       1.2970
 43824.1336805556 03:12:30/25-Dec-2019    2540.2400      96.7132      29.9300      -999.25      -999.25      -999.25      -999.25     321.6404      45.0000       1.2970
 43824.1337962963 03:12:40/25-Dec-2019    2540.3901     103.7991      29.7800      -999.25     264.0000      -999.25      -999.25     321.5715      45.0000       1.2966
 43824.1339120370 03:12:50/25-Dec-2019    2540.3601     107.9883      29.8100      -999.25      -999.25       0.0000       0.0000     321.5025      45.0000       1.2964
 43824.1340277778 03:13:00/25-Dec-2019    2540.3301     107.3207      29.8400      -999.25      -999.25      -999.25      -999.25     321.5025      45.0000       1.2964
 43824.1341435185 03:13:10/25-Dec-2019    2540.3801      97.8747      29.7900      -999.25      -999.25      -999.25      -999.25     321.6404      45.0000       1.2969
 43824.1342592593 03:13:20/25-Dec-2019    2540.3499      89.7121      29.8200     162.0000      -999.25      -999.25      -999.25     321.5025      45.0000       1.2964
 43824.1343750000 03:13:30/25-Dec-2019    2540.4102      83.4577      29.7600      -999.25      -999.25      -999.25      -999.25     321.6404      45.0000       1.2969
 43824.1344907407 03:13:40/25-Dec-2019    2540.5500      83.5612      29.6100      -999.25      -999.25      -999.25      -999.25     321.6404      45.0000       1.2968
 43824.1346064815 03:13:50/25-Dec-2019    2540.6101      80.1824      29.5600      -999.25      -999.25      -999.25      -999.25     321.5715      45.0000       1.2965
 43824.1347222222 03:14:00/25-Dec-2019    2540.6699      70.1567      29.5000      -999.25     141.0000      -999.25      -999.25     321.5025      45.0000       1.2962
 43824.1348379630 03:14:10/25-Dec-2019    2540.7300      72.2513      29.4400      -999.25      -999.25       0.0000       0.0000     321.6404      45.0000       1.2967
 43824.1349537037 03:14:20/25-Dec-2019    2540.7898      85.4862      29.3800      -999.25      -999.25      -999.25      -999.25     321.6404      45.0000       1.2967
 43824.1350694444 03:14:30/25-Dec-2019    2540.7500      90.4244      29.4200      -999.25      -999.25      -999.25      -999.25     321.6404      45.0000       1.2967
 43824.1351851852 03:14:40/25-Dec-2019    2540.8101      90.6435      29.3600      -999.25      -999.25      -999.25      -999.25     321.8473      45.0000       1.2975
 43824.1353009259 03:14:50/25-Dec-2019    2541.0500      85.4049      29.1200     166.0000      -999.25      -999.25      -999.25     321.7094      45.0000       1.2969
 43824.1354166667 03:15:00/25-Dec-2019    2541.2000      75.5581      28.9700      -999.25      -999.25      -999.25      -999.25     321.4336      45.0000       1.2956
 43824.1355324074 03:15:10/25-Dec-2019    2540.9800      67.7622      29.1900      -999.25      -999.25      -999.25      -999.25     321.8473      45.0000       1.2974
 43824.1356481481 03:15:20/25-Dec-2019    2541.1301      62.0961      29.0400      -999.25      -999.25      -999.25      -999.25     321.7094      45.0000       1.2968
 43824.1357638889 03:15:30/25-Dec-2019    2541.1899      57.5974      28.9800      -999.25     279.0000      -999.25      -999.25     321.5715      45.0000       1.2962
 43824.1358796296 03:15:40/25-Dec-2019    2541.1599      58.1595      29.0100      -999.25      -999.25       0.0000       0.0000     321.5715      45.0000       1.2962
 43824.1359953704 03:15:50/25-Dec-2019    2541.2100      58.6992      28.9500      -999.25      -999.25      -999.25      -999.25     321.8473      45.0000       1.2973
 43824.1361111111 03:16:00/25-Dec-2019    2541.2800      55.3583      28.8900      -999.25      -999.25      -999.25      -999.25     321.6404      45.0000       1.2964
 43824.1362268519 03:16:10/25-Dec-2019    2541.3398      54.3581      28.8300     171.0000      -999.25      -999.25      -999.25     321.8473      45.0000       1.2972
 43824.1363425926 03:16:20/25-Dec-2019    2541.4900      54.7724      28.7600      -999.25      -999.25      -999.25      -999.25     321.5715      45.0000       1.2961
 43824.1364583333 03:16:30/25-Dec-2019    2541.4502      55.9754      28.7200      -999.25      -999.25      -999.25      -999.25     321.8473      45.0000       1.2972
 43824.1365740741 03:16:40/25-Dec-2019    2541.4299      57.0790      28.8300      -999.25      -999.25      -999.25      -999.25     321.7783      45.0000       1.2969
 43824.1366898148 03:16:50/25-Dec-2019    2541.3899      57.9986      28.7800      -999.25     252.0000      -999.25      -999.25     321.8473      45.0000       1.2972
 43824.1368055556 03:17:00/25-Dec-2019    2541.4099      58.4175      28.7600      -999.25      -999.25       0.0000       0.0000     321.9162      45.0000       1.2975
 43824.1369212963 03:17:10/25-Dec-2019    2541.4600      58.1397      28.7100      -999.25      -999.25      -999.25      -999.25     321.9162      45.0000       1.2975
 43824.1370370370 03:17:20/25-Dec-2019    2541.4900      56.0361      28.7700      -999.25      -999.25      -999.25      -999.25     321.7094      45.0000       1.2966
 43824.1371527778 03:17:30/25-Dec-2019    2541.5200      50.0866      28.6500     179.0000      -999.25      -999.25      -999.25     321.9162      45.0000       1.2974
 43824.1372685185 03:17:40/25-Dec-2019    2541.5400      49.4452      28.6300      -999.25      -999.25      -999.25      -999.25     321.7783      45.0000       1.2969
 43824.1373842593 03:17:50/25-Dec-2019    2541.5598      53.3350      28.6100      -999.25      -999.25      -999.25      -999.25     321.7783      45.0000       1.2969
 43824.1375000000 03:18:00/25-Dec-2019    2541.6201      57.0820      28.5400      -999.25      -999.25      -999.25      -999.25     321.8473      45.0000       1.2971
 43824.1376157407 03:18:10/25-Dec-2019    2541.5901      58.0189      28.5800      -999.25      60.0000      -999.25      -999.25     321.7094      45.0000       1.2966
 43824.1377314815 03:18:20/25-Dec-2019    2541.6399      64.3027      28.5300      -999.25      -999.25       0.0000       0.0000     321.6404      45.0000       1.2963
 43824.1378472222 03:18:30/25-Dec-2019    2541.6501      72.9932      28.5200      -999.25      -999.25      -999.25      -999.25     321.7094      45.0000       1.2965
 43824.1379629630 03:18:40/25-Dec-2019    2541.7400      63.6862      28.4200      -999.25      -999.25      -999.25      -999.25     321.7094      45.0000       1.2965
 43824.1380787037 03:18:50/25-Dec-2019    2541.8401      60.3666      28.3300      -999.25      -999.25      -999.25      -999.25     321.8473      45.0000       1.2970
 43824.1381944444 03:19:00/25-Dec-2019    2541.9399      59.9523      28.2200     190.0000      -999.25      -999.25      -999.25     321.8473      45.0000       1.2969
 43824.1383101852 03:19:10/25-Dec-2019    2542.0400      60.9525      28.1200      -999.25      -999.25      -999.25      -999.25     321.7783      45.0000       1.2966
 43824.1384259259 03:19:20/25-Dec-2019    2542.2300      60.0794      27.9400      -999.25      -999.25      -999.25      -999.25     321.9852      45.0000       1.2973
 43824.1385416667 03:19:30/25-Dec-2019    2542.3298      57.4503      27.8400      -999.25     117.0000      -999.25      -999.25     321.9162      45.0000       1.2970
 43824.1386574074 03:19:40/25-Dec-2019    2542.4299      60.2627      27.7400      -999.25      -999.25      -999.25      -999.25     321.8473      45.0000       1.2967
 43824.1387731481 03:19:50/25-Dec-2019    2542.5300      73.1965      27.6400      -999.25      -999.25       0.0000       0.0000     321.8473      45.0000       1.2966
